# 
# Header Description:
# 
# Version: v3.1.1.1 Platform: 16 Manufacturer: Google Model: Pixel 8a GNSS Hardware Model Name: S.LSI,K041,SPOTNAV_4.15.4_3_250220_R2_258342
# 
# Raw,utcTimeMillis,TimeNanos,LeapSecond,TimeUncertaintyNanos,FullBiasNanos,BiasNanos,BiasUncertaintyNanos,DriftNanosPerSecond,DriftUncertaintyNanosPerSecond,HardwareClockDiscontinuityCount,Svid,TimeOffsetNanos,State,ReceivedSvTimeNanos,ReceivedSvTimeUncertaintyNanos,Cn0DbHz,PseudorangeRateMetersPerSecond,PseudorangeRateUncertaintyMetersPerSecond,AccumulatedDeltaRangeState,AccumulatedDeltaRangeMeters,AccumulatedDeltaRangeUncertaintyMeters,CarrierFrequencyHz,CarrierCycles,CarrierPhase,CarrierPhaseUncertainty,MultipathIndicator,SnrInDb,ConstellationType,AgcDb,BasebandCn0DbHz,FullInterSignalBiasNanos,FullInterSignalBiasUncertaintyNanos,SatelliteInterSignalBiasNanos,SatelliteInterSignalBiasUncertaintyNanos,CodeType,ChipsetElapsedRealtimeNanos,IsFullTracking,SvPositionEcefXMeters,SvPositionEcefYMeters,SvPositionEcefZMeters,SvVelocityEcefXMetersPerSecond,SvVelocityEcefYMetersPerSecond,SvVelocityEcefZMetersPerSecond,SvClockBiasMeters,SvClockDriftMetersPerSecond,KlobucharAlpha0,KlobucharAlpha1,KlobucharAlpha2,KlobucharAlpha3,KlobucharBeta0,KlobucharBeta1,KlobucharBeta2,KlobucharBeta3
# 
# UncalAccel,utcTimeMillis,elapsedRealtimeNanos,UncalAccelXMps2,UncalAccelYMps2,UncalAccelZMps2,BiasXMps2,BiasYMps2,BiasZMps2,CalibrationAccuracy
# 
# Accel,utcTimeMillis,elapsedRealtimeNanos,AccelXMps2,AccelYMps2,AccelZMps2,CalibrationAccuracy
# 
# UncalGyro,utcTimeMillis,elapsedRealtimeNanos,UncalGyroXRadPerSec,UncalGyroYRadPerSec,UncalGyroZRadPerSec,DriftXRadPerSec,DriftYRadPerSec,DriftZRadPerSec,CalibrationAccuracy
# 
# Gyro,utcTimeMillis,elapsedRealtimeNanos,GyroXRadPerSec,GyroYRadPerSec,GyroZRadPerSec,CalibrationAccuracy
# 
# UncalMag,utcTimeMillis,elapsedRealtimeNanos,UncalMagXMicroT,UncalMagYMicroT,UncalMagZMicroT,BiasXMicroT,BiasYMicroT,BiasZMicroT,CalibrationAccuracy
# 
# Mag,utcTimeMillis,elapsedRealtimeNanos,MagXMicroT,MagYMicroT,MagZMicroT,CalibrationAccuracy
# 
# Pressure,utcTimeMillis,elapsedRealtimeNanos,PressureHpa,CalibrationAccuracy
# 
# OrientationDeg,utcTimeMillis,elapsedRealtimeNanos,yawDeg,rollDeg,pitchDeg,CalibrationAccuracy
# 
# Fix,Provider,LatitudeDegrees,LongitudeDegrees,AltitudeMeters,SpeedMps,AccuracyMeters,BearingDegrees,UnixTimeMillis,SpeedAccuracyMps,BearingAccuracyDegrees,elapsedRealtimeNanos,VerticalAccuracyMeters,MockLocation,NumberOfUsedSignals,VerticalSpeedAccuracyMps,SolutionType
# 
# Nav,Svid,Type,Status,MessageId,Sub-messageId,Data(Bytes)
# 
# Status,UnixTimeMillis,SignalCount,SignalIndex,ConstellationType,Svid,CarrierFrequencyHz,Cn0DbHz,AzimuthDegrees,ElevationDegrees,UsedInFix,HasAlmanacData,HasEphemerisData,BasebandCn0DbHz
# 
# Agc,utcTimeMillis,TimeNanos,LeapSecond,TimeUncertaintyNanos,FullBiasNanos,BiasNanos,BiasUncertaintyNanos,DriftNanosPerSecond,DriftUncertaintyNanosPerSecond,HardwareClockDiscontinuityCount,AgcDb,CarrierFrequencyHz,ConstellationType
# 
Status,,21,0,1,9,1575420000,39.70,285.3,77.6,1,0,1,36.2
Status,,21,1,1,4,1575420000,33.40,141.2,56.6,1,0,1,29.9
Status,,21,2,1,7,1575420000,35.70,292.2,44.3,1,0,1,32.2
Status,,21,3,1,16,1575420000,40.00,49.3,42.1,1,0,1,36.5
Status,,21,4,1,27,1575420000,31.40,97.6,37.4,1,0,1,27.9
Status,,21,5,1,8,1575420000,37.90,138.9,33.4,1,0,1,34.4
Status,,21,6,1,30,1575420000,35.10,279.4,15.3,1,0,1,31.6
Status,,21,7,1,21,1575420000,27.90,317.7,13.4,1,0,1,24.4
Status,,21,8,1,26,1575420000,29.30,50.7,6.2,1,0,1,25.8
Status,,21,9,1,3,1575420000,31.70,187.8,5.1,1,0,1,28.2
Status,,21,10,3,4,1605375000,37.80,182.4,66.5,1,0,1,34.3
Status,,21,11,3,14,1598062500,37.70,22.1,55.5,1,0,1,34.2
Status,,21,12,3,15,1602000000,40.10,266.2,55.4,1,0,1,36.6
Status,,21,13,3,5,1602562600,39.30,318.7,53.5,1,0,1,35.8
Status,,21,14,6,27,1575420000,28.00,184.5,75.9,1,0,1,24.5
Status,,21,15,6,29,1575420000,36.40,311.0,67.4,1,0,1,32.9
Status,,21,16,6,7,1575420000,31.60,131.5,54.7,1,0,1,28.1
Status,,21,17,6,30,1575420000,28.40,50.4,45.7,1,0,1,24.9
Status,,21,18,6,21,1575420000,23.50,216.2,23.6,1,0,1,20.0
Status,,21,19,6,19,1575420000,26.20,312.0,19.4,1,0,1,22.7
Status,,21,20,6,8,1575420000,31.70,131.7,4.4,0,0,1,28.2
Agc,,2287344248,18,,,,,,,48108,7.800000190734863,1575420032,1
Agc,,2287344248,18,,,,,,,48108,7.800000190734863,1575420032,1
Agc,,2287344248,18,,,,,,,48108,7.800000190734863,1575420032,1
Agc,,2287344248,18,,,,,,,48108,7.800000190734863,1575420032,1
Agc,,2287344248,18,,,,,,,48108,7.800000190734863,1575420032,1
Agc,,2287344248,18,,,,,,,48108,7.800000190734863,1575420032,1
Agc,,2287344248,18,,,,,,,48108,7.800000190734863,1575420032,1
Agc,,2287344248,18,,,,,,,48108,7.800000190734863,1575420032,1
Agc,,2287344248,18,,,,,,,48108,7.800000190734863,1575420032,1
Agc,,2287344248,18,,,,,,,48108,7.800000190734863,1575420032,1
Agc,,2287344248,18,,,,,,,48108,7.800000190734863,1602000000,3
Agc,,2287344248,18,,,,,,,48108,7.800000190734863,1602562560,3
Agc,,2287344248,18,,,,,,,48108,7.800000190734863,1598062464,3
Agc,,2287344248,18,,,,,,,48108,7.800000190734863,1605374976,3
Agc,,2287344248,18,,,,,,,48108,7.800000190734863,1575420032,6
Agc,,2287344248,18,,,,,,,48108,7.800000190734863,1575420032,6
Agc,,2287344248,18,,,,,,,48108,7.800000190734863,1575420032,6
Agc,,2287344248,18,,,,,,,48108,7.800000190734863,1575420032,6
Agc,,2287344248,18,,,,,,,48108,7.800000190734863,1575420032,6
Agc,,2287344248,18,,,,,,,48108,7.800000190734863,1575420032,6
Agc,,2287344248,18,,,,,,,48108,7.800000190734863,1575420032,6
Fix,GPS,40.1590241957,-105.0375260599,1476.0,0.14999999,19.387754,8.0,1758239907000,0.35,180.0,3066702811278028,12.0,0,,,
Fix,FLP,40.1590242000,-105.0375261000,1488.300048828125,0.14999999,19.388,8.0,1758239907255,0.35,180.0,3066702811278028,5.2849784,0,,,
Status,1758239907000,22,0,1,9,1575420000,39.60,285.3,77.6,1,0,1,36.1
Status,1758239907000,22,1,1,4,1575420000,33.50,141.2,56.6,1,0,1,30.0
Status,1758239907000,22,2,1,7,1575420000,35.60,292.2,44.3,1,0,1,32.1
Status,1758239907000,22,3,1,16,1575420000,40.00,49.3,42.1,1,0,1,36.5
Status,1758239907000,22,4,1,27,1575420000,31.40,97.6,37.4,1,0,1,27.9
Status,1758239907000,22,5,1,8,1575420000,37.80,138.9,33.4,1,0,1,34.3
Status,1758239907000,22,6,1,30,1575420000,35.70,279.4,15.3,1,0,1,32.2
Status,1758239907000,22,7,1,21,1575420000,28.60,317.7,13.4,1,0,1,25.1
Status,1758239907000,22,8,1,26,1575420000,29.30,50.7,6.2,1,0,1,25.8
Status,1758239907000,22,9,1,3,1575420000,32.10,187.8,5.1,1,0,1,28.6
Status,1758239907000,22,10,3,4,1605375000,38.10,182.4,66.5,1,0,1,34.6
Status,1758239907000,22,11,3,14,1598062500,38.40,22.1,55.5,1,0,1,34.9
Status,1758239907000,22,12,3,15,1602000000,40.90,266.2,55.4,1,0,1,37.4
Status,1758239907000,22,13,3,5,1602562600,40.30,318.7,53.5,1,0,1,36.8
Status,1758239907000,22,14,3,3,1604812500,22.30,160.7,17.9,1,0,1,18.8
Status,1758239907000,22,15,6,27,1575420000,28.00,184.5,75.9,1,0,1,24.5
Status,1758239907000,22,16,6,29,1575420000,37.10,311.0,67.4,1,0,1,33.6
Status,1758239907000,22,17,6,7,1575420000,32.30,131.5,54.7,1,0,1,28.8
Status,1758239907000,22,18,6,30,1575420000,29.10,50.4,45.7,1,0,1,25.6
Status,1758239907000,22,19,6,21,1575420000,23.50,216.2,23.6,1,0,1,20.0
Status,1758239907000,22,20,6,19,1575420000,26.70,312.0,19.4,1,0,1,23.2
Status,1758239907000,22,21,6,8,1575420000,33.30,131.7,4.4,0,0,1,29.8
Raw,1758239907000,3287329831,18,,-1442275121712670208,0.0,100.06922149658203,,,48108,16,0.0,16399,431924928254203,10,40.0,243.31298828125,0.07506098598241806,17,-4834.063877287612,0.14822246134281158,1575420000,,,,0,,1,7.800000190734863,36.5,-10.710209608078003,,-10.710209608078003,,C,3066702811278028,0,9324435.529816274,-12041262.046967687,21359870.63134685,1916.6602349270706,2048.299491730555,355.3824629963979,31984.219853993432,0.0012447219087334815,0.000000020489096641540527,0.000000014901161193847656,-0.00000011920928955078125,-0.00000011920928955078125,124928.0,16384.0,-262144.0,262144.0
Raw,1758239907000,3287329831,18,,-1442275121712670208,0.0,100.06922149658203,,,48108,9,0.0,16399,431924933328598,10,39.599998474121094,-381.80023193359375,0.07673361152410507,17,-6698.7057400038975,0.14940516650676727,1575420000,,,,0,,1,7.800000190734863,36.099998474121094,0.46566128730773926,,0.46566128730773926,,C,3066702811278028,0,-9000805.256337985,-17508779.612028424,17692424.70829273,617.3136897567182,-2190.0934445969024,-1849.5626025128474,222544.59776135153,0.001188371767057106,0.000000020489096641540527,0.000000014901161193847656,-0.00000011920928955078125,-0.00000011920928955078125,124928.0,16384.0,-262144.0,262144.0
Raw,1758239907000,3287329831,18,,-1442275121712670208,0.0,100.06922149658203,,,48108,8,0.0,16399,431924926388280,11,37.79999923706055,-816.3155517578125,0.08499860018491745,17,-7994.35335933153,0.15524934232234955,1575420000,,,,0,,1,7.800000190734863,34.29999923706055,4.656612873077393,,4.656612873077393,,C,3066702811278028,0,5734503.917602243,-25630309.73104228,1335325.0682087361,329.7126169905145,255.32156045986034,3165.384196139123,159182.07252387606,-0.0012703911634162068,0.000000020489096641540527,0.000000014901161193847656,-0.00000011920928955078125,-0.00000011920928955078125,124928.0,16384.0,-262144.0,262144.0
Raw,1758239907000,3287329831,18,,-1442275121712670208,0.0,100.06922149658203,,,48108,30,0.0,16399,431924918723208,12,35.70000076293945,-792.080322265625,0.09644688665866852,17,-7933.844858226308,0.16334442794322968,1575420000,,,,0,,1,7.800000190734863,32.20000076293945,4.190951585769653,,4.190951585769653,,C,3066702811278028,0,-24268216.2675041,-1059048.0573552856,11221115.467883892,1246.1151234428785,-685.560929788667,2647.0164511967437,-9335.278189266402,0.004046654734338517,0.000000020489096641540527,0.000000014901161193847656,-0.00000011920928955078125,-0.00000011920928955078125,124928.0,16384.0,-262144.0,262144.0
Raw,1758239907000,3287329831,18,,-1442275121712670208,0.0,100.06922149658203,,,48108,7,0.0,16399,431924925699251,12,35.599998474121094,-623.1875610351562,0.09704875946044922,17,-7411.806679084388,0.16377002000808716,1575420000,,,,0,,1,7.800000190734863,32.099998474121094,-10.710209608078003,,-10.710209608078003,,C,3066702811278028,0,-17559320.5676677,-8610495.628634455,18738419.512338474,2114.019563372145,-777.4368964806323,1634.8297884828016,-23382.590984946375,0.0001325325356447138,0.000000020489096641540527,0.000000014901161193847656,-0.00000011920928955078125,-0.00000011920928955078125,124928.0,16384.0,-262144.0,262144.0
Raw,1758239907000,3287329831,18,,-1442275121712670208,0.0,100.06922149658203,,,48108,4,0.0,16399,431924930214898,14,33.5,92.10200500488281,0.1111111119389534,17,-7090.199219131609,0.17371350526809692,1575420000,,,,0,,1,7.800000190734863,30.0,-4.656612873077393,,-4.656612873077393,,C,3066702811278028,0,731059.3849905673,-25071824.421701916,8498639.810113573,522.9607291647594,-977.4374725521436,-2951.7117987082897,2511.839775058899,0.0007672401948184415,0.000000020489096641540527,0.000000014901161193847656,-0.00000011920928955078125,-0.00000011920928955078125,124928.0,16384.0,-262144.0,262144.0
Raw,1758239907000,3287329831,18,,-1442275121712670208,0.0,100.06922149658203,,,48108,3,0.0,16399,431924916117764,15,32.099998474121094,404.75360107421875,0.1222553625702858,17,-6188.572387737026,0.18159359693527222,1575420000,,,,0,,1,7.800000190734863,28.600000381469727,1.3969838619232178,,1.3969838619232178,,C,3066702811278028,0,-9227276.383797746,-21068684.63838228,-13564736.198889531,1309.4014845730023,1063.1537010835366,-2568.463361245344,201948.2288917395,-0.0008996629330795258,0.000000020489096641540527,0.000000014901161193847656,-0.00000011920928955078125,-0.00000011920928955078125,124928.0,16384.0,-262144.0,262144.0
Raw,1758239907000,3287329831,18,,-1442275121712670208,0.0,100.06922149658203,,,48108,27,0.0,16399,431924927081500,16,31.399999618530273,-503.0691833496094,0.12846700847148895,16,-8811.829004514992,0.18598586320877075,1575420000,,,,0,,1,7.800000190734863,27.899999618530273,1.862645149230957,,1.862645149230957,,C,3066702811278028,0,12328592.932128027,-20415667.295176852,10890152.922777414,-13.320699919880482,1480.084999420314,2750.021550820747,-7629.409756313462,-0.0015791692494531162,0.000000020489096641540527,0.000000014901161193847656,-0.00000011920928955078125,-0.00000011920928955078125,124928.0,16384.0,-262144.0,262144.0
Raw,1758239907000,3287329831,18,,-1442275121712670208,0.0,100.06922149658203,,,48108,21,0.0,16391,431924918989709,19,28.600000381469727,-627.6529541015625,0.15872763097286224,16,-11031.658548819607,0.2073831409215927,1575420000,,,,0,,1,7.800000190734863,25.100000381469727,-9.313225746154785,,-9.313225746154785,,C,3066702811278028,0,-14860059.616930224,6153606.108426439,21135805.3514172,-1874.7477740453032,-1922.13175019599,-757.8702553895475,73285.22949195937,0.005860585704795085,0.000000020489096641540527,0.000000014901161193847656,-0.00000011920928955078125,-0.00000011920928955078125,124928.0,16384.0,-262144.0,262144.0
Raw,1758239907000,3287329831,18,,-1442275121712670208,0.0,100.06922149658203,,,48108,26,0.0,16399,431924916052973,18,29.299999237060547,404.0155334472656,0.15023136138916016,16,-6194.071563028781,0.20137542486190796,1575420000,,,,0,,1,7.800000190734863,25.799999237060547,6.51925802230835,,6.51925802230835,,C,3066702811278028,0,19476896.721557423,-1901429.7569017727,17919315.21022206,1718.483744865112,1561.095952132066,-1642.815080001805,-78846.99073039895,-0.0006757367227692157,0.000000020489096641540527,0.000000014901161193847656,-0.00000011920928955078125,-0.00000011920928955078125,124928.0,16384.0,-262144.0,262144.0
Raw,1758239907000,3287329831,18,,-1442275121712670208,0.0,100.06922149658203,,,48108,15,0.0,32867,10706933284220,10,40.900001525878906,-539.2620849609375,0.07149188965559006,17,435721.82843716216,0.14412009716033936,1602000000,,,,0,,3,7.800000190734863,37.400001525878906,13.038516044616697,,13.038516044616697,,C,3066702811278028,0,,,,,,,,,0.000000020489096641540527,0.000000014901161193847656,-0.00000011920928955078125,-0.00000011920928955078125,124928.0,16384.0,-262144.0,262144.0
Raw,1758239907000,3287329831,18,,-1442275121712670208,0.0,100.06922149658203,,,48108,5,0.0,32867,10706933089765,10,40.29999923706055,-710.3241577148438,0.07384215295314789,17,498706.0309008549,0.14574912190437317,1602562600,,,,0,,3,7.800000190734863,36.79999923706055,13.038516044616697,,13.038516044616697,,C,3066702811278028,0,,,,,,,,,0.000000020489096641540527,0.000000014901161193847656,-0.00000011920928955078125,-0.00000011920928955078125,124928.0,16384.0,-262144.0,262144.0
Raw,1758239907000,3287329831,18,,-1442275121712670208,0.0,100.06922149658203,,,48108,14,0.0,32867,10706933234547,11,38.400001525878906,91.35063171386719,0.08210112154483795,17,-401140.065533314,0.15185242891311646,1598062500,,,,0,,3,7.800000190734863,34.900001525878906,13.038516044616697,,13.038516044616697,,C,3066702811278028,0,,,,,,,,,0.000000020489096641540527,0.000000014901161193847656,-0.00000011920928955078125,-0.00000011920928955078125,124928.0,16384.0,-262144.0,262144.0
Raw,1758239907000,3287329831,18,,-1442275121712670208,0.0,100.06922149658203,,,48108,4,0.0,32867,10706935166308,11,38.099998474121094,57.48640060424805,0.08353102952241898,17,817182.4486968232,0.1524362564086914,1605375000,,,,0,,3,7.800000190734863,34.599998474121094,13.038516044616697,,13.038516044616697,,C,3066702811278028,0,,,,,,,,,0.000000020489096641540527,0.000000014901161193847656,-0.00000011920928955078125,-0.00000011920928955078125,124928.0,16384.0,-262144.0,262144.0
Raw,1758239907000,3287329831,18,,-1442275121712670208,0.0,100.06922149658203,,,48108,29,0.0,19456,431924921108551,12,37.099998474121094,-488.98028564453125,0.08857710659503937,25,-10658.357018212235,0.06263287365436554,1575420000,,,,0,,6,7.800000190734863,33.599998474121094,-3.14321368932724,,-3.14321368932724,,C,3066702811278028,0,-11197824.483410023,-15329931.526550863,22698428.938855466,797.2267796572155,-2134.349492657271,-1048.1478656080633,-40037.55683020642,-0.0010766142295324244,0.000000020489096641540527,0.000000014901161193847656,-0.00000011920928955078125,-0.00000011920928955078125,124928.0,16384.0,-262144.0,262144.0
Raw,1758239907000,3287329831,18,,-1442275121712670208,0.0,100.06922149658203,,,48108,8,0.0,19456,431924904665541,14,33.29999923706055,235.2854461669922,0.11260754615068436,25,-14216.098727136072,0.07962479442358017,1575420000,,,,0,,6,7.800000190734863,29.799999237060547,-5.005858838558197,,-5.005858838558197,,C,3066702811278028,0,15554843.054323751,-23562958.180532474,-8925406.043082146,-397.219710377841,805.1354549506655,-2819.624276839633,-161058.7711393024,-0.001956785039510578,0.000000020489096641540527,0.000000014901161193847656,-0.00000011920928955078125,-0.00000011920928955078125,124928.0,16384.0,-262144.0,262144.0
Raw,1758239907000,3287329831,18,,-1442275121712670208,0.0,100.06922149658203,,,48108,7,0.0,19456,431924919168957,15,32.29999923706055,14.616331100463867,0.12056328356266022,25,-9257.131117822071,0.08525029569864273,1575420000,,,,0,,6,7.800000190734863,28.799999237060547,5.238689482212067,,5.238689482212067,,C,3066702811278028,0,3363791.576216152,-27758464.85834196,9730372.687889483,286.1476389962051,-935.6126426793187,-2765.313595300611,-61962.06284311843,-0.0005837769786012359,0.000000020489096641540527,0.000000014901161193847656,-0.00000011920928955078125,-0.00000011920928955078125,124928.0,16384.0,-262144.0,262144.0
Raw,1758239907000,3287329831,18,,-1442275121712670208,0.0,100.06922149658203,,,48108,30,0.0,19456,431924917386543,18,29.100000381469727,63.350303649902344,0.1525878757238388,17,-9117.779673321464,0.20304173231124878,1575420000,,,,0,,6,7.800000190734863,25.600000381469727,0.34924596548080444,,0.34924596548080444,,C,3066702811278028,0,9898234.42979136,-14382782.604749203,23895711.35360203,1491.5677781336417,1877.0966518565028,512.7555328457009,-62902.244924919156,-0.012375656158837955,0.000000020489096641540527,0.000000014901161193847656,-0.00000011920928955078125,-0.00000011920928955078125,124928.0,16384.0,-262144.0,262144.0
Raw,1758239907000,3287329831,18,,-1442275121712670208,0.0,100.06922149658203,,,48108,27,0.0,19456,431924921256173,19,28.0,-430.443359375,0.16659724712371826,17,-10494.437152397026,0.2129477560520172,1575420000,,,,0,,6,7.800000190734863,24.5,0.34924596548080444,,0.34924596548080444,,C,3066702811278028,0,-7142788.984772005,-24862449.087002713,14385250.333282193,865.5066433181603,1154.8016751549048,2427.1928550681937,-232061.567395958,-0.0031100424530450255,0.000000020489096641540527,0.000000014901161193847656,-0.00000011920928955078125,-0.00000011920928955078125,124928.0,16384.0,-262144.0,262144.0
Raw,1758239907000,3287329831,18,,-1442275121712670208,0.0,100.06922149658203,,,48108,19,0.0,19456,431924912612607,21,26.700000762939453,-781.45751953125,0.18579070270061493,16,-11465.323395077896,0.22651943564414978,1575420000,,,,0,,6,7.800000190734863,23.200000762939453,-5.238689482212067,,-5.238689482212067,,C,3066702811278028,0,-18368152.80537812,4138777.5083947424,22837361.702621195,858.685384505215,-2124.609722085087,1075.985147314388,676183.0431962284,0.012251406442373991,0.000000020489096641540527,0.000000014901161193847656,-0.00000011920928955078125,-0.00000011920928955078125,124928.0,16384.0,-262144.0,262144.0
Raw,1758239907000,3287329831,18,,-1442275121712670208,0.0,100.06922149658203,,,48108,21,0.0,19456,431924911094026,27,23.5,-808.4794311523438,0.25,16,-11550.113631322245,0.2719218134880066,1575420000,,,,0,,6,7.800000190734863,20.0,1.0477378964424133,,1.0477378964424133,,C,3066702811278028,0,-20464037.706252713,-21009429.79412841,-3992808.044846059,-298.6614939250809,-274.3119669372107,2970.8158488276817,-207042.09459801548,-0.0006894170073792338,0.000000020489096641540527,0.000000014901161193847656,-0.00000011920928955078125,-0.00000011920928955078125,124928.0,16384.0,-262144.0,262144.0
Raw,1758239907000,3287329831,18,,-1442275121712670208,0.0,100.06922149658203,,,48108,3,0.0,32867,10706924225417,30,22.299999237060547,525.2499389648438,0.28293347358703613,16,1057588.6587191345,0.2934664487838745,1604812500,,,,0,,3,7.800000190734863,18.799999237060547,13.038516044616697,,13.038516044616697,,C,3066702811278028,0,,,,,,,,,0.000000020489096641540527,0.000000014901161193847656,-0.00000011920928955078125,-0.00000011920928955078125,124928.0,16384.0,-262144.0,262144.0
Agc,1758239907000,3287329831,18,,-1442275121712670208,0.0,100.06922149658203,,,48108,7.800000190734863,1575420032,1
Agc,1758239907000,3287329831,18,,-1442275121712670208,0.0,100.06922149658203,,,48108,7.800000190734863,1575420032,1
Agc,1758239907000,3287329831,18,,-1442275121712670208,0.0,100.06922149658203,,,48108,7.800000190734863,1575420032,1
Agc,1758239907000,3287329831,18,,-1442275121712670208,0.0,100.06922149658203,,,48108,7.800000190734863,1575420032,1
Agc,1758239907000,3287329831,18,,-1442275121712670208,0.0,100.06922149658203,,,48108,7.800000190734863,1575420032,1
Agc,1758239907000,3287329831,18,,-1442275121712670208,0.0,100.06922149658203,,,48108,7.800000190734863,1575420032,1
Agc,1758239907000,3287329831,18,,-1442275121712670208,0.0,100.06922149658203,,,48108,7.800000190734863,1575420032,1
Agc,1758239907000,3287329831,18,,-1442275121712670208,0.0,100.06922149658203,,,48108,7.800000190734863,1575420032,1
Agc,1758239907000,3287329831,18,,-1442275121712670208,0.0,100.06922149658203,,,48108,7.800000190734863,1575420032,1
Agc,1758239907000,3287329831,18,,-1442275121712670208,0.0,100.06922149658203,,,48108,7.800000190734863,1575420032,1
Agc,1758239907000,3287329831,18,,-1442275121712670208,0.0,100.06922149658203,,,48108,7.800000190734863,1602000000,3
Agc,1758239907000,3287329831,18,,-1442275121712670208,0.0,100.06922149658203,,,48108,7.800000190734863,1602562560,3
Agc,1758239907000,3287329831,18,,-1442275121712670208,0.0,100.06922149658203,,,48108,7.800000190734863,1598062464,3
Agc,1758239907000,3287329831,18,,-1442275121712670208,0.0,100.06922149658203,,,48108,7.800000190734863,1605374976,3
Agc,1758239907000,3287329831,18,,-1442275121712670208,0.0,100.06922149658203,,,48108,7.800000190734863,1575420032,6
Agc,1758239907000,3287329831,18,,-1442275121712670208,0.0,100.06922149658203,,,48108,7.800000190734863,1575420032,6
Agc,1758239907000,3287329831,18,,-1442275121712670208,0.0,100.06922149658203,,,48108,7.800000190734863,1575420032,6
Agc,1758239907000,3287329831,18,,-1442275121712670208,0.0,100.06922149658203,,,48108,7.800000190734863,1575420032,6
Agc,1758239907000,3287329831,18,,-1442275121712670208,0.0,100.06922149658203,,,48108,7.800000190734863,1575420032,6
Agc,1758239907000,3287329831,18,,-1442275121712670208,0.0,100.06922149658203,,,48108,7.800000190734863,1575420032,6
Agc,1758239907000,3287329831,18,,-1442275121712670208,0.0,100.06922149658203,,,48108,7.800000190734863,1575420032,6
Agc,1758239907000,3287329831,18,,-1442275121712670208,0.0,100.06922149658203,,,48108,7.800000190734863,1604812544,3
Fix,NLP,40.1639217000,-105.0354681000,,,699.999,,1758239904241,,,3066699797000000,,0,,,
Fix,GPS,40.1590257883,-105.0375278201,1476.0,0.0,25.0,,1758239908000,0.04,,3066703811277051,15.0,0,,,
Fix,FLP,40.1590258000,-105.0375278000,1488.300048828125,0.0,22.194,,1758239908254,0.04,,3066703811277051,4.8829694,0,,,
Status,1758239908000,23,0,1,9,1575420000,39.60,285.3,77.6,1,0,1,36.1
Status,1758239908000,23,1,1,4,1575420000,33.70,141.2,56.6,1,0,1,30.2
Status,1758239908000,23,2,1,7,1575420000,35.50,292.2,44.3,1,0,1,32.0
Status,1758239908000,23,3,1,16,1575420000,40.00,49.3,42.1,1,0,1,36.5
Status,1758239908000,23,4,1,27,1575420000,31.30,97.6,37.4,1,0,1,27.8
Status,1758239908000,23,5,1,8,1575420000,37.80,138.9,33.4,1,0,1,34.3
Status,1758239908000,23,6,1,30,1575420000,36.20,279.4,15.3,1,0,1,32.7
Status,1758239908000,23,7,1,21,1575420000,29.10,317.7,13.4,1,0,1,25.6
Status,1758239908000,23,8,1,26,1575420000,29.20,50.7,6.2,1,0,1,25.7
Status,1758239908000,23,9,1,3,1575420000,32.10,187.8,5.1,1,0,1,28.6
Status,1758239908000,23,10,3,4,1605375000,38.50,182.4,66.5,1,0,1,35.0
Status,1758239908000,23,11,3,14,1598062500,38.50,22.1,55.5,1,0,1,35.0
Status,1758239908000,23,12,3,15,1602000000,41.30,266.2,55.4,1,0,1,37.8
Status,1758239908000,23,13,3,5,1602562600,40.80,318.7,53.5,1,0,1,37.3
Status,1758239908000,23,14,3,3,1604812500,23.30,160.7,17.9,1,0,1,19.8
Status,1758239908000,23,15,3,23,1603687600,22.10,42.9,7.8,1,0,1,18.6
Status,1758239908000,23,16,6,27,1575420000,27.90,184.5,75.9,1,0,1,24.4
Status,1758239908000,23,17,6,29,1575420000,37.50,311.0,67.4,1,0,1,34.0
Status,1758239908000,23,18,6,7,1575420000,32.70,131.5,54.7,1,0,1,29.2
Status,1758239908000,23,19,6,30,1575420000,29.70,50.4,45.7,1,0,1,26.2
Status,1758239908000,23,20,6,21,1575420000,23.40,216.2,23.6,1,0,1,19.9
Status,1758239908000,23,21,6,19,1575420000,26.90,312.0,19.4,1,0,1,23.4
Status,1758239908000,23,22,6,8,1575420000,33.90,131.7,4.4,0,0,1,30.4
Raw,1758239907999,4287328853,18,,-1442275121712671232,0.0,100.06922149658203,,,48108,16,0.0,16399,431925928252407,10,40.0,245.17782592773438,0.07506098598241806,17,-4589.747247415915,0.14822246134281158,1575420000,,,,0,,1,7.800000190734863,36.5,-10.710209608078003,,-10.710209608078003,,C,3066703811277051,0,9326352.257842932,-12039213.79004196,21360225.777371917,1916.8026962716258,2048.221707829926,354.9108617835374,31984.22109877198,0.0012448396664694883,0.000000020489096641540527,0.000000014901161193847656,-0.00000011920928955078125,-0.00000011920928955078125,124928.0,16384.0,-262144.0,262144.0
Raw,1758239907999,4287328853,18,,-1442275121712671232,0.0,100.06922149658203,,,48108,9,0.0,16399,431925933328895,10,39.599998474121094,-379.9007568359375,0.07673361152410507,17,-7079.487683878833,0.14940516650676727,1575420000,,,,0,,1,7.800000190734863,36.099998474121094,0.46566128730773926,,0.46566128730773926,,C,3066703811277051,0,-9000188.029372452,-17510969.609524637,17690574.95498325,617.1398777519352,-2189.9002369021428,-1849.9429110650096,222544.5989497282,0.0011883809347636998,0.000000020489096641540527,0.000000014901161193847656,-0.00000011920928955078125,-0.00000011920928955078125,124928.0,16384.0,-262144.0,262144.0
Raw,1758239907999,4287328853,18,,-1442275121712671232,0.0,100.06922149658203,,,48108,8,0.0,16399,431925926390015,11,37.79999923706055,-814.517578125,0.08499860018491745,17,-8809.716126502419,0.15524934232234955,1575420000,,,,0,,1,7.800000190734863,34.29999923706055,4.656612873077393,,4.656612873077393,,C,3066703811277051,0,5734833.60182047,-25630054.220332794,1338490.4432473362,329.6546832748624,255.69897266681693,3165.3548856257826,159182.07125345155,-0.0012704534747172147,0.000000020489096641540527,0.000000014901161193847656,-0.00000011920928955078125,-0.00000011920928955078125,124928.0,16384.0,-262144.0,262144.0
Raw,1758239907999,4287328853,18,,-1442275121712671232,0.0,100.06922149658203,,,48108,30,0.0,16399,431925918724872,12,36.20000076293945,-790.5159912109375,0.09351999312639236,17,-8725.178838912427,0.16127482056617737,1575420000,,,,0,,1,7.800000190734863,32.70000076293945,4.190951585769653,,4.190951585769653,,C,3066703811277051,0,-24266970.01236774,-1059733.7020956334,11223762.371974912,1246.3909944718528,-685.7262739230745,2646.78291289033,-9335.274142591854,0.00404668089322513,0.000000020489096641540527,0.000000014901161193847656,-0.00000011920928955078125,-0.00000011920928955078125,124928.0,16384.0,-262144.0,262144.0
Raw,1758239907999,4287328853,18,,-1442275121712671232,0.0,100.06922149658203,,,48108,7,0.0,16399,431925925700348,13,35.5,-621.2392578125,0.09765625,17,-8033.890570501389,0.164199560880661,1575420000,,,,0,,1,7.800000190734863,32.0,-10.710209608078003,,-10.710209608078003,,C,3066703811277051,0,-17557206.473068,-8611273.157077316,18740054.155948862,2114.1649881178073,-777.6182851275903,1634.4538404786529,-23382.590852399764,0.00013256037709652446,0.000000020489096641540527,0.000000014901161193847656,-0.00000011920928955078125,-0.00000011920928955078125,124928.0,16384.0,-262144.0,262144.0
Raw,1758239907999,4287328853,18,,-1442275121712671232,0.0,100.06922149658203,,,48108,4,0.0,16399,431925930213632,14,33.70000076293945,93.85779571533203,0.10964430868625641,17,-6997.214840471628,0.17267632484436035,1575420000,,,,0,,1,7.800000190734863,30.200000762939453,-4.656612873077393,,-4.656612873077393,,C,3066703811277051,0,731582.2678884473,-25072801.693693023,8495688.01085018,522.8063972290233,-977.1089776655331,-2951.89419154821,2511.8405422839437,0.0007672118395021243,0.000000020489096641540527,0.000000014901161193847656,-0.00000011920928955078125,-0.00000011920928955078125,124928.0,16384.0,-262144.0,262144.0
Raw,1758239907999,4287328853,18,,-1442275121712671232,0.0,100.06922149658203,,,48108,3,0.0,16399,431925916115415,15,32.099998474121094,406.4866943359375,0.1222553625702858,17,-5782.90382583678,0.18159359693527222,1575420000,,,,0,,1,7.800000190734863,28.600000381469727,1.3969838619232178,,1.3969838619232178,,C,3066703811277051,0,-9225966.835811995,-21067621.418157827,-13567304.514198031,1309.7006389615092,1063.2917327282842,-2568.179312801993,201948.22799210393,-0.0008996124379336834,0.000000020489096641540527,0.000000014901161193847656,-0.00000011920928955078125,-0.00000011920928955078125,124928.0,16384.0,-262144.0,262144.0
Raw,1758239907999,4287328853,18,,-1442275121712671232,0.0,100.06922149658203,,,48108,27,0.0,16399,431925927082186,16,31.299999237060547,-501.71435546875,0.12939289212226868,17,-9314.336688257928,0.18664054572582245,1575420000,,,,0,,1,7.800000190734863,27.799999237060547,1.862645149230957,,1.862645149230957,,C,3066703811277051,0,12328579.615797844,-20414187.036700774,10892902.82574742,-13.311933985738108,1480.4299174985986,2749.7806060842286,-7629.4113355156005,-0.0015792328549650847,0.000000020489096641540527,0.000000014901161193847656,-0.00000011920928955078125,-0.00000011920928955078125,124928.0,16384.0,-262144.0,262144.0
Raw,1758239907999,4287328853,18,,-1442275121712671232,0.0,100.06922149658203,,,48108,21,0.0,16391,431925918990816,18,29.100000381469727,-627.0220336914062,0.1525878757238388,16,-11659.347996590543,0.20304173231124878,1575420000,,,,0,,1,7.800000190734863,25.600000381469727,-9.313225746154785,,-9.313225746154785,,C,3066703811277051,0,-14861934.388402313,6151684.062179073,21135047.255493425,-1874.7910102150367,-1921.9564830272552,-758.3199110654126,73285.23535255242,0.005860587407369167,0.000000020489096641540527,0.000000014901161193847656,-0.00000011920928955078125,-0.00000011920928955078125,124928.0,16384.0,-262144.0,262144.0
Raw,1758239907999,4287328853,18,,-1442275121712671232,0.0,100.06922149658203,,,48108,26,0.0,16399,431925916050638,18,29.200000762939453,405.9798889160156,0.15140274167060852,16,-5789.1621432640095,0.20220372080802917,1575420000,,,,0,,1,7.800000190734863,25.700000762939453,6.51925802230835,,6.51925802230835,,C,3066703811277051,0,19478615.159145754,-1899868.774684079,17917672.20780508,1718.3994472568281,1560.8757708563012,-1643.1974206656719,-78846.99140605843,-0.0006755854410585016,0.000000020489096641540527,0.000000014901161193847656,-0.00000011920928955078125,-0.00000011920928955078125,124928.0,16384.0,-262144.0,262144.0
Raw,1758239907999,4287328853,18,,-1442275121712671232,0.0,100.06922149658203,,,48108,15,0.0,32867,10707933285037,10,41.29999923706055,-537.5599365234375,0.06998684257268906,17,435183.40271150565,0.14305588603019714,1602000000,,,,0,,3,7.800000190734863,37.79999923706055,13.038516044616697,,13.038516044616697,,C,3066703811277051,0,,,,,,,,,0.000000020489096641540527,0.000000014901161193847656,-0.00000011920928955078125,-0.00000011920928955078125,124928.0,16384.0,-262144.0,262144.0
Raw,1758239907999,4287328853,18,,-1442275121712671232,0.0,100.06922149658203,,,48108,5,0.0,32867,10707933091163,10,40.79999923706055,-708.5399169921875,0.07187574356794357,17,497996.6001383266,0.14435866475105286,1602562600,,,,0,,3,7.800000190734863,37.29999923706055,13.038516044616697,,13.038516044616697,,C,3066703811277051,0,,,,,,,,,0.000000020489096641540527,0.000000014901161193847656,-0.00000011920928955078125,-0.00000011920928955078125,124928.0,16384.0,-262144.0,262144.0
Raw,1758239907999,4287328853,18,,-1442275121712671232,0.0,100.06922149658203,,,48108,4,0.0,32867,10707935165140,11,38.5,59.107059478759766,0.08163265138864517,17,817240.670151671,0.15109393000602722,1605375000,,,,0,,3,7.800000190734863,35.0,13.038516044616697,,13.038516044616697,,C,3066703811277051,0,,,,,,,,,0.000000020489096641540527,0.000000014901161193847656,-0.00000011920928955078125,-0.00000011920928955078125,124928.0,16384.0,-262144.0,262144.0
Raw,1758239907999,4287328853,18,,-1442275121712671232,0.0,100.06922149658203,,,48108,14,0.0,32867,10707933233280,11,38.5,93.14678192138672,0.08163265138864517,17,-401047.7643664839,0.15152117609977722,1598062500,,,,0,,3,7.800000190734863,35.0,13.038516044616697,,13.038516044616697,,C,3066703811277051,0,,,,,,,,,0.000000020489096641540527,0.000000014901161193847656,-0.00000011920928955078125,-0.00000011920928955078125,124928.0,16384.0,-262144.0,262144.0
Raw,1758239907999,4287328853,18,,-1442275121712671232,0.0,100.06922149658203,,,48108,29,0.0,19456,431925921109207,11,37.5,-487.2688293457031,0.08650518953800201,25,-11146.453809385588,0.061167821288108826,1575420000,,,,0,,6,7.800000190734863,34.0,-3.14321368932724,,-3.14321368932724,,C,3066703811277051,0,-11197027.355399668,-15332065.85842704,22697380.615707602,797.0281948828567,-2134.311451091616,-1048.4970520267475,-40037.557906821414,-0.001076614331395831,0.000000020489096641540527,0.000000014901161193847656,-0.00000011920928955078125,-0.00000011920928955078125,124928.0,16384.0,-262144.0,262144.0
Raw,1758239907999,4287328853,18,,-1442275121712671232,0.0,100.06922149658203,,,48108,8,0.0,19456,431925904663788,14,33.900001525878906,236.95065307617188,0.1082063764333725,25,-13979.95119127733,0.07651273161172867,1575420000,,,,0,,6,7.800000190734863,30.399999618530273,-5.005858838558197,,-5.005858838558197,,C,3066703811277051,0,15554445.81598378,-23562152.899295647,-8928225.593885137,-397.25835451652085,805.429841583404,-2819.487207275079,-161058.77309608308,-0.0019567831768654287,0.000000020489096641540527,0.000000014901161193847656,-0.00000011920928955078125,-0.00000011920928955078125,124928.0,16384.0,-262144.0,262144.0
Raw,1758239907999,4287328853,18,,-1442275121712671232,0.0,100.06922149658203,,,48108,7,0.0,19456,431925919167911,15,32.70000076293945,16.269302368164062,0.11728279292583466,25,-9241.69616700778,0.08293066173791885,1575420000,,,,0,,6,7.800000190734863,29.200000762939453,5.238689482212067,,5.238689482212067,,C,3066703811277051,0,3364077.638445353,-27759400.351477567,9727607.302450078,285.977423024541,-935.3755799117034,-2765.463061618071,-61962.063426893474,-0.0005837743301526643,0.000000020489096641540527,0.000000014901161193847656,-0.00000011920928955078125,-0.00000011920928955078125,124928.0,16384.0,-262144.0,262144.0
Raw,1758239907999,4287328853,18,,-1442275121712671232,0.0,100.06922149658203,,,48108,30,0.0,19456,431925917385344,17,29.700000762939453,65.05736541748047,0.14567914605140686,25,-9053.433084146898,0.10300972312688828,1575420000,,,,0,,6,7.800000190734863,26.200000762939453,0.34924596548080444,,0.34924596548080444,,C,3066703811277051,0,9899726.082880609,-14380905.546792068,23896223.924787637,1491.74197293106,1877.0237560350479,512.3880661733076,-62902.25730055947,-0.012375654143397696,0.000000020489096641540527,0.000000014901161193847656,-0.00000011920928955078125,-0.00000011920928955078125,124928.0,16384.0,-262144.0,262144.0
Raw,1758239907999,4287328853,18,,-1442275121712671232,0.0,100.06922149658203,,,48108,27,0.0,19456,431925921256635,20,27.899999618530273,-429.5412292480469,0.1679656058549881,16,-10924.641170347495,0.21391531825065613,1575420000,,,,0,,6,7.800000190734863,24.399999618530273,0.34924596548080444,,0.34924596548080444,,C,3066703811277051,0,-7141923.357611758,-24861294.222935826,14387677.41667612,865.7468789277787,1154.9253837131073,2426.9716838860377,-232061.57050600063,-0.003110039950115606,0.000000020489096641540527,0.000000014901161193847656,-0.00000011920928955078125,-0.00000011920928955078125,124928.0,16384.0,-262144.0,262144.0
Raw,1758239907999,4287328853,18,,-1442275121712671232,0.0,100.06922149658203,,,48108,19,0.0,19456,431925912614216,21,26.899999618530273,-781.2435302734375,0.18262839317321777,16,-12247.078199131443,0.224283367395401,1575420000,,,,0,,6,7.800000190734863,23.399999618530273,-5.238689482212067,,-5.238689482212067,,C,3066703811277051,0,-18367294.18122754,4136652.8118436104,22838437.513965923,858.5601481947999,-2124.776536472559,1075.634077519696,676183.0554476548,0.012251407140865922,0.000000020489096641540527,0.000000014901161193847656,-0.00000011920928955078125,-0.00000011920928955078125,124928.0,16384.0,-262144.0,262144.0
Raw,1758239907999,4287328853,18,,-1442275121712671232,0.0,100.06922149658203,,,48108,3,0.0,32867,10707924222740,28,23.299999237060547,524.886962890625,0.25507602095603943,16,1058113.54517768,0.27376845479011536,1604812500,,,,0,,3,7.800000190734863,19.799999237060547,13.038516044616697,,13.038516044616697,,C,3066703811277051,0,,,,,,,,,0.000000020489096641540527,0.000000014901161193847656,-0.00000011920928955078125,-0.00000011920928955078125,124928.0,16384.0,-262144.0,262144.0
Raw,1758239907999,4287328853,18,,-1442275121712671232,0.0,100.06922149658203,,,48108,23,0.0,32867,10707920265247,31,22.100000381469727,-469.2257385253906,0.28905072808265686,16,1242744.113568023,0.29785749316215515,1603687600,,,,0,,3,7.800000190734863,18.600000381469727,13.038516044616697,,13.038516044616697,,C,3066703811277051,0,,,,,,,,,0.000000020489096641540527,0.000000014901161193847656,-0.00000011920928955078125,-0.00000011920928955078125,124928.0,16384.0,-262144.0,262144.0
Raw,1758239907999,4287328853,18,,-1442275121712671232,0.0,100.06922149658203,,,48108,21,0.0,19456,431925911095842,27,23.399999618530273,-806.0040283203125,0.252518892288208,16,-12357.538446715422,0.2737029492855072,1575420000,,,,0,,6,7.800000190734863,19.899999618530273,1.0477378964424133,,1.0477378964424133,,C,3066703811277051,0,-20464336.285409182,-21009703.979197998,-3989837.1929163123,-298.4957275793312,-274.05718026128625,2970.877212933768,-207042.0952874331,-0.0006894157559145242,0.000000020489096641540527,0.000000014901161193847656,-0.00000011920928955078125,-0.00000011920928955078125,124928.0,16384.0,-262144.0,262144.0
Agc,1758239907999,4287328853,18,,-1442275121712671232,0.0,100.06922149658203,,,48108,7.800000190734863,1575420032,1
Agc,1758239907999,4287328853,18,,-1442275121712671232,0.0,100.06922149658203,,,48108,7.800000190734863,1575420032,1
Agc,1758239907999,4287328853,18,,-1442275121712671232,0.0,100.06922149658203,,,48108,7.800000190734863,1575420032,1
Agc,1758239907999,4287328853,18,,-1442275121712671232,0.0,100.06922149658203,,,48108,7.800000190734863,1575420032,1
Agc,1758239907999,4287328853,18,,-1442275121712671232,0.0,100.06922149658203,,,48108,7.800000190734863,1575420032,1
Agc,1758239907999,4287328853,18,,-1442275121712671232,0.0,100.06922149658203,,,48108,7.800000190734863,1575420032,1
Agc,1758239907999,4287328853,18,,-1442275121712671232,0.0,100.06922149658203,,,48108,7.800000190734863,1575420032,1
Agc,1758239907999,4287328853,18,,-1442275121712671232,0.0,100.06922149658203,,,48108,7.800000190734863,1575420032,1
Agc,1758239907999,4287328853,18,,-1442275121712671232,0.0,100.06922149658203,,,48108,7.800000190734863,1575420032,1
Agc,1758239907999,4287328853,18,,-1442275121712671232,0.0,100.06922149658203,,,48108,7.800000190734863,1575420032,1
Agc,1758239907999,4287328853,18,,-1442275121712671232,0.0,100.06922149658203,,,48108,7.800000190734863,1602000000,3
Agc,1758239907999,4287328853,18,,-1442275121712671232,0.0,100.06922149658203,,,48108,7.800000190734863,1602562560,3
Agc,1758239907999,4287328853,18,,-1442275121712671232,0.0,100.06922149658203,,,48108,7.800000190734863,1605374976,3
Agc,1758239907999,4287328853,18,,-1442275121712671232,0.0,100.06922149658203,,,48108,7.800000190734863,1598062464,3
Agc,1758239907999,4287328853,18,,-1442275121712671232,0.0,100.06922149658203,,,48108,7.800000190734863,1575420032,6
Agc,1758239907999,4287328853,18,,-1442275121712671232,0.0,100.06922149658203,,,48108,7.800000190734863,1575420032,6
Agc,1758239907999,4287328853,18,,-1442275121712671232,0.0,100.06922149658203,,,48108,7.800000190734863,1575420032,6
Agc,1758239907999,4287328853,18,,-1442275121712671232,0.0,100.06922149658203,,,48108,7.800000190734863,1575420032,6
Agc,1758239907999,4287328853,18,,-1442275121712671232,0.0,100.06922149658203,,,48108,7.800000190734863,1575420032,6
Agc,1758239907999,4287328853,18,,-1442275121712671232,0.0,100.06922149658203,,,48108,7.800000190734863,1575420032,6
Agc,1758239907999,4287328853,18,,-1442275121712671232,0.0,100.06922149658203,,,48108,7.800000190734863,1604812544,3
Agc,1758239907999,4287328853,18,,-1442275121712671232,0.0,100.06922149658203,,,48108,7.800000190734863,1603687552,3
Agc,1758239907999,4287328853,18,,-1442275121712671232,0.0,100.06922149658203,,,48108,7.800000190734863,1575420032,6
Fix,GPS,40.1590441028,-105.0375346094,1478.0,0.0,16.836735,,1758239909000,0.14,,3066704811276061,14.0,0,,,
Fix,FLP,40.1590441000,-105.0375346000,1488.300048828125,0.0,20.408,,1758239909254,0.14,,3066704811276061,5.090511,0,,,
Status,1758239909000,23,0,1,9,1575420000,39.60,285.3,77.6,0,0,1,36.1
Status,1758239909000,23,1,1,4,1575420000,34.20,141.2,56.6,1,0,1,30.7
Status,1758239909000,23,2,1,7,1575420000,35.50,292.2,44.3,1,0,1,32.0
Status,1758239909000,23,3,1,16,1575420000,40.00,49.3,42.1,1,0,1,36.5
Status,1758239909000,23,4,1,27,1575420000,31.20,97.6,37.4,1,0,1,27.7
Status,1758239909000,23,5,1,8,1575420000,37.70,138.9,33.4,1,0,1,34.2
Status,1758239909000,23,6,1,30,1575420000,36.60,279.4,15.3,1,0,1,33.1
Status,1758239909000,23,7,1,21,1575420000,29.20,317.7,13.4,1,0,1,25.7
Status,1758239909000,23,8,1,26,1575420000,29.20,50.7,6.2,1,0,1,25.7
Status,1758239909000,23,9,1,3,1575420000,32.10,187.8,5.1,1,0,1,28.6
Status,1758239909000,23,10,3,4,1605375000,38.80,182.4,66.5,1,0,1,35.3
Status,1758239909000,23,11,3,14,1598062500,38.50,22.1,55.5,1,0,1,35.0
Status,1758239909000,23,12,3,15,1602000000,41.30,266.2,55.4,0,0,1,37.8
Status,1758239909000,23,13,3,5,1602562600,40.90,318.7,53.5,0,0,1,37.4
Status,1758239909000,23,14,3,3,1604812500,23.60,160.7,17.9,1,0,1,20.1
Status,1758239909000,23,15,3,23,1603687600,22.40,42.9,7.8,1,0,1,18.9
Status,1758239909000,23,16,6,27,1575420000,27.90,184.5,75.9,0,0,1,24.4
Status,1758239909000,23,17,6,29,1575420000,37.50,311.0,67.4,0,0,1,34.0
Status,1758239909000,23,18,6,7,1575420000,33.00,131.5,54.7,1,0,1,29.5
Status,1758239909000,23,19,6,30,1575420000,30.00,50.4,45.7,1,0,1,26.5
Status,1758239909000,23,20,6,21,1575420000,23.30,216.2,23.6,0,0,1,19.8
Status,1758239909000,23,21,6,19,1575420000,27.10,312.0,19.4,0,0,1,23.6
Status,1758239909000,23,22,6,8,1575420000,34.10,131.7,4.4,0,0,1,30.6
Raw,1758239908999,5287327876,18,,-1442275121712672000,0.0,10.328896522521973,,,48108,16,0.0,16399,431926928250640,10,40.0,240.68626403808594,0.07506098598241806,17,-4347.851019726557,0.14822246134281158,1575420000,,,,0,,1,7.800000190734863,36.5,-10.710209608078003,,-10.710209608078003,,C,3066704811276061,0,9328269.128364943,-12037165.610868564,21360580.451803792,1916.945114871602,2048.143867903486,354.4392543676452,31984.222343668338,0.0012449574533093255,0.000000020489096641540527,0.000000014901161193847656,-0.00000011920928955078125,-0.00000011920928955078125,124928.0,16384.0,-262144.0,262144.0
Raw,1758239908999,5287327876,18,,-1442275121712672000,0.0,10.328896522521973,,,48108,9,0.0,16399,431926933329200,10,39.599998474121094,-384.36029052734375,0.07673361152410507,17,-7462.654948024603,0.14940516650676727,1575420000,,,,0,,1,7.800000190734863,36.099998474121094,0.46566128730773926,,0.46566128730773926,,C,3066704811276061,0,-8999570.976204893,-17513159.413800318,17688724.821370233,616.9660839001845,-2189.7069685268916,-1850.323179761416,222544.60013811413,0.0011883901024702936,0.000000020489096641540527,0.000000014901161193847656,-0.00000011920928955078125,-0.00000011920928955078125,124928.0,16384.0,-262144.0,262144.0
Raw,1758239908999,5287327876,18,,-1442275121712672000,0.0,10.328896522521973,,,48108,8,0.0,16399,431926926391761,11,37.70000076293945,-819.00146484375,0.08549638837575912,17,-9627.504171085719,0.15560132265090942,1575420000,,,,0,,1,7.800000190734863,34.20000076293945,4.656612873077393,,4.656612873077393,,C,3066704811276061,0,5735163.228132976,-25629798.332205065,1341655.7889754658,329.5967988974597,256.0763901138,3165.3255056635826,159182.06998296478,-0.0012705157278105617,0.000000020489096641540527,0.000000014901161193847656,-0.00000011920928955078125,-0.00000011920928955078125,124928.0,16384.0,-262144.0,262144.0
Raw,1758239908999,5287327876,18,,-1442275121712672000,0.0,10.328896522521973,,,48108,30,0.0,16399,431926918726551,12,36.599998474121094,-795.0756225585938,0.09127336740493774,17,-9519.006710284404,0.15968623757362366,1575420000,,,,0,,1,7.800000190734863,33.099998474121094,4.190951585769653,,4.190951585769653,,C,3066704811276061,0,-24265723.481363107,-1060419.5122054154,11226409.042539502,1246.6668216682942,-685.8916476873455,2646.549319692783,-9335.27009589109,0.0040467070357408375,0.000000020489096641540527,0.000000014901161193847656,-0.00000011920928955078125,-0.00000011920928955078125,124928.0,16384.0,-262144.0,262144.0
Raw,1758239908999,5287327876,18,,-1442275121712672000,0.0,10.328896522521973,,,48108,7,0.0,16399,431926925701456,13,35.5,-625.8455200195312,0.09765625,17,-8658.481805219388,0.164199560880661,1575420000,,,,0,,1,7.800000190734863,32.0,-10.710209608078003,,-10.710209608078003,,C,3066704811276061,0,-17555092.233049072,-8612050.866922589,18741688.423612583,2114.310354934598,-777.7996836715087,1634.0778600122894,-23382.59071982533,0.00013258819308248349,0.000000020489096641540527,0.000000014901161193847656,-0.00000011920928955078125,-0.00000011920928955078125,124928.0,16384.0,-262144.0,262144.0
Raw,1758239908999,5287327876,18,,-1442275121712672000,0.0,10.328896522521973,,,48108,4,0.0,16399,431926930212350,13,34.20000076293945,89.36905670166016,0.10610191524028778,17,-6906.640733155611,0.17017149925231934,1575420000,,,,0,,1,7.800000190734863,30.700000762939453,-4.656612873077393,,-4.656612873077393,,C,3066704811276061,0,732104.9964660145,-25073778.637154654,8492736.029272992,522.6521047540447,-976.7804440340483,-2952.076521182857,2511.8413094806237,0.0007671834896427754,0.000000020489096641540527,0.000000014901161193847656,-0.00000011920928955078125,-0.00000011920928955078125,124928.0,16384.0,-262144.0,262144.0
Raw,1758239908999,5287327876,18,,-1442275121712672000,0.0,10.328896522521973,,,48108,3,0.0,16399,431926916113104,15,32.099998474121094,401.8484802246094,0.1222553625702858,17,-5379.782239170192,0.18159359693527222,1575420000,,,,0,,1,7.800000190734863,28.600000381469727,1.3969838619232178,,1.3969838619232178,,C,3066704811276061,0,-9224656.988623194,-21066558.059892073,-13569872.54552965,1309.999792734782,1063.4297034573347,-2567.8952110168707,201948.2270925188,-0.000899561942787841,0.000000020489096641540527,0.000000014901161193847656,-0.00000011920928955078125,-0.00000011920928955078125,124928.0,16384.0,-262144.0,262144.0
Raw,1758239908999,5287327876,18,,-1442275121712672000,0.0,10.328896522521973,,,48108,27,0.0,16399,431926927082894,16,31.200000762939453,-506.3183288574219,0.13032881915569305,16,-9819.384480099892,0.1873023509979248,1575420000,,,,0,,1,7.800000190734863,27.700000762939453,1.862645149230957,,1.862645149230957,,C,3066704811276061,0,12328566.30825815,-20412706.433286566,10895652.487802375,-13.303118029748802,1480.7748102643282,2749.5396000663204,-7629.4129147813655,-0.0015792964295542333,0.000000020489096641540527,0.000000014901161193847656,-0.00000011920928955078125,-0.00000011920928955078125,124928.0,16384.0,-262144.0,262144.0
Raw,1758239908999,5287327876,18,,-1442275121712672000,0.0,10.328896522521973,,,48108,21,0.0,16391,431926918991942,18,29.200000762939453,-632.7250366210938,0.15140274167060852,16,-12290.394111391113,0.20220372080802917,1575420000,,,,0,,1,7.800000190734863,25.700000762939453,-9.313225746154785,,-9.313225746154785,,C,3066704811276061,0,-14863809.203118512,6149762.19118105,21134288.709907148,-1874.834190922214,-1921.7811788867061,-758.7695506019851,73285.24121314728,0.005860589095391333,0.000000020489096641540527,0.000000014901161193847656,-0.00000011920928955078125,-0.00000011920928955078125,124928.0,16384.0,-262144.0,262144.0
Raw,1758239908999,5287327876,18,,-1442275121712672000,0.0,10.328896522521973,,,48108,26,0.0,16399,431926916048332,18,29.200000762939453,398.9673156738281,0.15140274167060852,16,-5388.214380735735,0.20220372080802917,1575420000,,,,0,,1,7.800000190734863,25.700000762939453,6.51925802230835,,6.51925802230835,,C,3066704811276061,0,19480333.512457587,-1898308.0126085225,17916028.82301905,1718.3150918792544,1560.655576690619,-1643.5797245601586,-78846.99208156668,-0.0006754341593477875,0.000000020489096641540527,0.000000014901161193847656,-0.00000011920928955078125,-0.00000011920928955078125,124928.0,16384.0,-262144.0,262144.0
Raw,1758239908999,5287327876,18,,-1442275121712672000,0.0,10.328896522521973,,,48108,15,0.0,32867,10708933285849,10,41.29999923706055,-542.0257568359375,0.06998684257268906,25,434642.5773023304,0.04948769509792328,1602000000,,,,0,,3,7.800000190734863,37.79999923706055,13.038516044616697,,13.038516044616697,,C,3066704811276061,0,,,,,,,,,0.000000020489096641540527,0.000000014901161193847656,-0.00000011920928955078125,-0.00000011920928955078125,124928.0,16384.0,-262144.0,262144.0
Raw,1758239908999,5287327876,18,,-1442275121712672000,0.0,10.328896522521973,,,48108,5,0.0,32867,10708933092559,10,40.900001525878906,-712.98779296875,0.07149188965559006,25,497284.798505541,0.05055191367864609,1602562600,,,,0,,3,7.800000190734863,37.400001525878906,13.038516044616697,,13.038516044616697,,C,3066704811276061,0,,,,,,,,,0.000000020489096641540527,0.000000014901161193847656,-0.00000011920928955078125,-0.00000011920928955078125,124928.0,16384.0,-262144.0,262144.0
Raw,1758239908999,5287327876,18,,-1442275121712672000,0.0,10.328896522521973,,,48108,4,0.0,32867,10708935163965,11,38.79999923706055,54.72889709472656,0.08025103062391281,25,817296.5631981449,0.0567455030977726,1605375000,,,,0,,3,7.800000190734863,35.29999923706055,13.038516044616697,,13.038516044616697,,C,3066704811276061,0,,,,,,,,,0.000000020489096641540527,0.000000014901161193847656,-0.00000011920928955078125,-0.00000011920928955078125,124928.0,16384.0,-262144.0,262144.0
Raw,1758239908999,5287327876,18,,-1442275121712672000,0.0,10.328896522521973,,,48108,14,0.0,32867,10708933231986,11,38.5,88.65196228027344,0.08163265138864517,25,-400957.8960612112,0.05772244930267334,1598062500,,,,0,,3,7.800000190734863,35.0,13.038516044616697,,13.038516044616697,,C,3066704811276061,0,,,,,,,,,0.000000020489096641540527,0.000000014901161193847656,-0.00000011920928955078125,-0.00000011920928955078125,124928.0,16384.0,-262144.0,262144.0
Raw,1758239908999,5287327876,18,,-1442275121712672000,0.0,10.328896522521973,,,48108,29,0.0,19456,431926921109865,11,37.5,-491.76220703125,0.08650518953800201,25,-11636.993883511292,0.061167821288108826,1575420000,,,,0,,6,7.800000190734863,34.0,-3.14321368932724,,-3.14321368932724,,C,3066704811276061,0,-11196230.425973797,-15334200.152240722,22696331.943379052,796.8296076421688,-2134.273359079486,-1048.8462223220872,-40037.558983436495,-0.00107661442598328,0.000000020489096641540527,0.000000014901161193847656,-0.00000011920928955078125,-0.00000011920928955078125,124928.0,16384.0,-262144.0,262144.0
Raw,1758239908999,5287327876,18,,-1442275121712672000,0.0,10.328896522521973,,,48108,8,0.0,19456,431926904662005,13,34.099998474121094,232.43113708496094,0.10679652541875839,25,-13746.281401804801,0.07551582157611847,1575420000,,,,0,,6,7.800000190734863,30.600000381469727,-5.005858838558197,,-5.005858838558197,,C,3066704811276061,0,15554048.539035069,-23561347.323698133,-8931045.007512603,-397.2969517151584,805.7242257286691,-2819.3500944320085,-161058.7750528618,-0.0019567813142202795,0.000000020489096641540527,0.000000014901161193847656,-0.00000011920928955078125,-0.00000011920928955078125,124928.0,16384.0,-262144.0,262144.0
Raw,1758239908999,5287327876,18,,-1442275121712672000,0.0,10.328896522521973,,,48108,7,0.0,19456,431926919166899,14,33.0,11.768635749816895,0.11490950733423233,25,-9228.70543412146,0.08125251531600952,1575420000,,,,0,,6,7.800000190734863,29.5,5.238689482212067,,5.238689482212067,,C,3066704811276061,0,3364363.5304842433,-27760335.607565377,9724841.767471712,285.80723875533954,-935.1384829486067,-2765.612485445493,-61962.06401066589,-0.0005837716889800504,0.000000020489096641540527,0.000000014901161193847656,-0.00000011920928955078125,-0.00000011920928955078125,124928.0,16384.0,-262144.0,262144.0
Raw,1758239908999,5287327876,18,,-1442275121712672000,0.0,10.328896522521973,,,48108,30,0.0,19456,431926917384183,17,30.0,60.582740783691406,0.14239943027496338,25,-8991.6274828776,0.10069064050912857,1575420000,,,,0,,6,7.800000190734863,26.5,0.34924596548080444,,0.34924596548080444,,C,3066704811276061,0,9901217.910208227,-14379028.561681565,23896736.128522553,1491.9161421084139,1876.9508159120644,512.0205916348776,-62902.26967619822,-0.012375652127957437,0.000000020489096641540527,0.000000014901161193847656,-0.00000011920928955078125,-0.00000011920928955078125,124928.0,16384.0,-262144.0,262144.0
Raw,1758239908999,5287327876,18,,-1442275121712672000,0.0,10.328896522521973,,,48108,27,0.0,19456,431926921257099,20,27.899999618530273,-434.48260498046875,0.1679656058549881,17,-11357.824165825732,0.21391531825065613,1575420000,,,,0,,6,7.800000190734863,24.399999618530273,0.34924596548080444,,0.34924596548080444,,C,3066704811276061,0,-7141057.490209307,-24860139.235181376,14390104.27888496,865.987123861222,1155.0490455820832,2426.7504754159177,-232061.57361604084,-0.0031100374762900174,0.000000020489096641540527,0.000000014901161193847656,-0.00000011920928955078125,-0.00000011920928955078125,124928.0,16384.0,-262144.0,262144.0
Raw,1758239908999,5287327876,18,,-1442275121712672000,0.0,10.328896522521973,,,48108,19,0.0,19456,431926912615892,21,27.100000381469727,-787.1646118164062,0.17954610288143158,16,-13032.439047378255,0.22210387885570526,1575420000,,,,0,,6,7.800000190734863,23.600000381469727,-5.238689482212067,,-5.238689482212067,,C,3066704811276061,0,-18366435.682272423,4134527.948355305,22839512.974304073,858.4348789075689,-2124.9433112415845,1075.2829911821277,676183.0676990829,0.012251407722942531,0.000000020489096641540527,0.000000014901161193847656,-0.00000011920928955078125,-0.00000011920928955078125,124928.0,16384.0,-262144.0,262144.0
Raw,1758239908999,5287327876,18,,-1442275121712672000,0.0,10.328896522521973,,,48108,3,0.0,32867,10708924219895,27,23.600000381469727,518.3292846679688,0.2475186139345169,16,1058634.0598646929,0.2684246003627777,1604812500,,,,0,,3,7.800000190734863,20.100000381469727,13.038516044616697,,13.038516044616697,,C,3066704811276061,0,,,,,,,,,0.000000020489096641540527,0.000000014901161193847656,-0.00000011920928955078125,-0.00000011920928955078125,124928.0,16384.0,-262144.0,262144.0
Raw,1758239908999,5287327876,18,,-1442275121712672000,0.0,10.328896522521973,,,48108,23,0.0,32867,10708920265836,30,22.399999618530273,-472.4753112792969,0.2799473702907562,16,1242271.6387104958,0.29142051935195923,1603687600,,,,0,,3,7.800000190734863,18.899999618530273,13.038516044616697,,13.038516044616697,,C,3066704811276061,0,,,,,,,,,0.000000020489096641540527,0.000000014901161193847656,-0.00000011920928955078125,-0.00000011920928955078125,124928.0,16384.0,-262144.0,262144.0
Raw,1758239908999,5287327876,18,,-1442275121712672000,0.0,10.328896522521973,,,48108,21,0.0,19456,431926911097529,28,23.299999237060547,-811.1640014648438,0.25507602095603943,16,-13167.455520942589,0.27551108598709106,1575420000,,,,0,,6,7.800000190734863,19.799999237060547,1.0477378964424133,,1.0477378964424133,,C,3066704811276061,0,-20464634.698740292,-21009977.90945598,-3986866.280028437,-298.32992110704794,-273.80241505248864,2970.938531354458,-207042.09597684938,-0.0006894145044498146,0.000000020489096641540527,0.000000014901161193847656,-0.00000011920928955078125,-0.00000011920928955078125,124928.0,16384.0,-262144.0,262144.0
Agc,1758239908999,5287327876,18,,-1442275121712672000,0.0,10.328896522521973,,,48108,7.800000190734863,1575420032,1
Agc,1758239908999,5287327876,18,,-1442275121712672000,0.0,10.328896522521973,,,48108,7.800000190734863,1575420032,1
Agc,1758239908999,5287327876,18,,-1442275121712672000,0.0,10.328896522521973,,,48108,7.800000190734863,1575420032,1
Agc,1758239908999,5287327876,18,,-1442275121712672000,0.0,10.328896522521973,,,48108,7.800000190734863,1575420032,1
Agc,1758239908999,5287327876,18,,-1442275121712672000,0.0,10.328896522521973,,,48108,7.800000190734863,1575420032,1
Agc,1758239908999,5287327876,18,,-1442275121712672000,0.0,10.328896522521973,,,48108,7.800000190734863,1575420032,1
Agc,1758239908999,5287327876,18,,-1442275121712672000,0.0,10.328896522521973,,,48108,7.800000190734863,1575420032,1
Agc,1758239908999,5287327876,18,,-1442275121712672000,0.0,10.328896522521973,,,48108,7.800000190734863,1575420032,1
Agc,1758239908999,5287327876,18,,-1442275121712672000,0.0,10.328896522521973,,,48108,7.800000190734863,1575420032,1
Agc,1758239908999,5287327876,18,,-1442275121712672000,0.0,10.328896522521973,,,48108,7.800000190734863,1575420032,1
Agc,1758239908999,5287327876,18,,-1442275121712672000,0.0,10.328896522521973,,,48108,7.800000190734863,1602000000,3
Agc,1758239908999,5287327876,18,,-1442275121712672000,0.0,10.328896522521973,,,48108,7.800000190734863,1602562560,3
Agc,1758239908999,5287327876,18,,-1442275121712672000,0.0,10.328896522521973,,,48108,7.800000190734863,1605374976,3
Agc,1758239908999,5287327876,18,,-1442275121712672000,0.0,10.328896522521973,,,48108,7.800000190734863,1598062464,3
Agc,1758239908999,5287327876,18,,-1442275121712672000,0.0,10.328896522521973,,,48108,7.800000190734863,1575420032,6
Agc,1758239908999,5287327876,18,,-1442275121712672000,0.0,10.328896522521973,,,48108,7.800000190734863,1575420032,6
Agc,1758239908999,5287327876,18,,-1442275121712672000,0.0,10.328896522521973,,,48108,7.800000190734863,1575420032,6
Agc,1758239908999,5287327876,18,,-1442275121712672000,0.0,10.328896522521973,,,48108,7.800000190734863,1575420032,6
Agc,1758239908999,5287327876,18,,-1442275121712672000,0.0,10.328896522521973,,,48108,7.800000190734863,1575420032,6
Agc,1758239908999,5287327876,18,,-1442275121712672000,0.0,10.328896522521973,,,48108,7.800000190734863,1575420032,6
Agc,1758239908999,5287327876,18,,-1442275121712672000,0.0,10.328896522521973,,,48108,7.800000190734863,1604812544,3
Agc,1758239908999,5287327876,18,,-1442275121712672000,0.0,10.328896522521973,,,48108,7.800000190734863,1603687552,3
Agc,1758239908999,5287327876,18,,-1442275121712672000,0.0,10.328896522521973,,,48108,7.800000190734863,1575420032,6
Fix,GPS,40.1590435999,-105.0375346933,1478.0,0.0,18.87755,,1758239910000,0.04,,3066705811275180,14.0,0,,,
Fix,FLP,40.1590436000,-105.0375347000,1488.300048828125,0.0,20.025,,1758239910255,0.04,,3066705811275180,5.40005,0,,,
Status,1758239910000,22,0,1,9,1575420000,39.90,285.3,77.6,0,0,1,36.4
Status,1758239910000,22,1,1,4,1575420000,34.50,141.2,56.6,1,0,1,31.0
Status,1758239910000,22,2,1,7,1575420000,35.50,292.2,44.3,1,0,1,32.0
Status,1758239910000,22,3,1,16,1575420000,40.00,49.3,42.1,1,0,1,36.5
Status,1758239910000,22,4,1,27,1575420000,31.20,97.6,37.4,1,0,1,27.7
Status,1758239910000,22,5,1,8,1575420000,37.70,138.9,33.4,1,0,1,34.2
Status,1758239910000,22,6,1,30,1575420000,36.90,279.4,15.3,1,0,1,33.4
Status,1758239910000,22,7,1,21,1575420000,29.40,317.7,13.4,1,0,1,25.9
Status,1758239910000,22,8,1,26,1575420000,29.20,50.7,6.2,1,0,1,25.7
Status,1758239910000,22,9,3,4,1605375000,38.90,182.4,66.5,1,0,1,35.4
Status,1758239910000,22,10,3,14,1598062500,38.50,22.1,55.5,1,0,1,35.0
Status,1758239910000,22,11,3,15,1602000000,41.30,266.2,55.4,0,0,1,37.8
Status,1758239910000,22,12,3,5,1602562600,40.90,318.7,53.5,0,0,1,37.4
