# 
# Header Description:
# 
# Version: v3.1.1.1 Platform: 16 Manufacturer: Google Model: Pixel 8a GNSS Hardware Model Name: S.LSI,K041,SPOTNAV_4.15.4_3_250220_R2_258342
# 
# Raw,utcTimeMillis,TimeNanos,LeapSecond,TimeUncertaintyNanos,FullBiasNanos,BiasNanos,BiasUncertaintyNanos,DriftNanosPerSecond,DriftUncertaintyNanosPerSecond,HardwareClockDiscontinuityCount,Svid,TimeOffsetNanos,State,ReceivedSvTimeNanos,ReceivedSvTimeUncertaintyNanos,Cn0DbHz,PseudorangeRateMetersPerSecond,PseudorangeRateUncertaintyMetersPerSecond,AccumulatedDeltaRangeState,AccumulatedDeltaRangeMeters,AccumulatedDeltaRangeUncertaintyMeters,CarrierFrequencyHz,CarrierCycles,CarrierPhase,CarrierPhaseUncertainty,MultipathIndicator,SnrInDb,ConstellationType,AgcDb,BasebandCn0DbHz,FullInterSignalBiasNanos,FullInterSignalBiasUncertaintyNanos,SatelliteInterSignalBiasNanos,SatelliteInterSignalBiasUncertaintyNanos,CodeType,ChipsetElapsedRealtimeNanos,IsFullTracking,SvPositionEcefXMeters,SvPositionEcefYMeters,SvPositionEcefZMeters,SvVelocityEcefXMetersPerSecond,SvVelocityEcefYMetersPerSecond,SvVelocityEcefZMetersPerSecond,SvClockBiasMeters,SvClockDriftMetersPerSecond,KlobucharAlpha0,KlobucharAlpha1,KlobucharAlpha2,KlobucharAlpha3,KlobucharBeta0,KlobucharBeta1,KlobucharBeta2,KlobucharBeta3
# 
# UncalAccel,utcTimeMillis,elapsedRealtimeNanos,UncalAccelXMps2,UncalAccelYMps2,UncalAccelZMps2,BiasXMps2,BiasYMps2,BiasZMps2,CalibrationAccuracy
# 
# Accel,utcTimeMillis,elapsedRealtimeNanos,AccelXMps2,AccelYMps2,AccelZMps2,CalibrationAccuracy
# 
# UncalGyro,utcTimeMillis,elapsedRealtimeNanos,UncalGyroXRadPerSec,UncalGyroYRadPerSec,UncalGyroZRadPerSec,DriftXRadPerSec,DriftYRadPerSec,DriftZRadPerSec,CalibrationAccuracy
# 
# Gyro,utcTimeMillis,elapsedRealtimeNanos,GyroXRadPerSec,GyroYRadPerSec,GyroZRadPerSec,CalibrationAccuracy
# 
# UncalMag,utcTimeMillis,elapsedRealtimeNanos,UncalMagXMicroT,UncalMagYMicroT,UncalMagZMicroT,BiasXMicroT,BiasYMicroT,BiasZMicroT,CalibrationAccuracy
# 
# Mag,utcTimeMillis,elapsedRealtimeNanos,MagXMicroT,MagYMicroT,MagZMicroT,CalibrationAccuracy
# 
# Pressure,utcTimeMillis,elapsedRealtimeNanos,PressureHpa,CalibrationAccuracy
# 
# OrientationDeg,utcTimeMillis,elapsedRealtimeNanos,yawDeg,rollDeg,pitchDeg,CalibrationAccuracy
# 
# Fix,Provider,LatitudeDegrees,LongitudeDegrees,AltitudeMeters,SpeedMps,AccuracyMeters,BearingDegrees,UnixTimeMillis,SpeedAccuracyMps,BearingAccuracyDegrees,elapsedRealtimeNanos,VerticalAccuracyMeters,MockLocation,NumberOfUsedSignals,VerticalSpeedAccuracyMps,SolutionType
# 
# Nav,Svid,Type,Status,MessageId,Sub-messageId,Data(Bytes)
# 
# Status,UnixTimeMillis,SignalCount,SignalIndex,ConstellationType,Svid,CarrierFrequencyHz,Cn0DbHz,AzimuthDegrees,ElevationDegrees,UsedInFix,HasAlmanacData,HasEphemerisData,BasebandCn0DbHz
# 
# Agc,utcTimeMillis,TimeNanos,LeapSecond,TimeUncertaintyNanos,FullBiasNanos,BiasNanos,BiasUncertaintyNanos,DriftNanosPerSecond,DriftUncertaintyNanosPerSecond,HardwareClockDiscontinuityCount,AgcDb,CarrierFrequencyHz,ConstellationType
# 
Fix,GPS,39.9150199117,-105.0725385267,1622.0,0.37,93.36735,323.9,1758391467000,1.65,180.0,3218265774801379,44.0,0,,,
Fix,FLP,39.9152316000,-105.0724331000,1616.5999755859375,0.32893944,93.367,316.107,1758391467689,1.65,180.0,3218265774801379,0.6715894,0,,,
Status,1758391467000,10,0,1,28,1575420000,27.00,160.8,62.0,1,0,1,23.5
Status,1758391467000,10,1,1,10,1575420000,32.20,101.7,49.8,1,0,1,28.7
Status,1758391467000,10,2,1,2,1575420000,28.90,282.3,47.1,1,0,1,25.4
Status,1758391467000,10,3,1,31,1575420000,29.80,189.8,33.7,1,0,1,26.3
Status,1758391467000,10,4,1,23,1575420000,26.10,116.2,9.0,1,0,1,22.6
Status,1758391467000,10,5,3,18,1600312400,22.50,209.9,30.4,1,0,1,19.0
Status,1758391467000,10,6,3,14,1598062500,33.20,144.3,18.7,1,0,1,29.7
Status,1758391467000,10,7,3,12,1601437400,23.70,32.4,16.4,1,0,1,20.2
Status,1758391467000,10,8,6,33,1575420000,26.80,173.0,37.7,1,0,1,23.3
Status,1758391467000,10,9,6,4,1575420000,26.00,251.7,30.4,1,0,1,22.5
Raw,1758391466999,7222159020,18,,-1442426677777840896,0.0,100.06922149658203,,,48138,10,0.0,16399,583484928339109,15,32.20000076293945,479.69635009765625,0.12140488624572754,17,-70256.95833859115,0.1809922307729721,1575420000,,,,0,,1,7.800000190734863,28.700000762939453,2.3283064365386963,,2.3283064365386963,,C,3218265774801379,0,8012818.589105969,-22041000.378179412,12368937.546089534,1125.62690043123,-1064.877728521797,-2712.9767147676403,-159392.02904651547,-0.0023886771232355386,0.000000022351741790771484,0.000000014901161193847656,-0.00000011920928955078125,-0.00000011920928955078125,129024.0,0.0,-262144.0,262144.0
Raw,1758391466999,7222159020,18,,-1442426677777840896,0.0,100.06922149658203,,,48138,31,0.0,16391,583484925425249,17,29.799999237060547,-492.8499755859375,0.14457345008850098,16,-76957.6084662351,0.19737473130226135,1575420000,,,,0,,1,7.800000190734863,26.299999237060547,-13.0385160446167,,-13.0385160446167,,C,3218265774801379,0,-9853857.784207078,-24408452.64510891,-1967764.6581783842,237.9401995276794,-314.40342486353296,3171.288183657021,-57317.60432034061,-0.00011531291238497943,0.000000022351741790771484,0.000000014901161193847656,-0.00000011920928955078125,-0.00000011920928955078125,129024.0,0.0,-262144.0,262144.0
Raw,1758391466999,7222159020,18,,-1442426677777840896,0.0,100.06922149658203,,,48138,2,0.0,16399,583484926611820,18,28.899999618530273,99.61412048339844,0.15500031411647797,16,-75116.45242758968,0.20474755764007568,1575420000,,,,0,,1,7.800000190734863,25.399999618530273,-17.695128917694092,,-17.695128917694092,,C,3218265774801379,0,-18050460.19492085,-10887679.271209948,16870191.010973644,-750.7426343257162,-1902.9773400661597,-2038.0530337180103,-20705.75380747581,0.004286548464733642,0.000000022351741790771484,0.000000014901161193847656,-0.00000011920928955078125,-0.00000011920928955078125,129024.0,0.0,-262144.0,262144.0
Raw,1758391466999,7222159020,18,,-1442426677777840896,0.0,100.06922149658203,,,48138,28,0.0,16399,583484930158052,21,27.0,-136.86814880371094,0.18107740581035614,16,-75855.81427099099,0.2231866717338562,1575420000,,,,0,,1,7.800000190734863,23.5,-9.313225746154785,,-9.313225746154785,,C,3218265774801379,0,-3372517.3439836744,-24826609.506626695,8784048.905930365,653.7383853390472,940.6781875677334,2909.5467754358788,-191405.8352049658,0.000027678150217980146,0.000000022351741790771484,0.000000014901161193847656,-0.00000011920928955078125,-0.00000011920928955078125,129024.0,0.0,-262144.0,262144.0
Raw,1758391466999,7222159020,18,,-1442426677777840896,0.0,100.06922149658203,,,48138,23,0.0,16391,583484918338742,22,26.100000381469727,771.7454833984375,0.19578666985034943,16,-73035.64476920299,0.2335875928401947,1575420000,,,,0,,1,7.800000190734863,22.600000381469727,-8.381903171539307,,-8.381903171539307,,C,3218265774801379,0,17240813.033609472,-19937993.19698551,-1701362.3020290998,36.33471150015061,314.5151019953546,-3237.931499419689,163576.80109739918,0.0011457714135758579,0.000000022351741790771484,0.000000014901161193847656,-0.00000011920928955078125,-0.00000011920928955078125,129024.0,0.0,-262144.0,262144.0
Raw,1758391466999,7222159020,18,,-1442426677777840896,0.0,100.06922149658203,,,48138,14,0.0,32867,75866924235650,14,33.20000076293945,-566.646728515625,0.11336711049079895,16,-2939008.568161814,0.1739606112241745,1598062500,,,,0,,3,7.800000190734863,29.700000762939453,12.078089639544485,,12.078089639544485,,C,3218265774801379,0,6468893.715532207,-24249969.510609202,-4610530.765892714,92.83947992667709,-639.7286819455336,3481.834999506317,8923.064139878377,0.0,0.000000022351741790771484,0.000000014901161193847656,-0.00000011920928955078125,-0.00000011920928955078125,129024.0,0.0,-262144.0,262144.0
Raw,1758391466999,7222159020,18,,-1442426677777840896,0.0,100.06922149658203,,,48138,33,0.0,19456,583484915781526,21,26.799999237060547,700.8997802734375,0.18419939279556274,18,-105750.64133366456,0.22539421916007996,1575420000,,,,0,,6,7.800000190734863,23.299999237060547,-5.122274160385132,,-5.122274160385132,,C,3218265774801379,0,-5330060.613654621,-29082130.42537661,-1236531.4830040361,-143.64435900053962,158.16619957729537,-3084.1720680798176,2423.63589094886,-0.0002582076745056838,0.000000022351741790771484,0.000000014901161193847656,-0.00000011920928955078125,-0.00000011920928955078125,129024.0,0.0,-262144.0,262144.0
Raw,1758391466999,7222159020,18,,-1442426677777840896,0.0,100.06922149658203,,,48138,4,0.0,19456,583484913435803,22,26.0,-188.5825653076172,0.1975308656692505,18,-106997.39324986868,0.2348209172487259,1575420000,,,,0,,6,7.800000190734863,22.5,-4.423782229423523,,-4.423782229423523,,C,3218265774801379,0,-25485621.844502877,-13247818.638597548,7134371.992951179,662.5827465332775,279.5192453538335,2885.344802031322,-103583.38778262906,-0.0031318622641265392,0.000000022351741790771484,0.000000014901161193847656,-0.00000011920928955078125,-0.00000011920928955078125,129024.0,0.0,-262144.0,262144.0
Raw,1758391466999,7222159020,18,,-1442426677777840896,0.0,100.06922149658203,,,48138,12,0.0,32867,75866923336608,27,23.700000762939453,581.8718872070312,0.24507398903369904,18,-181207.06363309306,0.2668928802013397,1601437400,,,,0,,3,7.800000190734863,20.200000762939453,12.078089639544485,,12.078089639544485,,C,3218265774801379,0,11957596.871833721,-1090774.751349017,22530006.82584279,-1116.2636522366342,2867.8575261377814,732.929366233483,17804.845133560248,0.0002726596521824831,0.000000022351741790771484,0.000000014901161193847656,-0.00000011920928955078125,-0.00000011920928955078125,129024.0,0.0,-262144.0,262144.0
Raw,1758391466999,7222159020,18,,-1442426677777840896,0.0,100.06922149658203,,,48138,18,0.0,32867,75866927877889,30,22.5,907.7489013671875,0.2770083248615265,18,-1601594.1460966347,0.2895394563674927,1600312400,,,,0,,3,7.800000190734863,19.0,12.078089639544485,,12.078089639544485,,C,3218265774801379,0,-15179455.331450185,-20480633.414482214,-1313268.7272559248,-61.81060635570998,279.4971542764879,-3587.5866134961434,66945.5348707457,0.0005453193043649662,0.000000022351741790771484,0.000000014901161193847656,-0.00000011920928955078125,-0.00000011920928955078125,129024.0,0.0,-262144.0,262144.0
Agc,1758391466999,7222159020,18,,-1442426677777840896,0.0,100.06922149658203,,,48138,7.800000190734863,1575420032,1
Agc,1758391466999,7222159020,18,,-1442426677777840896,0.0,100.06922149658203,,,48138,7.800000190734863,1575420032,1
Agc,1758391466999,7222159020,18,,-1442426677777840896,0.0,100.06922149658203,,,48138,7.800000190734863,1575420032,1
Agc,1758391466999,7222159020,18,,-1442426677777840896,0.0,100.06922149658203,,,48138,7.800000190734863,1575420032,1
Agc,1758391466999,7222159020,18,,-1442426677777840896,0.0,100.06922149658203,,,48138,7.800000190734863,1575420032,1
Agc,1758391466999,7222159020,18,,-1442426677777840896,0.0,100.06922149658203,,,48138,7.800000190734863,1598062464,3
Agc,1758391466999,7222159020,18,,-1442426677777840896,0.0,100.06922149658203,,,48138,7.800000190734863,1575420032,6
Agc,1758391466999,7222159020,18,,-1442426677777840896,0.0,100.06922149658203,,,48138,7.800000190734863,1575420032,6
Agc,1758391466999,7222159020,18,,-1442426677777840896,0.0,100.06922149658203,,,48138,7.800000190734863,1601437440,3
Agc,1758391466999,7222159020,18,,-1442426677777840896,0.0,100.06922149658203,,,48138,7.800000190734863,1600312448,3
Fix,GPS,39.9150360469,-105.0725464057,1628.0,1.36,71.938774,332.8,1758391468000,1.34,180.0,3218266774801980,36.0,0,,,
Fix,FLP,39.9151983000,-105.0724599000,1616.5999755859375,0.76681435,82.653,332.8876,1758391468688,1.34,180.0,3218266774801980,0.6780286,0,,,
Status,1758391468000,10,0,1,28,1575420000,27.00,160.8,62.0,1,0,1,23.5
Status,1758391468000,10,1,1,10,1575420000,32.60,101.7,49.8,1,0,1,29.1
Status,1758391468000,10,2,1,2,1575420000,29.00,282.3,47.1,1,0,1,25.5
Status,1758391468000,10,3,1,31,1575420000,30.40,189.8,33.7,1,0,1,26.9
Status,1758391468000,10,4,1,23,1575420000,26.20,116.2,9.0,1,0,1,22.7
Status,1758391468000,10,5,3,18,1600312400,24.30,209.9,30.4,1,0,1,20.8
Status,1758391468000,10,6,3,14,1598062500,33.20,144.3,18.7,1,0,1,29.7
Status,1758391468000,10,7,3,12,1601437400,23.70,32.4,16.4,1,0,1,20.2
Status,1758391468000,10,8,6,33,1575420000,27.60,173.0,37.7,1,0,1,24.1
Status,1758391468000,10,9,6,4,1575420000,26.40,251.7,30.4,1,0,1,22.9
Raw,1758391468000,8222159631,18,,-1442426677777840384,0.0,10.205528259277344,,,48138,10,0.0,16399,583485928338128,15,32.599998474121094,476.2879638671875,0.11809024214744568,17,-69778.79677534197,0.178648442029953,1575420000,,,,0,,1,7.800000190734863,29.100000381469727,2.3283064365386963,,2.3283064365386963,,C,3218266774801980,0,8013944.072879089,-22042065.15987125,12366224.439768499,1125.3428556110612,-1064.6877340605051,-2713.241240889781,-159392.03143526646,-0.002388829569099471,0.000000022351741790771484,0.000000014901161193847656,-0.00000011920928955078125,-0.00000011920928955078125,129024.0,0.0,-262144.0,262144.0
Raw,1758391468000,8222159631,18,,-1442426677777840384,0.0,10.205528259277344,,,48138,31,0.0,16391,583485925427479,17,30.399999618530273,-495.4004821777344,0.13819599151611328,16,-77451.32919088114,0.19286522269248962,1575420000,,,,0,,1,7.800000190734863,26.899999618530273,-13.0385160446167,,-13.0385160446167,,C,3218266774801980,0,-9853619.785800377,-24408766.86695304,-1964593.3416036007,238.05556081291985,-314.038863600707,3171.3308104344287,-57317.604435719615,-0.00011544459994183853,0.000000022351741790771484,0.000000014901161193847656,-0.00000011920928955078125,-0.00000011920928955078125,129024.0,0.0,-262144.0,262144.0
Raw,1758391468000,8222159631,18,,-1442426677777840384,0.0,10.205528259277344,,,48138,2,0.0,16399,583485926612125,18,29.0,97.50566101074219,0.15378700196743011,16,-75017.56555932736,0.2038896232843399,1575420000,,,,0,,1,7.800000190734863,25.5,-17.695128917694092,,-17.695128917694092,,C,3218266774801980,0,-18051210.941766627,-10889582.113088012,16868152.786476593,-750.750590814254,-1902.7052504415599,-2038.3947103074713,-20705.74952093368,0.004286533167032758,0.000000022351741790771484,0.000000014901161193847656,-0.00000011920928955078125,-0.00000011920928955078125,129024.0,0.0,-262144.0,262144.0
Raw,1758391468000,8222159631,18,,-1442426677777840384,0.0,10.205528259277344,,,48138,28,0.0,16399,583485930159111,21,27.0,-140.3304901123047,0.18107740581035614,16,-75993.94223731045,0.2231866717338562,1575420000,,,,0,,1,7.800000190734863,23.5,-9.313225746154785,,-9.313225746154785,,C,3218266774801980,0,-3371863.5093553653,-24825668.676734034,8786958.362210454,653.9294921796572,940.9795979097923,2909.3596121950995,-191405.83517728763,0.000027678179321810603,0.000000022351741790771484,0.000000014901161193847656,-0.00000011920928955078125,-0.00000011920928955078125,129024.0,0.0,-262144.0,262144.0
Raw,1758391468000,8222159631,18,,-1442426677777840384,0.0,10.205528259277344,,,48138,23,0.0,16391,583485918336778,22,26.200000762939453,768.5593872070312,0.19406546652317047,16,-72265.15741138766,0.232370525598526,1575420000,,,,0,,1,7.800000190734863,22.700000762939453,-8.381903171539307,,-8.381903171539307,,C,3218266774801980,0,17240849.250547674,-19937678.522503164,-1704600.208751531,36.09931499230882,314.8351038175779,-3237.8946523181376,163576.80224315854,0.00114575179759413,0.000000022351741790771484,0.000000014901161193847656,-0.00000011920928955078125,-0.00000011920928955078125,129024.0,0.0,-262144.0,262144.0
Raw,1758391468000,8222159631,18,,-1442426677777840384,0.0,10.205528259277344,,,48138,14,0.0,32867,75867924238179,14,33.20000076293945,-571.8631591796875,0.11336711049079895,16,-2939578.6928361338,0.1739606112241745,1598062500,,,,0,,3,7.800000190734863,29.700000762939453,12.078089639544485,,12.078089639544485,,C,3218266774801980,0,6468986.4482008265,-24250609.021260336,-4607048.866800003,92.62541634958461,-639.2893851100624,3481.945590099211,8923.064139878377,0.0,0.000000022351741790771484,0.000000014901161193847656,-0.00000011920928955078125,-0.00000011920928955078125,129024.0,0.0,-262144.0,262144.0
Raw,1758391468000,8222159631,18,,-1442426677777840384,0.0,10.205528259277344,,,48138,33,0.0,19456,583485915779836,20,27.600000381469727,696.1390380859375,0.17217335104942322,25,-105052.81980822526,0.12174377590417862,1575420000,,,,0,,6,7.800000190734863,24.100000381469727,-5.122274160385132,,-5.122274160385132,,C,3218266774801980,0,-5330204.219406871,-29081972.102618434,-1239615.640339613,-143.56762264341586,158.47984971913633,-3084.153019644942,2423.63563274056,-0.0002582097977210651,0.000000022351741790771484,0.000000014901161193847656,-0.00000011920928955078125,-0.00000011920928955078125,129024.0,0.0,-262144.0,262144.0
Raw,1758391468000,8222159631,18,,-1442426677777840384,0.0,10.205528259277344,,,48138,4,0.0,19456,583485913437060,22,26.399999618530273,-195.22259521484375,0.19069050252437592,16,-107190.402598427,0.2299840897321701,1575420000,,,,0,,6,7.800000190734863,22.899999618530273,-4.423782229423523,,-4.423782229423523,,C,3218266774801980,0,-25484959.112356283,-13247539.100695485,7137257.28651239,662.8798802265344,279.55584848933603,2885.2350593163965,-103583.39091449541,-0.0031318625260610133,0.000000022351741790771484,0.000000014901161193847656,-0.00000011920928955078125,-0.00000011920928955078125,129024.0,0.0,-262144.0,262144.0
Raw,1758391468000,8222159631,18,,-1442426677777840384,0.0,10.205528259277344,,,48138,18,0.0,32867,75867927875587,25,24.299999237060547,906.5790405273438,0.23113907873630524,18,-1600687.5664927412,0.25710529088974,1600312400,,,,0,,3,7.800000190734863,20.799999237060547,12.078089639544485,,12.078089639544485,,C,3218266774801980,0,-15179516.979984157,-20480353.7224944,-1316856.2898400116,-61.48672645069291,279.8880888180597,-3587.555089134277,66945.53541606377,0.0005453193043649662,0.000000022351741790771484,0.000000014901161193847656,-0.00000011920928955078125,-0.00000011920928955078125,129024.0,0.0,-262144.0,262144.0
Raw,1758391468000,8222159631,18,,-1442426677777840384,0.0,10.205528259277344,,,48138,12,0.0,32867,75867923335289,27,23.700000762939453,576.0807495117188,0.24507398903369904,16,-180629.05213184972,0.2668928802013397,1601437400,,,,0,,3,7.800000190734863,20.200000762939453,12.078089639544485,,12.078089639544485,,C,3218266774801980,0,11956480.707405563,-1087906.8060757436,22530739.48440804,-1116.068147135058,2868.040604813726,732.3897052501259,17804.84540621954,0.0002726596521824831,0.000000022351741790771484,0.000000014901161193847656,-0.00000011920928955078125,-0.00000011920928955078125,129024.0,0.0,-262144.0,262144.0
Agc,1758391468000,8222159631,18,,-1442426677777840384,0.0,10.205528259277344,,,48138,7.800000190734863,1575420032,1
Agc,1758391468000,8222159631,18,,-1442426677777840384,0.0,10.205528259277344,,,48138,7.800000190734863,1575420032,1
Agc,1758391468000,8222159631,18,,-1442426677777840384,0.0,10.205528259277344,,,48138,7.800000190734863,1575420032,1
Agc,1758391468000,8222159631,18,,-1442426677777840384,0.0,10.205528259277344,,,48138,7.800000190734863,1575420032,1
Agc,1758391468000,8222159631,18,,-1442426677777840384,0.0,10.205528259277344,,,48138,7.800000190734863,1575420032,1
Agc,1758391468000,8222159631,18,,-1442426677777840384,0.0,10.205528259277344,,,48138,7.800000190734863,1598062464,3
Agc,1758391468000,8222159631,18,,-1442426677777840384,0.0,10.205528259277344,,,48138,7.800000190734863,1575420032,6
Agc,1758391468000,8222159631,18,,-1442426677777840384,0.0,10.205528259277344,,,48138,7.800000190734863,1575420032,6
Agc,1758391468000,8222159631,18,,-1442426677777840384,0.0,10.205528259277344,,,48138,7.800000190734863,1600312448,3
Agc,1758391468000,8222159631,18,,-1442426677777840384,0.0,10.205528259277344,,,48138,7.800000190734863,1601437440,3
Fix,GPS,39.9150709156,-105.0725353416,1633.0,0.22,76.02041,338.8,1758391469000,1.31,180.0,3218267774802497,34.0,0,,,
Fix,FLP,39.9151799000,-105.0724728000,1616.5999755859375,0.31547529,80.442,340.23636,1758391469689,1.31,180.0,3218267774802497,0.68849754,0,,,
Status,1758391469000,14,0,1,28,1575420000,27.40,160.8,62.0,1,0,1,23.9
Status,1758391469000,14,1,1,10,1575420000,32.90,101.7,49.8,1,0,1,29.4
Status,1758391469000,14,2,1,2,1575420000,29.10,282.3,47.1,1,0,1,25.6
Status,1758391469000,14,3,1,31,1575420000,30.60,189.8,33.7,1,0,1,27.1
Status,1758391469000,14,4,1,1,1575420000,20.10,312.5,27.1,0,0,1,16.6
Status,1758391469000,14,5,1,23,1575420000,26.20,116.2,9.0,1,0,1,22.7
Status,1758391469000,14,6,3,3,1604812500,20.00,32.1,50.1,1,0,1,16.5
Status,1758391469000,14,7,3,19,1603687600,21.10,278.4,46.7,1,0,1,17.6
Status,1758391469000,14,8,3,4,1605375000,21.70,307.9,46.3,1,0,1,18.2
Status,1758391469000,14,9,3,18,1600312400,24.90,209.9,30.4,1,0,1,21.4
Status,1758391469000,14,10,3,14,1598062500,33.10,144.3,18.7,0,0,1,29.6
Status,1758391469000,14,11,3,12,1601437400,23.70,32.4,16.4,1,0,1,20.2
Status,1758391469000,14,12,6,33,1575420000,28.00,173.0,37.7,1,0,1,24.5
Status,1758391469000,14,13,6,4,1575420000,26.40,251.7,30.4,1,0,1,22.9
Raw,1758391469000,9222160242,18,,-1442426677777839872,0.0,10.205528259277344,,,48138,10,0.0,16399,583486928337162,14,32.900001525878906,471.01934814453125,0.11569254100322723,17,-69305.39649707085,0.1769530326128006,1575420000,,,,0,,1,7.800000190734863,29.399999618530273,2.3283064365386963,,2.3283064365386963,,C,3218267774802497,0,8015069.272629104,-22043129.75155437,12363511.06890932,1125.0588196312565,-1064.4976788990243,-2713.5057101984667,-159392.03382416992,-0.0023889820149634033,0.000000022351741790771484,0.000000014901161193847656,-0.00000011920928955078125,-0.00000011920928955078125,129024.0,0.0,-262144.0,262144.0
Raw,1758391469000,9222160242,18,,-1442426677777839872,0.0,10.205528259277344,,,48138,31,0.0,16391,583486925429731,16,30.600000381469727,-501.19464111328125,0.13616371154785156,17,-77950.03273455928,0.19142818450927734,1575420000,,,,0,,1,7.800000190734863,27.100000381469727,-13.0385160446167,,-13.0385160446167,,C,3218267774802497,0,-9853381.672001872,-24409080.724246796,-1961421.982366469,238.17097221309547,-313.67431194183575,3171.373368626051,-57317.60455123032,-0.0001155762656708248,0.000000022351741790771484,0.000000014901161193847656,-0.00000011920928955078125,-0.00000011920928955078125,129024.0,0.0,-262144.0,262144.0
Raw,1758391469000,9222160242,18,,-1442426677777839872,0.0,10.205528259277344,,,48138,2,0.0,16399,583486926612418,18,29.100000381469727,91.34886169433594,0.1525878757238388,16,-74923.70399341513,0.20304173231124878,1575420000,,,,0,,1,7.800000190734863,25.600000381469727,-17.695128917694092,,-17.695128917694092,,C,3218267774802497,0,-18051961.69653444,-10891484.682838582,16866114.220347855,-750.7584962231922,-1902.433131139476,-2038.7363457785366,-20705.745234406917,0.004286517829314107,0.000000022351741790771484,0.000000014901161193847656,-0.00000011920928955078125,-0.00000011920928955078125,129024.0,0.0,-262144.0,262144.0
Raw,1758391469000,9222160242,18,,-1442426677777839872,0.0,10.205528259277344,,,48138,28,0.0,16399,583486930160170,20,27.399999618530273,-144.1263885498047,0.1750669777393341,16,-76136.06921052939,0.21893669664859772,1575420000,,,,0,,1,7.800000190734863,23.899999618530273,-9.313225746154785,,-9.313225746154785,,C,3218267774802497,0,-3371209.4836032614,-24824727.545452174,8789867.631296117,654.1206325215376,941.2809653237831,2909.172386979654,-191405.83514960943,0.00002767820842564106,0.000000022351741790771484,0.000000014901161193847656,-0.00000011920928955078125,-0.00000011920928955078125,129024.0,0.0,-262144.0,262144.0
Raw,1758391469000,9222160242,18,,-1442426677777839872,0.0,10.205528259277344,,,48138,23,0.0,16391,583486918334852,22,26.200000762939453,764.7848510742188,0.19406546652317047,16,-71498.47140314002,0.232370525598526,1575420000,,,,0,,1,7.800000190734863,22.700000762939453,-8.381903171539307,,-8.381903171539307,,C,3218267774802497,0,17240885.23211427,-19937363.527992796,-1707838.0787149435,35.863964343871686,315.1551350914023,-3237.8577351365198,163576.80338889838,0.0011457322689238936,0.000000022351741790771484,0.000000014901161193847656,-0.00000011920928955078125,-0.00000011920928955078125,129024.0,0.0,-262144.0,262144.0
Raw,1758391469000,9222160242,18,,-1442426677777839872,0.0,10.205528259277344,,,48138,1,0.0,16391,583486923435111,37,20.100000381469727,-315.53924560546875,0.3628973662853241,16,-131108.30720065185,0.35175156593322754,1575420000,,,,0,,1,7.800000190734863,16.600000381469727,-8.847564458847046,,-8.847564458847046,,C,3218267774802497,0,-15646524.481004043,12830.584816818126,21466754.275437675,-703.6856749187482,-2633.701766810397,-507.65908033852793,104186.3463407385,0.0009682557574706152,0.000000022351741790771484,0.000000014901161193847656,-0.00000011920928955078125,-0.00000011920928955078125,129024.0,0.0,-262144.0,262144.0
Raw,1758391469000,9222160242,18,,-1442426677777839872,0.0,10.205528259277344,,,48138,14,0.0,32867,75868924240696,14,33.099998474121094,-577.3565063476562,0.11413440108299255,17,-2940153.6389591265,0.1745031625032425,1598062500,,,,0,,3,7.800000190734863,29.600000381469727,12.078089639544485,,12.078089639544485,,C,3218267774802497,0,6469078.96683517,-24251248.09258438,-4603566.85720006,92.41141515611776,-638.8500452758062,3482.056097111741,8923.064139878377,0.0,0.000000022351741790771484,0.000000014901161193847656,-0.00000011920928955078125,-0.00000011920928955078125,129024.0,0.0,-262144.0,262144.0
Raw,1758391469000,9222160242,18,,-1442426677777839872,0.0,10.205528259277344,,,48138,33,0.0,19456,583486915778117,19,28.0,690.92724609375,0.16659724712371826,16,-104359.62591270788,0.2129477560520172,1575420000,,,,0,,6,7.800000190734863,24.5,-5.122274160385132,,-5.122274160385132,,C,3218267774802497,0,-5330347.748394847,-29081813.46622168,-1242699.778513635,-143.4908390962614,158.79348709215475,-3084.133923759689,2423.6353745301444,-0.00025821192139119375,0.000000022351741790771484,0.000000014901161193847656,-0.00000011920928955078125,-0.00000011920928955078125,129024.0,0.0,-262144.0,262144.0
Raw,1758391469000,9222160242,18,,-1442426677777839872,0.0,10.205528259277344,,,48138,4,0.0,19456,583486913438317,22,26.399999618530273,-198.65699768066406,0.19069050252437592,16,-107387.17712286874,0.2299840897321701,1575420000,,,,0,,6,7.800000190734863,22.899999618530273,-4.423782229423523,,-4.423782229423523,,C,3218267774802497,0,-25484296.08307637,-13247259.526213132,7140142.470308565,663.1770125846522,279.5924054769319,2885.1252722291006,-103583.39404636197,-0.0031318627443397418,0.000000022351741790771484,0.000000014901161193847656,-0.00000011920928955078125,-0.00000011920928955078125,129024.0,0.0,-262144.0,262144.0
Raw,1758391469000,9222160242,18,,-1442426677777839872,0.0,10.205528259277344,,,48138,18,0.0,32867,75868927873119,24,24.899999618530273,900.0570678710938,0.21835967898368835,16,-1599785.334896652,0.24806897342205048,1600312400,,,,0,,3,7.800000190734863,21.399999618530273,12.078089639544485,,12.078089639544485,,C,3218267774802497,0,-15179578.30459965,-20480073.639645632,-1320443.820261189,-61.16278832008288,280.27897100038274,-3587.5234787672434,66945.53596138171,0.0005453193043649662,0.000000022351741790771484,0.000000014901161193847656,-0.00000011920928955078125,-0.00000011920928955078125,129024.0,0.0,-262144.0,262144.0
Raw,1758391469000,9222160242,18,,-1442426677777839872,0.0,10.205528259277344,,,48138,12,0.0,32867,75868923333976,27,23.700000762939453,572.2815551757812,0.24507398903369904,16,-180054.86036633584,0.2668928802013397,1601437400,,,,0,,3,7.800000190734863,20.200000762939453,12.078089639544485,,12.078089639544485,,C,3218267774802497,0,11955364.738499338,-1085038.6777478661,22531471.60330867,-1115.8725944892726,2868.22360153739,731.850026826386,17804.845678878835,0.0002726596521824831,0.000000022351741790771484,0.000000014901161193847656,-0.00000011920928955078125,-0.00000011920928955078125,129024.0,0.0,-262144.0,262144.0
Raw,1758391469000,9222160242,18,,-1442426677777839872,0.0,10.205528259277344,,,48138,4,0.0,32867,75868931786694,32,21.700000762939453,-68.8693618774414,0.3018958866596222,16,5408066.992016523,0.30684205889701843,1605375000,,,,0,,3,7.800000190734863,18.200000762939453,12.078089639544485,,12.078089639544485,,C,3218267774802497,0,-13544925.375724766,-7437432.361255533,20324023.13280441,2765.2962161279283,-296.36884111415725,1734.2775264943034,93552.27147247618,0.0008179789565474493,0.000000022351741790771484,0.000000014901161193847656,-0.00000011920928955078125,-0.00000011920928955078125,129024.0,0.0,-262144.0,262144.0
Raw,1758391469000,9222160242,18,,-1442426677777839872,0.0,10.205528259277344,,,48138,19,0.0,32867,75868931717624,33,21.100000381469727,247.66453552246094,0.32283055782318115,18,3362747.040654065,0.3217431902885437,1603687600,,,,0,,3,7.800000190734863,17.600000381469727,12.078089639544485,,12.078089639544485,,C,3218267774802497,0,-17297772.530327726,-10914402.208514193,15198652.075619778,-1341.4542778505615,-1598.5040876203907,-2679.8638714072513,-6128.195165431313,-0.0016359579130948987,0.000000022351741790771484,0.000000014901161193847656,-0.00000011920928955078125,-0.00000011920928955078125,129024.0,0.0,-262144.0,262144.0
Raw,1758391469000,9222160242,18,,-1442426677777839872,0.0,10.205528259277344,,,48138,3,0.0,32867,75868932322189,37,20.0,397.34442138671875,0.36730945110321045,18,4783572.7085190825,0.35312873125076294,1604812500,,,,0,,3,7.800000190734863,16.5,12.078089639544485,,12.078089639544485,,C,3218267774802497,0,4185121.3966349573,-11261403.797295272,22532366.515269764,3032.1753815504658,-525.9494713499533,-833.5288421821048,38971.54099431509,0.0002726596521824831,0.000000022351741790771484,0.000000014901161193847656,-0.00000011920928955078125,-0.00000011920928955078125,129024.0,0.0,-262144.0,262144.0
Agc,1758391469000,9222160242,18,,-1442426677777839872,0.0,10.205528259277344,,,48138,7.800000190734863,1575420032,1
Agc,1758391469000,9222160242,18,,-1442426677777839872,0.0,10.205528259277344,,,48138,7.800000190734863,1575420032,1
Agc,1758391469000,9222160242,18,,-1442426677777839872,0.0,10.205528259277344,,,48138,7.800000190734863,1575420032,1
Agc,1758391469000,9222160242,18,,-1442426677777839872,0.0,10.205528259277344,,,48138,7.800000190734863,1575420032,1
Agc,1758391469000,9222160242,18,,-1442426677777839872,0.0,10.205528259277344,,,48138,7.800000190734863,1575420032,1
Agc,1758391469000,9222160242,18,,-1442426677777839872,0.0,10.205528259277344,,,48138,7.800000190734863,1575420032,1
Agc,1758391469000,9222160242,18,,-1442426677777839872,0.0,10.205528259277344,,,48138,7.800000190734863,1598062464,3
Agc,1758391469000,9222160242,18,,-1442426677777839872,0.0,10.205528259277344,,,48138,7.800000190734863,1575420032,6
Agc,1758391469000,9222160242,18,,-1442426677777839872,0.0,10.205528259277344,,,48138,7.800000190734863,1575420032,6
Agc,1758391469000,9222160242,18,,-1442426677777839872,0.0,10.205528259277344,,,48138,7.800000190734863,1600312448,3
Agc,1758391469000,9222160242,18,,-1442426677777839872,0.0,10.205528259277344,,,48138,7.800000190734863,1601437440,3
Agc,1758391469000,9222160242,18,,-1442426677777839872,0.0,10.205528259277344,,,48138,7.800000190734863,1605374976,3
Agc,1758391469000,9222160242,18,,-1442426677777839872,0.0,10.205528259277344,,,48138,7.800000190734863,1603687552,3
Agc,1758391469000,9222160242,18,,-1442426677777839872,0.0,10.205528259277344,,,48138,7.800000190734863,1604812544,3
Fix,GPS,39.9150604382,-105.0725379400,1631.0,0.07,69.89796,0.0,1758391470000,1.29,180.0,3218268774803138,31.0,0,,,
Fix,FLP,39.9151610000,-105.0724838000,1616.5999755859375,0.17152745,77.806,358.62637,1758391470689,1.29,180.0,3218268774803138,0.69077504,0,,,
Status,1758391470000,16,0,1,28,1575420000,27.80,160.8,62.0,1,0,1,24.3
Status,1758391470000,16,1,1,10,1575420000,32.90,101.7,49.8,1,0,1,29.4
Status,1758391470000,16,2,1,2,1575420000,29.30,282.3,47.1,1,0,1,25.8
Status,1758391470000,16,3,1,31,1575420000,30.60,189.8,33.7,1,0,1,27.1
Status,1758391470000,16,4,1,1,1575420000,20.10,312.5,27.1,0,0,1,16.6
Status,1758391470000,16,5,1,23,1575420000,26.50,116.2,9.0,1,0,1,23.0
Status,1758391470000,16,6,3,3,1604812500,20.00,32.1,50.1,1,0,1,16.5
Status,1758391470000,16,7,3,19,1603687600,21.40,278.4,46.7,1,0,1,17.9
Status,1758391470000,16,8,3,4,1605375000,21.70,307.9,46.3,1,0,1,18.2
Status,1758391470000,16,9,3,18,1600312400,24.90,209.9,30.4,1,0,1,21.4
Status,1758391470000,16,10,3,14,1598062500,33.00,144.3,18.7,0,0,1,29.5
Status,1758391470000,16,11,3,12,1601437400,23.60,32.4,16.4,1,0,1,20.1
Status,1758391470000,16,12,3,2,1599750000,19.50,72.8,6.6,1,0,1,16.0
Status,1758391470000,16,13,6,33,1575420000,28.20,173.0,37.7,1,0,1,24.7
Status,1758391470000,16,14,6,4,1575420000,26.60,251.7,30.4,1,0,1,23.1
Status,1758391470000,16,15,6,21,1575420000,21.50,121.4,5.6,1,0,1,18.0
Raw,1758391470000,10222160853,18,,-1442426677777839104,0.0,10.205528259277344,,,48138,10,0.0,16399,583487928336200,14,32.900001525878906,464.3248291015625,0.11569254100322723,17,-68838.0463241237,0.1769530326128006,1575420000,,,,0,,1,7.800000190734863,29.399999618530273,2.3283064365386963,,2.3283064365386963,,C,3218268774803138,0,8016194.188352352,-22044194.153156426,12360797.433598641,1124.7747925081376,-1064.3075630436224,-2713.770122684575,-159392.03621322586,-0.002389134402619675,0.000000022351741790771484,0.000000014901161193847656,-0.00000011920928955078125,-0.00000011920928955078125,129024.0,0.0,-262144.0,262144.0
Raw,1758391470000,10222160853,18,,-1442426677777839104,0.0,10.205528259277344,,,48138,31,0.0,16391,583487925432063,16,30.600000381469727,-507.7350158691406,0.13616371154785156,17,-78454.75746900462,0.19142818450927734,1575420000,,,,0,,1,7.800000190734863,27.100000381469727,-13.0385160446167,,-13.0385160446167,,C,3218268774803138,0,-9853143.442747395,-24409394.217018016,-1958250.5803516295,238.2864337314943,-313.30976987919854,3171.4158582328596,-57317.60466687268,-0.00011570792412385345,0.000000022351741790771484,0.000000014901161193847656,-0.00000011920928955078125,-0.00000011920928955078125,129024.0,0.0,-262144.0,262144.0
Raw,1758391470000,10222160853,18,,-1442426677777839104,0.0,10.205528259277344,,,48138,2,0.0,16399,583487926612701,18,29.299999237060547,83.90505981445312,0.15023136138916016,16,-74836.48006338016,0.20137542486190796,1575420000,,,,0,,1,7.800000190734863,25.799999237060547,-17.695128917694092,,-17.695128917694092,,C,3218268774803138,0,-18052712.459174514,-10893386.980436087,16864075.31262449,-750.7663505476869,-1902.1609821706297,-2039.077940125269,-20705.740947895556,0.004286502462491626,0.000000022351741790771484,0.000000014901161193847656,-0.00000011920928955078125,-0.00000011920928955078125,129024.0,0.0,-262144.0,262144.0
Raw,1758391470000,10222160853,18,,-1442426677777839104,0.0,10.205528259277344,,,48138,28,0.0,16399,583487930161265,20,27.799999237060547,-151.1798858642578,0.16935087740421295,16,-76284.2315240069,0.2148948311805725,1575420000,,,,0,,1,7.800000190734863,24.299999237060547,-9.313225746154785,,-9.313225746154785,,C,3218268774803138,0,-3370555.2666702187,-24823786.11279016,8792776.713230107,654.3118063622492,941.5822898108368,2908.985099786797,-191405.83512193116,0.00002767820842564106,0.000000022351741790771484,0.000000014901161193847656,-0.00000011920928955078125,-0.00000011920928955078125,129024.0,0.0,-262144.0,262144.0
Raw,1758391470000,10222160853,18,,-1442426677777839104,0.0,10.205528259277344,,,48138,23,0.0,16391,583487918332927,22,26.5,756.594970703125,0.18903592228889465,16,-70738.51246031724,0.22881413996219635,1575420000,,,,0,,1,7.800000190734863,23.0,-8.381903171539307,,-8.381903171539307,,C,3218268774803138,0,17240920.978353545,-19937048.213436835,-1711075.9117294378,35.628659571825885,315.4751957929073,-3237.820747876929,163576.80453461866,0.0011457126820459962,0.000000022351741790771484,0.000000014901161193847656,-0.00000011920928955078125,-0.00000011920928955078125,129024.0,0.0,-262144.0,262144.0
Raw,1758391470000,10222160853,18,,-1442426677777839104,0.0,10.205528259277344,,,48138,1,0.0,16391,583487923436805,37,20.100000381469727,-318.2769775390625,0.3628973662853241,16,-131426.5843861651,0.35175156593322754,1575420000,,,,0,,1,7.800000190734863,16.600000381469727,-8.847564458847046,,-8.847564458847046,,C,3218268774803138,0,-15647228.23519192,10196.929809845984,21466246.38725696,-703.8203121882977,-2633.5993142660127,-508.1155585544964,104186.34730900144,0.0009682668460300192,0.000000022351741790771484,0.000000014901161193847656,-0.00000011920928955078125,-0.00000011920928955078125,129024.0,0.0,-262144.0,262144.0
Raw,1758391470000,10222160853,18,,-1442426677777839104,0.0,10.205528259277344,,,48138,14,0.0,32867,75869924243252,14,33.0,-584.0908813476562,0.11490950733423233,17,-2940734.6818190697,0.1750512421131134,1598062500,,,,0,,3,7.800000190734863,29.5,12.078089639544485,,12.078089639544485,,C,3218268774803138,0,6469171.271502842,-24251886.724570796,-4600084.736998869,92.19747634564419,-638.4106624376575,3482.166520546932,8923.064139878377,0.0,0.000000022351741790771484,0.000000014901161193847656,-0.00000011920928955078125,-0.00000011920928955078125,129024.0,0.0,-262144.0,262144.0
Raw,1758391470000,10222160853,18,,-1442426677777839104,0.0,10.205528259277344,,,48138,33,0.0,19456,583487915776491,19,28.200000762939453,684.1705322265625,0.16391023993492126,17,-103672.54247490078,0.21104776859283447,1575420000,,,,0,,6,7.800000190734863,24.700000762939453,-5.122274160385132,,-5.122274160385132,,C,3218268774803138,0,-5330491.200589255,-29081654.51617966,-1245783.897854897,-143.41400835233577,159.10711172456462,-3084.1147804220127,2423.6351163175814,-0.00025821404460657504,0.000000022351741790771484,0.000000014901161193847656,-0.00000011920928955078125,-0.00000011920928955078125,129024.0,0.0,-262144.0,262144.0
Raw,1758391470000,10222160853,18,,-1442426677777839104,0.0,10.205528259277344,,,48138,4,0.0,19456,583487913439605,21,26.600000381469727,-205.6413116455078,0.18740276992321014,16,-107589.8629174649,0.22765932977199554,1575420000,,,,0,,6,7.800000190734863,23.100000381469727,-4.423782229423523,,-4.423782229423523,,C,3218268774803138,0,-25483632.756643828,-13246979.915188186,7143027.544384761,663.4741436071132,279.6289163175827,2885.015440767717,-103583.39717822889,-0.0031318629917223006,0.000000022351741790771484,0.000000014901161193847656,-0.00000011920928955078125,-0.00000011920928955078125,129024.0,0.0,-262144.0,262144.0
Raw,1758391470000,10222160853,18,,-1442426677777839104,0.0,10.205528259277344,,,48138,18,0.0,32867,75869927870816,24,24.899999618530273,894.736572265625,0.21835967898368835,16,-1598888.099612851,0.24806897342205048,1600312400,,,,0,,3,7.800000190734863,21.399999618530273,12.078089639544485,,12.078089639544485,,C,3218268774803138,0,-15179639.305258749,-20479793.165895473,-1324031.3196209706,-60.83879187030698,280.6698009370681,-3587.491782385282,66945.53650669976,0.0005453193043649662,0.000000022351741790771484,0.000000014901161193847656,-0.00000011920928955078125,-0.00000011920928955078125,129024.0,0.0,-262144.0,262144.0
Raw,1758391470000,10222160853,18,,-1442426677777839104,0.0,10.205528259277344,,,48138,21,0.0,19456,583487905001191,32,21.5,-310.5091552734375,0.3086419701576233,18,-180092.0834237509,0.31338757276535034,1575420000,,,,0,,6,7.800000190734863,18.0,1.1641532182693481,,1.1641532182693481,,C,3218268774803138,0,18886814.801893763,-22139102.52465338,-5407522.799884035,362.3452633402759,-408.6401872757756,2936.3733339076875,-207144.07630212238,-0.0006778322567697614,0.000000022351741790771484,0.000000014901161193847656,-0.00000011920928955078125,-0.00000011920928955078125,129024.0,0.0,-262144.0,262144.0
Raw,1758391470000,10222160853,18,,-1442426677777839104,0.0,10.205528259277344,,,48138,12,0.0,32867,75869923332679,27,23.600000381469727,565.1185913085938,0.2475186139345169,16,-179486.71717152663,0.2686214745044708,1601437400,,,,0,,3,7.800000190734863,20.100000381469727,12.078089639544485,,12.078089639544485,,C,3218268774803138,0,11954248.96515143,-1082170.366418564,22532203.182534557,-1115.6769943129634,2868.406516300282,731.3103309697525,17804.845951538136,0.0002726596521824831,0.000000022351741790771484,0.000000014901161193847656,-0.00000011920928955078125,-0.00000011920928955078125,129024.0,0.0,-262144.0,262144.0
Raw,1758391470000,10222160853,18,,-1442426677777839104,0.0,10.205528259277344,,,48138,19,0.0,32867,75869931717336,33,21.399999618530273,244.34262084960938,0.3121001422405243,16,3362991.383417509,0.3141557276248932,1603687600,,,,0,,3,7.800000190734863,17.899999618530273,12.078089639544485,,12.078089639544485,,C,3218268774803138,0,-17299113.938422207,-10916000.511872133,15195972.02945123,-1341.362678525472,-1598.10357362932,-2680.2300191398667,-6128.196801388755,-0.0016359579130948987,0.000000022351741790771484,0.000000014901161193847656,-0.00000011920928955078125,-0.00000011920928955078125,129024.0,0.0,-262144.0,262144.0
Raw,1758391470000,10222160853,18,,-1442426677777839104,0.0,10.205528259277344,,,48138,4,0.0,32867,75869931787749,32,21.700000762939453,-72.33283233642578,0.3018958866596222,16,5407994.6591368895,0.30684205889701843,1605375000,,,,0,,3,7.800000190734863,18.200000762939453,12.078089639544485,,12.078089639544485,,C,3218268774803138,0,-13542159.972072646,-7437728.86278497,20325757.168758318,2765.5052642498604,-296.63360912050837,1733.7907351258407,93552.27229045599,0.0008179789565474493,0.000000022351741790771484,0.000000014901161193847656,-0.00000011920928955078125,-0.00000011920928955078125,129024.0,0.0,-262144.0,262144.0
Raw,1758391470000,10222160853,18,,-1442426677777839104,0.0,10.205528259277344,,,48138,2,0.0,32867,75869920052144,39,19.5,691.6209106445312,0.390625,16,-2648968.5144600035,0.36991071701049805,1599750000,,,,0,,3,7.800000190734863,16.0,12.078089639544485,,12.078089639544485,,C,3218268774803138,0,21304368.42607851,-8362064.614013594,11223227.451379243,1492.1281382982102,-396.5343079211666,-3145.1154542937716,-7007.728240771219,0.0,0.000000022351741790771484,0.000000014901161193847656,-0.00000011920928955078125,-0.00000011920928955078125,129024.0,0.0,-262144.0,262144.0
Raw,1758391470000,10222160853,18,,-1442426677777839104,0.0,10.205528259277344,,,48138,3,0.0,32867,75869932321452,37,20.0,393.3271789550781,0.36730945110321045,16,4783966.03592481,0.35312873125076294,1604812500,,,,0,,3,7.800000190734863,16.5,12.078089639544485,,12.078089639544485,,C,3218268774803138,0,4188153.492442387,-11261929.862664014,22531532.717357695,3032.0207223742455,-526.1820404047219,-834.0682102680158,38971.541266974535,0.0002726596521824831,0.000000022351741790771484,0.000000014901161193847656,-0.00000011920928955078125,-0.00000011920928955078125,129024.0,0.0,-262144.0,262144.0
Agc,1758391470000,10222160853,18,,-1442426677777839104,0.0,10.205528259277344,,,48138,7.800000190734863,1575420032,1
Agc,1758391470000,10222160853,18,,-1442426677777839104,0.0,10.205528259277344,,,48138,7.800000190734863,1575420032,1
Agc,1758391470000,10222160853,18,,-1442426677777839104,0.0,10.205528259277344,,,48138,7.800000190734863,1575420032,1
Agc,1758391470000,10222160853,18,,-1442426677777839104,0.0,10.205528259277344,,,48138,7.800000190734863,1575420032,1
Agc,1758391470000,10222160853,18,,-1442426677777839104,0.0,10.205528259277344,,,48138,7.800000190734863,1575420032,1
Agc,1758391470000,10222160853,18,,-1442426677777839104,0.0,10.205528259277344,,,48138,7.800000190734863,1575420032,1
Agc,1758391470000,10222160853,18,,-1442426677777839104,0.0,10.205528259277344,,,48138,7.800000190734863,1598062464,3
Agc,1758391470000,10222160853,18,,-1442426677777839104,0.0,10.205528259277344,,,48138,7.800000190734863,1575420032,6
Agc,1758391470000,10222160853,18,,-1442426677777839104,0.0,10.205528259277344,,,48138,7.800000190734863,1575420032,6
Agc,1758391470000,10222160853,18,,-1442426677777839104,0.0,10.205528259277344,,,48138,7.800000190734863,1600312448,3
Agc,1758391470000,10222160853,18,,-1442426677777839104,0.0,10.205528259277344,,,48138,7.800000190734863,1575420032,6
Agc,1758391470000,10222160853,18,,-1442426677777839104,0.0,10.205528259277344,,,48138,7.800000190734863,1601437440,3
Agc,1758391470000,10222160853,18,,-1442426677777839104,0.0,10.205528259277344,,,48138,7.800000190734863,1603687552,3
Agc,1758391470000,10222160853,18,,-1442426677777839104,0.0,10.205528259277344,,,48138,7.800000190734863,1605374976,3
Agc,1758391470000,10222160853,18,,-1442426677777839104,0.0,10.205528259277344,,,48138,7.800000190734863,1599750016,3
Agc,1758391470000,10222160853,18,,-1442426677777839104,0.0,10.205528259277344,,,48138,7.800000190734863,1604812544,3
Fix,FLP,39.9151541000,-105.0724880000,1616.5999755859375,0.1680244,82.269,358.57538,1758391471365,1.5,45.0,3218269451000000,0.6320357,0,,,
Fix,NLP,39.9152811000,-105.0724248000,1616.5999755859375,,11.518,,1758391471366,,,3218269451000000,1.0,0,,,
Fix,GPS,39.9151251884,-105.0725108664,1633.0,0.29,55.10204,251.4,1758391471000,1.6,180.0,3218269774803606,30.0,0,,,
Fix,FLP,39.9151471000,-105.0724930000,1616.5999755859375,0.06555535,77.741,,1758391471689,1.6,,3218269774803606,0.63353354,0,,,
Status,1758391471000,17,0,1,32,1575420000,23.40,34.6,63.3,1,0,1,19.9
Status,1758391471000,17,1,1,28,1575420000,27.80,160.8,62.0,1,0,1,24.3
Status,1758391471000,17,2,1,10,1575420000,32.90,101.7,49.8,1,0,1,29.4
Status,1758391471000,17,3,1,2,1575420000,29.30,282.3,47.1,1,0,1,25.8
Status,1758391471000,17,4,1,31,1575420000,30.80,189.8,33.7,1,0,1,27.3
Status,1758391471000,17,5,1,1,1575420000,20.10,312.5,27.1,1,0,1,16.6
Status,1758391471000,17,6,1,23,1575420000,26.50,116.2,9.0,1,0,1,23.0
Status,1758391471000,17,7,3,3,1604812500,19.90,32.1,50.1,0,0,1,16.4
Status,1758391471000,17,8,3,19,1603687600,21.80,278.4,46.7,1,0,1,18.3
Status,1758391471000,17,9,3,4,1605375000,21.60,307.9,46.3,1,0,1,18.1
Status,1758391471000,17,10,3,18,1600312400,26.30,209.9,30.4,1,0,1,22.8
Status,1758391471000,17,11,3,14,1598062500,33.00,144.3,18.7,0,0,1,29.5
Status,1758391471000,17,12,3,12,1601437400,23.60,32.4,16.4,1,0,1,20.1
Status,1758391471000,17,13,3,2,1599750000,19.80,72.8,6.6,0,0,1,16.3
Status,1758391471000,17,14,6,33,1575420000,28.80,173.0,37.7,1,0,1,25.3
Status,1758391471000,17,15,6,4,1575420000,26.60,251.7,30.4,1,0,1,23.1
Status,1758391471000,17,16,6,21,1575420000,22.90,121.4,5.6,1,0,1,19.4
Raw,1758391471000,11222161403,18,,-1442426677777838592,0.0,10.205528259277344,,,48138,10,0.0,16399,583488928335244,14,32.900001525878906,460.5323181152344,0.11569254100322723,16,-68375.24122349118,0.1769530326128006,1575420000,,,,0,,1,7.800000190734863,29.399999618530273,2.3283064365386963,,2.3283064365386963,,C,3218269774803606,0,8017318.820059711,-22045258.364618927,12358083.533887854,1124.4907742543337,-1064.117386498106,-2714.034478342424,-159392.0386024342,-0.0023892868193797767,0.000000022351741790771484,0.000000014901161193847656,-0.00000011920928955078125,-0.00000011920928955078125,129024.0,0.0,-262144.0,262144.0
Raw,1758391471000,11222161403,18,,-1442426677777838592,0.0,10.205528259277344,,,48138,31,0.0,16391,583488925434279,16,30.799999237060547,-511.88983154296875,0.13417595624923706,17,-78964.25910616513,0.19002264738082886,1575420000,,,,0,,1,7.800000190734863,27.299999237060547,-13.0385160446167,,-13.0385160446167,,C,3218269774803606,0,-9852905.098034013,-24409707.345214732,-1955079.1362492691,238.40194534205975,-312.9452374976744,3171.4582792450556,-57317.60478264669,-0.00011583956802496687,0.000000022351741790771484,0.000000014901161193847656,-0.00000011920928955078125,-0.00000011920928955078125,129024.0,0.0,-262144.0,262144.0
Raw,1758391471000,11222161403,18,,-1442426677777838592,0.0,10.205528259277344,,,48138,2,0.0,16399,583488926612996,18,29.299999237060547,79.1160659790039,0.15023136138916016,16,-74754.66134839217,0.20137542486190796,1575420000,,,,0,,1,7.800000190734863,25.799999237060547,-17.695128917694092,,-17.695128917694092,,C,3218269774803606,0,-18053463.22965236,-10895289.005892556,16862036.063302774,-750.7741537830998,-1901.888803540282,-2039.4194933485676,-20705.736661399522,0.004286487059289357,0.000000022351741790771484,0.000000014901161193847656,-0.00000011920928955078125,-0.00000011920928955078125,129024.0,0.0,-262144.0,262144.0
Raw,1758391471000,11222161403,18,,-1442426677777838592,0.0,10.205528259277344,,,48138,28,0.0,16399,583488930162338,20,27.799999237060547,-155.05010986328125,0.16935087740421295,16,-76436.98575440084,0.2148948311805725,1575420000,,,,0,,1,7.800000190734863,24.299999237060547,-9.313225746154785,,-9.313225746154785,,C,3218269774803606,0,-3369900.858560752,-24822844.378845535,8795685.607781721,654.5030136813866,941.8835713437572,2908.797750631391,-191405.83509425295,0.000027678179321810603,0.000000022351741790771484,0.000000014901161193847656,-0.00000011920928955078125,-0.00000011920928955078125,129024.0,0.0,-262144.0,262144.0
Raw,1758391471000,11222161403,18,,-1442426677777838592,0.0,10.205528259277344,,,48138,23,0.0,16391,583488918330996,22,26.5,752.5774536132812,0.18903592228889465,16,-69983.47423514066,0.22881413996219635,1575420000,,,,0,,1,7.800000190734863,23.0,-8.381903171539307,,-8.381903171539307,,C,3218269774803606,0,17240956.48931128,-19936732.57880792,-1714313.7077022793,35.393400686082224,315.7952859077731,-3237.78369054036,163576.80568031935,0.0011456930951680988,0.000000022351741790771484,0.000000014901161193847656,-0.00000011920928955078125,-0.00000011920928955078125,129024.0,0.0,-262144.0,262144.0
Raw,1758391471000,11222161403,18,,-1442426677777838592,0.0,10.205528259277344,,,48138,32,0.0,16391,583488929872938,27,23.399999618530273,383.5818176269531,0.252518892288208,18,-201800.63514098633,0.2737029492855072,1575420000,,,,0,,1,7.800000190734863,19.899999618530273,0.9313225746154785,,0.9313225746154785,,C,3218269774803606,0,1460726.3828446136,-15175245.147268841,22000635.87505392,2697.665781837958,434.05957911392886,102.40785340586342,-95230.24698734436,0.004931264717015438,0.000000022351741790771484,0.000000014901161193847656,-0.00000011920928955078125,-0.00000011920928955078125,129024.0,0.0,-262144.0,262144.0
Raw,1758391471000,11222161403,18,,-1442426677777838592,0.0,10.205528259277344,,,48138,1,0.0,16391,583488923438540,37,20.100000381469727,-325.2485656738281,0.3628973662853241,16,-131749.50927353807,0.35175156593322754,1575420000,,,,0,,1,7.800000190734863,16.600000381469727,-8.847564458847046,,-8.847564458847046,,C,3218269774803606,0,-15647932.124033133,7563.377178322524,21465738.04258187,-703.9549234025781,-2633.4968000966537,-508.5720258381113,104186.34827727554,0.0009682779491413385,0.000000022351741790771484,0.000000014901161193847656,-0.00000011920928955078125,-0.00000011920928955078125,129024.0,0.0,-262144.0,262144.0
Raw,1758391471000,11222161403,18,,-1442426677777838592,0.0,10.205528259277344,,,48138,14,0.0,32867,75870924245700,14,33.0,-588.1424560546875,0.11490950733423233,25,-2941320.3641540753,0.08125251531600952,1598062500,,,,0,,3,7.800000190734863,29.5,12.078089639544485,,12.078089639544485,,C,3218269774803606,0,6469263.362252232,-24252524.91708289,-4596602.506791904,91.98359995985538,-637.971236677519,3482.2768603859554,8923.064139878377,0.0,0.000000022351741790771484,0.000000014901161193847656,-0.00000011920928955078125,-0.00000011920928955078125,129024.0,0.0,-262144.0,262144.0
Raw,1758391471000,11222161403,18,,-1442426677777838592,0.0,10.205528259277344,,,48138,33,0.0,19456,583488915774712,18,28.799999237060547,680.2384643554688,0.15622803568840027,25,-102989.89526895375,0.11046884208917618,1575420000,,,,0,,6,7.800000190734863,25.299999237060547,-5.122274160385132,,-5.122274160385132,,C,3218269774803606,0,-5330634.575907583,-29081495.25254428,-1248867.997557261,-143.3371304331814,159.4207235291678,-3084.0955896369164,2423.634858102936,-0.00025821616600296693,0.000000022351741790771484,0.000000014901161193847656,-0.00000011920928955078125,-0.00000011920928955078125,129024.0,0.0,-262144.0,262144.0
Raw,1758391471000,11222161403,18,,-1442426677777838592,0.0,10.205528259277344,,,48138,18,0.0,32867,75870927868384,22,26.299999237060547,888.4057006835938,0.19236689805984497,16,-1597996.750403953,0.22968947887420654,1600312400,,,,0,,3,7.800000190734863,22.799999237060547,12.078089639544485,,12.078089639544485,,C,3218269774803606,0,-15179699.981885286,-20479512.301378626,-1327618.7867785913,-60.51473721027742,281.0605784974334,-3587.4599999984066,66945.53705201774,0.0005453193043649662,0.000000022351741790771484,0.000000014901161193847656,-0.00000011920928955078125,-0.00000011920928955078125,129024.0,0.0,-262144.0,262144.0
Raw,1758391471000,11222161403,18,,-1442426677777838592,0.0,10.205528259277344,,,48138,4,0.0,19456,583488913440840,21,26.600000381469727,-210.4429931640625,0.18740276992321014,16,-107797.72025579274,0.22765932977199554,1575420000,,,,0,,6,7.800000190734863,23.100000381469727,-4.423782229423523,,-4.423782229423523,,C,3218269774803606,0,-25482969.13311564,-13246700.267690435,7145912.508454268,663.7712732592349,279.66538100805343,2884.9055649431675,-103583.40031009585,-0.0031318632391048595,0.000000022351741790771484,0.000000014901161193847656,-0.00000011920928955078125,-0.00000011920928955078125,129024.0,0.0,-262144.0,262144.0
Raw,1758391471000,11222161403,18,,-1442426677777838592,0.0,10.205528259277344,,,48138,21,0.0,19456,583488905002804,29,22.899999618530273,-312.02630615234375,0.2657030522823334,18,-180404.10991001557,0.28302544355392456,1575420000,,,,0,,6,7.800000190734863,19.399999618530273,1.1641532182693481,,1.1641532182693481,,C,3218269774803606,0,18887177.022992987,-22139511.080614228,-5404586.380251404,362.0957699416341,-408.4704098042153,2936.45645096453,-207144.07697995516,-0.0006778311508242041,0.000000022351741790771484,0.000000014901161193847656,-0.00000011920928955078125,-0.00000011920928955078125,129024.0,0.0,-262144.0,262144.0
Raw,1758391471000,11222161403,18,,-1442426677777838592,0.0,10.205528259277344,,,48138,12,0.0,32867,75870923331303,27,23.600000381469727,559.0797119140625,0.2475186139345169,16,-178924.61609651084,0.2686214745044708,1601437400,,,,0,,3,7.800000190734863,20.100000381469727,12.078089639544485,,12.078089639544485,,C,3218269774803606,0,11953133.387515323,-1079301.872442468,22532934.221998833,-1115.481346640318,2868.589349074737,730.7706177443937,17804.846224197412,0.0002726596521824831,0.000000022351741790771484,0.000000014901161193847656,-0.00000011920928955078125,-0.00000011920928955078125,129024.0,0.0,-262144.0,262144.0
Raw,1758391471000,11222161403,18,,-1442426677777838592,0.0,10.205528259277344,,,48138,19,0.0,32867,75870931717073,31,21.799999237060547,237.4657745361328,0.2986055314540863,16,3363231.1415986265,0.30461370944976807,1603687600,,,,0,,3,7.800000190734863,18.299999237060547,12.078089639544485,,12.078089639544485,,C,3218269774803606,0,-17300455.254909083,-10917598.414747529,15193291.617100358,-1341.2709954278355,-1597.7030428831447,-2680.596102465062,-6128.198437346238,-0.0016359579130948987,0.000000022351741790771484,0.000000014901161193847656,-0.00000011920928955078125,-0.00000011920928955078125,129024.0,0.0,-262144.0,262144.0
Raw,1758391471000,11222161403,18,,-1442426677777838592,0.0,10.205528259277344,,,48138,4,0.0,32867,75870931788496,32,21.600000381469727,-81.07481384277344,0.3052409589290619,16,5407916.498271773,0.30920735001564026,1605375000,,,,0,,3,7.800000190734863,18.100000381469727,12.078089639544485,,12.078089639544485,,C,3218269774803606,0,-13539394.360269161,-7438025.629003705,20327490.717365686,2765.714222163195,-296.8984020076084,1733.3039023999377,93552.27310843556,0.0008179789565474493,0.000000022351741790771484,0.000000014901161193847656,-0.00000011920928955078125,-0.00000011920928955078125,129024.0,0.0,-262144.0,262144.0
Raw,1758391471000,11222161403,18,,-1442426677777838592,0.0,10.205528259277344,,,48138,2,0.0,32867,75870920050146,38,19.799999237060547,690.0779418945312,0.37637853622436523,16,-2648278.4361387054,0.35983705520629883,1599750000,,,,0,,3,7.800000190734863,16.299999237060547,12.078089639544485,,12.078089639544485,,C,3218269774803606,0,21305860.322586562,-8362461.17793986,11220082.207156308,1491.6708565345702,-396.595108424244,-3145.3855729778857,-7007.728240771219,0.0,0.000000022351741790771484,0.000000014901161193847656,-0.00000011920928955078125,-0.00000011920928955078125,129024.0,0.0,-262144.0,262144.0
Raw,1758391471000,11222161403,18,,-1442426677777838592,0.0,10.205528259277344,,,48138,3,0.0,32867,75870932320823,37,19.899999618530273,386.6423034667969,0.37180250883102417,16,4784354.906732853,0.3563057482242584,1604812500,,,,0,,3,7.800000190734863,16.399999618530273,12.078089639544485,,12.078089639544485,,C,3218269774803606,0,4191185.433873022,-11262456.160642186,22530698.379997566,3031.8659727419576,-526.4145769103426,-834.6075588800155,38971.54153963402,0.0002726596521824831,0.000000022351741790771484,0.000000014901161193847656,-0.00000011920928955078125,-0.00000011920928955078125,129024.0,0.0,-262144.0,262144.0
Agc,1758391471000,11222161403,18,,-1442426677777838592,0.0,10.205528259277344,,,48138,7.800000190734863,1575420032,1
Agc,1758391471000,11222161403,18,,-1442426677777838592,0.0,10.205528259277344,,,48138,7.800000190734863,1575420032,1
Agc,1758391471000,11222161403,18,,-1442426677777838592,0.0,10.205528259277344,,,48138,7.800000190734863,1575420032,1
Agc,1758391471000,11222161403,18,,-1442426677777838592,0.0,10.205528259277344,,,48138,7.800000190734863,1575420032,1
Agc,1758391471000,11222161403,18,,-1442426677777838592,0.0,10.205528259277344,,,48138,7.800000190734863,1575420032,1
Agc,1758391471000,11222161403,18,,-1442426677777838592,0.0,10.205528259277344,,,48138,7.800000190734863,1575420032,1
Agc,1758391471000,11222161403,18,,-1442426677777838592,0.0,10.205528259277344,,,48138,7.800000190734863,1575420032,1
Agc,1758391471000,11222161403,18,,-1442426677777838592,0.0,10.205528259277344,,,48138,7.800000190734863,1598062464,3
Agc,1758391471000,11222161403,18,,-1442426677777838592,0.0,10.205528259277344,,,48138,7.800000190734863,1575420032,6
Agc,1758391471000,11222161403,18,,-1442426677777838592,0.0,10.205528259277344,,,48138,7.800000190734863,1600312448,3
Agc,1758391471000,11222161403,18,,-1442426677777838592,0.0,10.205528259277344,,,48138,7.800000190734863,1575420032,6
Agc,1758391471000,11222161403,18,,-1442426677777838592,0.0,10.205528259277344,,,48138,7.800000190734863,1575420032,6
Agc,1758391471000,11222161403,18,,-1442426677777838592,0.0,10.205528259277344,,,48138,7.800000190734863,1601437440,3
Agc,1758391471000,11222161403,18,,-1442426677777838592,0.0,10.205528259277344,,,48138,7.800000190734863,1603687552,3
Agc,1758391471000,11222161403,18,,-1442426677777838592,0.0,10.205528259277344,,,48138,7.800000190734863,1605374976,3
Agc,1758391471000,11222161403,18,,-1442426677777838592,0.0,10.205528259277344,,,48138,7.800000190734863,1599750016,3
Agc,1758391471000,11222161403,18,,-1442426677777838592,0.0,10.205528259277344,,,48138,7.800000190734863,1604812544,3
Fix,GPS,39.9151500408,-105.0724897441,1632.0,1.37,42.857143,168.4,1758391472000,1.58,180.0,3218270774804084,27.0,0,,,
Fix,FLP,39.9151456000,-105.0724925000,1616.5999755859375,0.37207738,69.323,186.65547,1758391472689,1.58,180.0,3218270774804084,0.639762,0,,,
Status,1758391472000,17,0,1,32,1575420000,23.30,34.6,63.3,1,0,1,19.8
Status,1758391472000,17,1,1,28,1575420000,27.80,160.8,62.0,1,0,1,24.3
Status,1758391472000,17,2,1,10,1575420000,32.90,101.7,49.8,1,0,1,29.4
Status,1758391472000,17,3,1,2,1575420000,29.20,282.3,47.1,0,0,1,25.7
Status,1758391472000,17,4,1,31,1575420000,31.00,189.8,33.7,1,0,1,27.5
Status,1758391472000,17,5,1,1,1575420000,20.00,312.5,27.1,0,0,1,16.5
Status,1758391472000,17,6,1,23,1575420000,26.70,116.2,9.0,1,0,1,23.2
Status,1758391472000,17,7,3,3,1604812500,19.90,32.1,50.1,0,0,1,16.4
Status,1758391472000,17,8,3,19,1603687600,23.20,278.4,46.7,1,0,1,19.7
Status,1758391472000,17,9,3,4,1605375000,21.40,307.9,46.3,0,0,1,17.9
Status,1758391472000,17,10,3,18,1600312400,26.80,209.9,30.4,1,0,1,23.3
Status,1758391472000,17,11,3,14,1598062500,32.90,144.3,18.7,0,0,1,29.4
Status,1758391472000,17,12,3,12,1601437400,23.50,32.4,16.4,1,0,1,20.0
Status,1758391472000,17,13,3,2,1599750000,19.80,72.8,6.6,0,0,1,16.3
Status,1758391472000,17,14,6,33,1575420000,29.70,173.0,37.7,1,0,1,26.2
Status,1758391472000,17,15,6,4,1575420000,26.60,251.7,30.4,1,0,1,23.1
Status,1758391472000,17,16,6,21,1575420000,23.70,121.4,5.6,1,0,1,20.2
