# 
# Header Description:
# 
# Version: v3.1.1.1 Platform: 16 Manufacturer: Google Model: Pixel 8a GNSS Hardware Model Name: S.LSI,K041,SPOTNAV_4.15.4_3_250220_R2_258342
# 
# Raw,utcTimeMillis,TimeNanos,LeapSecond,TimeUncertaintyNanos,FullBiasNanos,BiasNanos,BiasUncertaintyNanos,DriftNanosPerSecond,DriftUncertaintyNanosPerSecond,HardwareClockDiscontinuityCount,Svid,TimeOffsetNanos,State,ReceivedSvTimeNanos,ReceivedSvTimeUncertaintyNanos,Cn0DbHz,PseudorangeRateMetersPerSecond,PseudorangeRateUncertaintyMetersPerSecond,AccumulatedDeltaRangeState,AccumulatedDeltaRangeMeters,AccumulatedDeltaRangeUncertaintyMeters,CarrierFrequencyHz,CarrierCycles,CarrierPhase,CarrierPhaseUncertainty,MultipathIndicator,SnrInDb,ConstellationType,AgcDb,BasebandCn0DbHz,FullInterSignalBiasNanos,FullInterSignalBiasUncertaintyNanos,SatelliteInterSignalBiasNanos,SatelliteInterSignalBiasUncertaintyNanos,CodeType,ChipsetElapsedRealtimeNanos,IsFullTracking,SvPositionEcefXMeters,SvPositionEcefYMeters,SvPositionEcefZMeters,SvVelocityEcefXMetersPerSecond,SvVelocityEcefYMetersPerSecond,SvVelocityEcefZMetersPerSecond,SvClockBiasMeters,SvClockDriftMetersPerSecond,KlobucharAlpha0,KlobucharAlpha1,KlobucharAlpha2,KlobucharAlpha3,KlobucharBeta0,KlobucharBeta1,KlobucharBeta2,KlobucharBeta3
# 
# UncalAccel,utcTimeMillis,elapsedRealtimeNanos,UncalAccelXMps2,UncalAccelYMps2,UncalAccelZMps2,BiasXMps2,BiasYMps2,BiasZMps2,CalibrationAccuracy
# 
# Accel,utcTimeMillis,elapsedRealtimeNanos,AccelXMps2,AccelYMps2,AccelZMps2,CalibrationAccuracy
# 
# UncalGyro,utcTimeMillis,elapsedRealtimeNanos,UncalGyroXRadPerSec,UncalGyroYRadPerSec,UncalGyroZRadPerSec,DriftXRadPerSec,DriftYRadPerSec,DriftZRadPerSec,CalibrationAccuracy
# 
# Gyro,utcTimeMillis,elapsedRealtimeNanos,GyroXRadPerSec,GyroYRadPerSec,GyroZRadPerSec,CalibrationAccuracy
# 
# UncalMag,utcTimeMillis,elapsedRealtimeNanos,UncalMagXMicroT,UncalMagYMicroT,UncalMagZMicroT,BiasXMicroT,BiasYMicroT,BiasZMicroT,CalibrationAccuracy
# 
# Mag,utcTimeMillis,elapsedRealtimeNanos,MagXMicroT,MagYMicroT,MagZMicroT,CalibrationAccuracy
# 
# Pressure,utcTimeMillis,elapsedRealtimeNanos,PressureHpa,CalibrationAccuracy
# 
# OrientationDeg,utcTimeMillis,elapsedRealtimeNanos,yawDeg,rollDeg,pitchDeg,CalibrationAccuracy
# 
# Fix,Provider,LatitudeDegrees,LongitudeDegrees,AltitudeMeters,SpeedMps,AccuracyMeters,BearingDegrees,UnixTimeMillis,SpeedAccuracyMps,BearingAccuracyDegrees,elapsedRealtimeNanos,VerticalAccuracyMeters,MockLocation,NumberOfUsedSignals,VerticalSpeedAccuracyMps,SolutionType
# 
# Nav,Svid,Type,Status,MessageId,Sub-messageId,Data(Bytes)
# 
# Status,UnixTimeMillis,SignalCount,SignalIndex,ConstellationType,Svid,CarrierFrequencyHz,Cn0DbHz,AzimuthDegrees,ElevationDegrees,UsedInFix,HasAlmanacData,HasEphemerisData,BasebandCn0DbHz
# 
# Agc,utcTimeMillis,TimeNanos,LeapSecond,TimeUncertaintyNanos,FullBiasNanos,BiasNanos,BiasUncertaintyNanos,DriftNanosPerSecond,DriftUncertaintyNanosPerSecond,HardwareClockDiscontinuityCount,AgcDb,CarrierFrequencyHz,ConstellationType
# 
Fix,GPS,40.1523203496,-105.1121774688,1500.0,1.5899999,1.5306122,89.2,1758239421000,0.25,4.1,3066216805140497,1.0,0,,,
Fix,FLP,40.1523203000,-105.1121775000,1498.8776093713616,1.5899999,5.221,89.0,1758239421249,0.25,4.1,3066216805140497,0.6083799,0,,,
Status,1758239421000,24,0,1,9,1575420000,38.20,297.2,74.7,1,0,1,34.7
Status,1758239421000,24,1,1,4,1575420000,32.10,137.8,60.6,0,0,1,28.6
Status,1758239421000,24,2,1,16,1575420000,42.10,50.6,45.6,1,0,1,38.6
Status,1758239421000,24,3,1,7,1575420000,40.50,288.9,41.7,1,0,1,37.0
Status,1758239421000,24,4,1,27,1575420000,38.80,102.3,35.7,1,0,1,35.3
Status,1758239421000,24,5,1,8,1575420000,34.10,141.6,30.2,1,0,1,30.6
Status,1758239421000,24,6,1,30,1575420000,30.90,276.9,12.8,0,0,1,27.4
Status,1758239421000,24,7,1,21,1575420000,31.60,320.3,11.7,0,0,1,28.1
Status,1758239421000,24,8,1,26,1575420000,39.20,49.8,9.1,0,0,1,35.7
Status,1758239421000,24,9,1,3,1575420000,28.30,189.0,8.3,0,0,1,24.8
Status,1758239421000,24,10,3,4,1605375000,49.00,183.2,71.5,1,0,1,45.5
Status,1758239421000,24,11,3,14,1598062500,45.20,17.9,59.2,1,0,1,41.7
Status,1758239421000,24,12,3,15,1602000000,44.40,259.4,52.8,1,0,1,40.9
Status,1758239421000,24,13,3,5,1602562600,42.50,321.9,49.6,1,0,1,39.0
Status,1758239421000,24,14,3,3,1604812500,44.80,159.2,22.0,1,0,1,41.3
Status,1758239421000,24,15,3,23,1603687600,36.40,46.6,6.8,0,0,1,32.9
Status,1758239421000,24,16,3,13,1600875000,32.60,47.4,6.2,0,0,1,29.1
Status,1758239421000,24,17,6,27,1575420000,46.00,185.3,72.3,1,0,1,42.5
Status,1758239421000,24,18,6,29,1575420000,31.90,312.6,64.5,1,0,1,28.4
Status,1758239421000,24,19,6,7,1575420000,39.20,127.7,57.5,1,0,1,35.7
Status,1758239421000,24,20,6,30,1575420000,42.00,52.0,48.3,1,0,1,38.5
Status,1758239421000,24,21,6,21,1575420000,34.20,214.5,20.8,1,0,1,30.7
Status,1758239421000,24,22,6,19,1575420000,32.50,311.2,16.8,0,0,1,29.0
Status,1758239421000,24,23,6,8,1575420000,34.70,129.9,6.7,0,0,1,31.2
Raw,1758239420999,258260939214,18,,-1442274380739060736,0.0,10.220216751098633,,,48107,16,0.0,16399,431438929070500,10,42.099998474121094,271.41436767578125,0.0671159029006958,25,51847.74427715782,0.047457654029130936,1575420000,,,,0,,1,7.800000190734863,38.599998474121094,-10.710209608078003,,-10.710209608078003,,C,3066216805140497,0,8410560.870843526,-13044827.557309754,21131604.138785485,1842.5639798100071,2079.33140355183,583.6397215495612,31983.62830138794,0.0011907462794624735,0.000000020489096641540527,0.000000014901161193847656,-0.00000011920928955078125,-0.00000011920928955078125,124928.0,16384.0,-262144.0,262144.0
Raw,1758239420999,258260939214,18,,-1442274380739060736,0.0,10.220216751098633,,,48107,7,0.0,16399,431438925161211,10,40.5,-563.8800659179688,0.07304602116346359,25,-4264221.887231279,0.051650840789079666,1575420000,,,,0,,1,7.800000190734863,37.0,-10.710209608078003,,-10.710209608078003,,C,3066216805140497,0,-18568456.862348065,-8253866.315078929,17900132.143377688,2036.5525936983386,-690.6689186381752,1813.5629402022832,-23382.65136087459,0.00011440090020187199,0.000000020489096641540527,0.000000014901161193847656,-0.00000011920928955078125,-0.00000011920928955078125,124928.0,16384.0,-262144.0,262144.0
Raw,1758239420999,258260939214,18,,-1442274380739060736,0.0,10.220216751098633,,,48107,26,0.0,16399,431438917154816,10,39.20000076293945,469.9088439941406,0.07846274971961975,25,-3993421.4644829277,0.05548100918531418,1575420000,,,,0,,1,7.800000190734863,35.70000076293945,6.51925802230835,,6.51925802230835,,C,3066216805140497,0,18632867.707002062,-2685847.6766776117,18671880.723508775,1752.6260470946129,1666.3441547481912,-1452.7981702405332,-78846.64449050638,-0.0007490369607694447,0.000000020489096641540527,0.000000014901161193847656,-0.00000011920928955078125,-0.00000011920928955078125,124928.0,16384.0,-262144.0,262144.0
Raw,1758239420999,258260939214,18,,-1442274380739060736,0.0,10.220216751098633,,,48107,27,0.0,16399,431438926665572,11,38.79999923706055,-496.3495788574219,0.08025103062391281,25,-149082.40409126133,0.0567455030977726,1575420000,,,,0,,1,7.800000190734863,35.29999923706055,1.862645149230957,,1.862645149230957,,C,3066216805140497,0,12335134.268724151,-21093801.20177312,9526374.22429483,-11.59854166170696,1309.7222321141928,2859.7706427223675,-7628.65033951872,-0.0015448831309186062,0.000000020489096641540527,0.000000014901161193847656,-0.00000011920928955078125,-0.00000011920928955078125,124928.0,16384.0,-262144.0,262144.0
Raw,1758239420999,258260939214,18,,-1442274380739060736,0.0,10.220216751098633,,,48107,9,0.0,16399,431438933136170,11,38.20000076293945,-367.33184814453125,0.08305026590824127,25,-114557.60199617688,0.058724842965602875,1575420000,,,,0,,1,7.800000190734863,34.70000076293945,0.46566128730773926,,0.46566128730773926,,C,3066216805140497,0,-9321667.592552073,-16422753.962491639,18545653.367538348,703.7084099093801,-2276.704831730469,-1660.1763285190702,222544.02115347225,0.0011847930727526546,0.000000020489096641540527,0.000000014901161193847656,-0.00000011920928955078125,-0.00000011920928955078125,124928.0,16384.0,-262144.0,262144.0
Raw,1758239420999,258260939214,18,,-1442274380739060736,0.0,10.220216751098633,,,48107,8,0.0,16399,431438925492424,13,34.099998474121094,-783.1885375976562,0.10679652541875839,25,-217093.21229381673,0.07551582157611847,1575420000,,,,0,,1,7.800000190734863,30.600000381469727,4.656612873077393,,4.656612873077393,,C,3066216805140497,0,5566479.373013649,-25709957.359803624,-205182.64868658356,363.6663812817165,72.78432572443148,3171.4065638911243,159182.68216821825,-0.0012375871883705258,0.000000020489096641540527,0.000000014901161193847656,-0.00000011920928955078125,-0.00000011920928955078125,124928.0,16384.0,-262144.0,262144.0
Raw,1758239420999,258260939214,18,,-1442274380739060736,0.0,10.220216751098633,,,48107,21,0.0,16399,431438918407532,16,31.600000381469727,-609.9866333007812,0.1266447901725769,16,-176647.54486268014,0.18469735980033875,1575420000,,,,0,,1,7.800000190734863,28.100000381469727,-9.313225746154785,,-9.313225746154785,,C,3066216805140497,0,-13955086.803625528,7107727.352360996,21450739.824504647,-1847.294181705655,-2002.7306763658767,-537.611449852165,73282.38144319682,0.00585976721777115,0.000000020489096641540527,0.000000014901161193847656,-0.00000011920928955078125,-0.00000011920928955078125,124928.0,16384.0,-262144.0,262144.0
Raw,1758239420999,258260939214,18,,-1442274380739060736,0.0,10.220216751098633,,,48107,3,0.0,16391,431438917254986,19,28.299999237060547,483.42047119140625,0.16259105503559113,16,-4481724.514751339,0.2101149708032608,1575420000,,,,0,,1,7.800000190734863,24.799999237060547,1.3969838619232178,,1.3969838619232178,,C,3066216805140497,0,-9828333.889907772,-21567910.768245406,-12283957.791140145,1164.195640612318,988.9032205971789,-2700.086220776072,201948.67229997172,-0.0009254979959223419,0.000000020489096641540527,0.000000014901161193847656,-0.00000011920928955078125,-0.00000011920928955078125,124928.0,16384.0,-262144.0,262144.0
Raw,1758239420999,258260939214,18,,-1442274380739060736,0.0,10.220216751098633,,,48107,30,0.0,16399,431438917922286,16,30.899999618530273,-732.8677978515625,0.13319836556911469,16,-2188694.1834123367,0.18933139741420746,1575420000,,,,0,,1,7.800000190734863,27.399999618530273,4.190951585769653,,4.190951585769653,,C,3066216805140497,0,-24840428.01572177,-744802.5992646543,9908147.357240794,1107.0187865557543,-608.8778895990706,2753.9298515551222,-9337.241482640176,0.004032126338643138,0.000000020489096641540527,0.000000014901161193847656,-0.00000011920928955078125,-0.00000011920928955078125,124928.0,16384.0,-262144.0,262144.0
Raw,1758239420999,258260939214,18,,-1442274380739060736,0.0,10.220216751098633,,,48107,4,0.0,16399,431438930785758,15,32.099998474121094,110.55010223388672,0.1222553625702858,16,11909.391435513273,0.18159359693527222,1575420000,,,,0,,1,7.800000190734863,28.600000381469727,-4.656612873077393,,-4.656612873077393,,C,3066216805140497,0,457936.80454085954,-24558765.110590883,9910426.771489358,602.4740043142115,-1132.2905856931284,-2855.670808447146,2511.4634307829106,0.000781740830916533,0.000000020489096641540527,0.000000014901161193847656,-0.00000011920928955078125,-0.00000011920928955078125,124928.0,16384.0,-262144.0,262144.0
Raw,1758239420999,258260939214,18,,-1442274380739060736,0.0,10.220216751098633,,,48107,4,0.0,32995,10220935665742,10,49.0,50.2275276184082,0.04830334335565567,25,3690449.7301425375,0.03415529429912567,1605375000,,,,0,,3,7.800000190734863,45.5,12.997031211853034,,12.997031211853034,,C,3066216805140497,0,,,,,,,,,0.000000020489096641540527,0.000000014901161193847656,-0.00000011920928955078125,-0.00000011920928955078125,124928.0,16384.0,-262144.0,262144.0
Raw,1758239420999,258260939214,18,,-1442274380739060736,0.0,10.220216751098633,,,48107,14,0.0,32995,10220933816623,10,45.20000076293945,125.46537017822266,0.0575079508125782,25,-3065240.807284044,0.04066387191414833,1598062500,,,,0,,3,7.800000190734863,41.70000076293945,12.997031211853034,,12.997031211853034,,C,3066216805140497,0,,,,,,,,,0.000000020489096641540527,0.000000014901161193847656,-0.00000011920928955078125,-0.00000011920928955078125,124928.0,16384.0,-262144.0,262144.0
Raw,1758239420999,258260939214,18,,-1442274380739060736,0.0,10.220216751098633,,,48107,27,0.0,19464,431438920994047,10,46.0,-400.2472229003906,0.05536332353949547,25,-1851164.4163175782,0.039147406816482544,1575420000,,,,0,,6,7.800000190734863,42.5,-0.23756419054144495,,-0.23756419054144495,,C,3066216805140497,0,-7535254.526437609,-25408183.7765264,13180237.534441356,750.0317577174155,1089.2083110937078,2530.205091114352,-232060.0204490025,-0.0031069504329934716,0.000000020489096641540527,0.000000014901161193847656,-0.00000011920928955078125,-0.00000011920928955078125,124928.0,16384.0,-262144.0,262144.0
Raw,1758239420999,258260939214,18,,-1442274380739060736,0.0,10.220216751098633,,,48107,15,0.0,32995,10220932850283,10,44.400001525878906,-517.678466796875,0.05977964401245117,25,610179.8492571752,0.04227018728852272,1602000000,,,,0,,3,7.800000190734863,40.900001525878906,12.997031211853034,,12.997031211853034,,C,3066216805140497,0,,,,,,,,,0.000000020489096641540527,0.000000014901161193847656,-0.00000011920928955078125,-0.00000011920928955078125,124928.0,16384.0,-262144.0,262144.0
Raw,1758239420999,258260939214,18,,-1442274380739060736,0.0,10.220216751098633,,,48107,3,0.0,32995,10220925513646,10,44.79999923706055,564.4290771484375,0.058627303689718246,25,3335053.175003471,0.04145536571741104,1604812500,,,,0,,3,7.800000190734863,41.29999923706055,12.997031211853034,,12.997031211853034,,C,3066216805140497,0,,,,,,,,,0.000000020489096641540527,0.000000014901161193847656,-0.00000011920928955078125,-0.00000011920928955078125,124928.0,16384.0,-262144.0,262144.0
Raw,1758239420999,258260939214,18,,-1442274380739060736,0.0,10.220216751098633,,,48107,5,0.0,32995,10220932360617,10,42.5,-703.4346313476562,0.06574621796607971,25,1051994.8563150112,0.04648914933204651,1602562600,,,,0,,3,7.800000190734863,39.0,12.997031211853034,,12.997031211853034,,C,3066216805140497,0,,,,,,,,,0.000000020489096641540527,0.000000014901161193847656,-0.00000011920928955078125,-0.00000011920928955078125,124928.0,16384.0,-262144.0,262144.0
Raw,1758239420999,258260939214,18,,-1442274380739060736,0.0,10.220216751098633,,,48107,30,0.0,19464,431438917922083,10,42.0,104.79383087158203,0.06746499985456467,25,-56132.45710996663,0.04770450294017792,1575420000,,,,0,,6,7.800000190734863,38.5,-0.23756419054144495,,-0.23756419054144495,,C,3066216805140497,0,9194377.465207513,-15302799.25979558,23603279.340173744,1404.0364713806625,1907.1993839513243,690.3066213013765,-62896.193551985634,-0.012376599515846465,0.000000020489096641540527,0.000000014901161193847656,-0.00000011920928955078125,-0.00000011920928955078125,124928.0,16384.0,-262144.0,262144.0
Raw,1758239420999,258260939214,18,,-1442274380739060736,0.0,10.220216751098633,,,48107,7,0.0,19464,431438919626868,10,39.20000076293945,53.325218200683594,0.07846274971961975,25,-68244.31596023994,0.05548100918531418,1575420000,,,,0,,6,7.800000190734863,35.70000076293945,4.6518793261898175,,4.6518793261898175,,C,3066216805140497,0,3204029.135276147,-27276433.18942354,11055852.255789101,372.493000635017,-1046.6476723383917,-2687.6896027675352,-61961.7495052044,-0.000585036126722116,0.000000020489096641540527,0.000000014901161193847656,-0.00000011920928955078125,-0.00000011920928955078125,124928.0,16384.0,-262144.0,262144.0
Raw,1758239420999,258260939214,18,,-1442274380739060736,0.0,10.220216751098633,,,48107,23,0.0,32995,10220919894137,12,36.400001525878906,-471.6844787597656,0.09238641709089279,25,2088547.1474857824,0.06532643735408783,1603687600,,,,0,,3,7.800000190734863,32.900001525878906,12.997031211853034,,12.997031211853034,,C,3066216805140497,0,,,,,,,,,0.000000020489096641540527,0.000000014901161193847656,-0.00000011920928955078125,-0.00000011920928955078125,124928.0,16384.0,-262144.0,262144.0
Raw,1758239420999,258260939214,18,,-1442274380739060736,0.0,10.220216751098633,,,48107,8,0.0,19464,431438905490791,13,34.70000076293945,292.8747253417969,0.1027284637093544,25,-4294448.317404106,0.07263929396867752,1575420000,,,,0,,6,7.800000190734863,31.200000762939453,-5.592668994580446,,-5.592668994580446,,C,3066216805140497,0,15742427.404462997,-23919462.316319235,-7539718.782650249,-372.8887436643618,661.9587187346056,-2881.0789181353116,-161057.81991389365,-0.0019577489874791354,0.000000020489096641540527,0.000000014901161193847656,-0.00000011920928955078125,-0.00000011920928955078125,124928.0,16384.0,-262144.0,262144.0
Raw,1758239420999,258260939214,18,,-1442274380739060736,0.0,10.220216751098633,,,48107,21,0.0,19464,431438910247484,13,34.20000076293945,-756.8812866210938,0.10610191524028778,25,-1366038.558049618,0.07502466440200806,1575420000,,,,0,,6,7.800000190734863,30.700000762939453,0.46092774042016393,,0.46092774042016393,,C,3066216805140497,0,-20300092.640222613,-20845632.706092678,-5428505.85588415,-374.3843476093101,-400.51065855588945,2935.6071183475583,-207041.7345330019,-0.0006857410480733961,0.000000020489096641540527,0.000000014901161193847656,-0.00000011920928955078125,-0.00000011920928955078125,124928.0,16384.0,-262144.0,262144.0
Raw,1758239420999,258260939214,18,,-1442274380739060736,0.0,10.220216751098633,,,48107,13,0.0,32995,10220919784188,15,32.599998474121094,467.61456298828125,0.11809024214744568,25,-514104.68808393565,0.08350160717964172,1600875000,,,,0,,3,7.800000190734863,29.100000381469727,12.997031211853034,,12.997031211853034,,C,3066216805140497,0,,,,,,,,,0.000000020489096641540527,0.000000014901161193847656,-0.00000011920928955078125,-0.00000011920928955078125,124928.0,16384.0,-262144.0,262144.0
Raw,1758239420999,258260939214,18,,-1442274380739060736,0.0,10.220216751098633,,,48107,29,0.0,19464,431438920766116,15,31.899999618530273,-446.5800476074219,0.12398333847522736,25,-194522.11807862515,0.08766862004995346,1575420000,,,,0,,6,7.800000190734863,28.399999618530273,-3.730023845349489,,-3.730023845349489,,C,3066216805140497,0,-11608660.2095245,-14289112.089360997,23166294.089480456,893.2673162483303,-2146.8718526552384,-876.6392262064426,-40037.03464287512,-0.0010765663610072806,0.000000020489096641540527,0.000000014901161193847656,-0.00000011920928955078125,-0.00000011920928955078125,124928.0,16384.0,-262144.0,262144.0
Raw,1758239420999,258260939214,18,,-1442274380739060736,0.0,10.220216751098633,,,48107,19,0.0,19464,431438911819322,15,32.5,-722.1310424804688,0.11890606582164764,16,-4218887.324757967,0.17922531068325043,1575420000,,,,0,,6,7.800000190734863,29.0,-5.825499638234316,,-5.825499638234316,,C,3066216805140497,0,-18799615.866003584,5150894.022057847,22273300.972224146,915.5162421104806,-2038.976175173754,1244.546855671073,676177.0890855648,0.012251070118509233,0.000000020489096641540527,0.000000014901161193847656,-0.00000011920928955078125,-0.00000011920928955078125,124928.0,16384.0,-262144.0,262144.0
Agc,1758239420999,258260939214,18,,-1442274380739060736,0.0,10.220216751098633,,,48107,7.800000190734863,1575420032,1
Agc,1758239420999,258260939214,18,,-1442274380739060736,0.0,10.220216751098633,,,48107,7.800000190734863,1575420032,1
Agc,1758239420999,258260939214,18,,-1442274380739060736,0.0,10.220216751098633,,,48107,7.800000190734863,1575420032,1
Agc,1758239420999,258260939214,18,,-1442274380739060736,0.0,10.220216751098633,,,48107,7.800000190734863,1575420032,1
Agc,1758239420999,258260939214,18,,-1442274380739060736,0.0,10.220216751098633,,,48107,7.800000190734863,1575420032,1
Agc,1758239420999,258260939214,18,,-1442274380739060736,0.0,10.220216751098633,,,48107,7.800000190734863,1575420032,1
Agc,1758239420999,258260939214,18,,-1442274380739060736,0.0,10.220216751098633,,,48107,7.800000190734863,1575420032,1
Agc,1758239420999,258260939214,18,,-1442274380739060736,0.0,10.220216751098633,,,48107,7.800000190734863,1575420032,1
Agc,1758239420999,258260939214,18,,-1442274380739060736,0.0,10.220216751098633,,,48107,7.800000190734863,1575420032,1
Agc,1758239420999,258260939214,18,,-1442274380739060736,0.0,10.220216751098633,,,48107,7.800000190734863,1575420032,1
Agc,1758239420999,258260939214,18,,-1442274380739060736,0.0,10.220216751098633,,,48107,7.800000190734863,1605374976,3
Agc,1758239420999,258260939214,18,,-1442274380739060736,0.0,10.220216751098633,,,48107,7.800000190734863,1598062464,3
Agc,1758239420999,258260939214,18,,-1442274380739060736,0.0,10.220216751098633,,,48107,7.800000190734863,1575420032,6
Agc,1758239420999,258260939214,18,,-1442274380739060736,0.0,10.220216751098633,,,48107,7.800000190734863,1602000000,3
Agc,1758239420999,258260939214,18,,-1442274380739060736,0.0,10.220216751098633,,,48107,7.800000190734863,1604812544,3
Agc,1758239420999,258260939214,18,,-1442274380739060736,0.0,10.220216751098633,,,48107,7.800000190734863,1602562560,3
Agc,1758239420999,258260939214,18,,-1442274380739060736,0.0,10.220216751098633,,,48107,7.800000190734863,1575420032,6
Agc,1758239420999,258260939214,18,,-1442274380739060736,0.0,10.220216751098633,,,48107,7.800000190734863,1575420032,6
Agc,1758239420999,258260939214,18,,-1442274380739060736,0.0,10.220216751098633,,,48107,7.800000190734863,1603687552,3
Agc,1758239420999,258260939214,18,,-1442274380739060736,0.0,10.220216751098633,,,48107,7.800000190734863,1575420032,6
Agc,1758239420999,258260939214,18,,-1442274380739060736,0.0,10.220216751098633,,,48107,7.800000190734863,1575420032,6
Agc,1758239420999,258260939214,18,,-1442274380739060736,0.0,10.220216751098633,,,48107,7.800000190734863,1600875008,3
Agc,1758239420999,258260939214,18,,-1442274380739060736,0.0,10.220216751098633,,,48107,7.800000190734863,1575420032,6
Agc,1758239420999,258260939214,18,,-1442274380739060736,0.0,10.220216751098633,,,48107,7.800000190734863,1575420032,6
Fix,GPS,40.1523296535,-105.1121717691,1500.0,0.90999997,1.5306122,88.9,1758239422000,0.21,4.6,3066217805139802,1.0,0,,,
Fix,FLP,40.1523297000,-105.1121718000,1498.5844768388722,0.90999997,5.221,88.0,1758239422249,0.21,4.6,3066217805139802,0.6081261,0,,,
Status,1758239422000,24,0,1,9,1575420000,38.10,297.2,74.7,1,0,1,34.6
Status,1758239422000,24,1,1,4,1575420000,31.60,137.8,60.6,0,0,1,28.1
Status,1758239422000,24,2,1,16,1575420000,42.00,50.6,45.6,1,0,1,38.5
Status,1758239422000,24,3,1,7,1575420000,40.50,288.9,41.7,1,0,1,37.0
Status,1758239422000,24,4,1,27,1575420000,38.80,102.3,35.7,1,0,1,35.3
Status,1758239422000,24,5,1,8,1575420000,34.00,141.6,30.2,1,0,1,30.5
Status,1758239422000,24,6,1,30,1575420000,30.50,276.9,12.8,0,0,1,27.0
Status,1758239422000,24,7,1,21,1575420000,31.50,320.3,11.7,0,0,1,28.0
Status,1758239422000,24,8,1,26,1575420000,39.60,49.8,9.1,1,0,1,36.1
Status,1758239422000,24,9,1,3,1575420000,28.80,189.0,8.3,0,0,1,25.3
Status,1758239422000,24,10,3,4,1605375000,49.00,183.2,71.5,1,0,1,45.5
Status,1758239422000,24,11,3,14,1598062500,45.20,17.9,59.2,1,0,1,41.7
Status,1758239422000,24,12,3,15,1602000000,44.50,259.4,52.8,1,0,1,41.0
Status,1758239422000,24,13,3,5,1602562600,42.70,321.9,49.6,1,0,1,39.2
Status,1758239422000,24,14,3,3,1604812500,44.70,159.2,22.0,1,0,1,41.2
Status,1758239422000,24,15,3,23,1603687600,36.30,46.6,6.8,0,0,1,32.8
Status,1758239422000,24,16,3,13,1600875000,32.60,47.4,6.2,0,0,1,29.1
Status,1758239422000,24,17,6,27,1575420000,45.90,185.3,72.5,1,0,1,42.4
Status,1758239422000,24,18,6,29,1575420000,31.70,312.6,64.5,1,0,1,28.2
Status,1758239422000,24,19,6,7,1575420000,39.40,127.7,57.5,1,0,1,35.9
Status,1758239422000,24,20,6,30,1575420000,41.90,52.0,48.3,1,0,1,38.4
Status,1758239422000,24,21,6,21,1575420000,34.10,214.5,20.8,1,0,1,30.6
Status,1758239422000,24,22,6,19,1575420000,32.20,311.2,16.8,0,0,1,28.7
Status,1758239422000,24,23,6,8,1575420000,34.60,129.9,6.7,0,0,1,31.1
Raw,1758239421999,259260938481,18,,-1442274380739061504,0.0,10.220216751098633,,,48107,16,0.0,16399,431439929068866,10,42.0,271.0854187011719,0.06746499985456467,25,52119.12302338332,0.04770450294017792,1575420000,,,,0,,1,7.800000190734863,38.5,-10.710209608078003,,-10.710209608078003,,C,3066217805139802,0,8412403.512818463,-13042748.254149342,21132187.543898813,1842.7259855533932,2079.2817025464483,583.1724097724507,31983.629492184406,0.0011908505621249788,0.000000020489096641540527,0.000000014901161193847656,-0.00000011920928955078125,-0.00000011920928955078125,124928.0,16384.0,-262144.0,262144.0
Raw,1758239421999,259260938481,18,,-1442274380739061504,0.0,10.220216751098633,,,48107,7,0.0,16399,431439925162347,10,40.5,-566.40673828125,0.07304602116346359,25,-4264786.828953073,0.051650840789079666,1575420000,,,,0,,1,7.800000190734863,37.0,-10.710209608078003,,-10.710209608078003,,C,3066217805139802,0,-18566420.22085201,-8254557.072408883,17901945.52871237,2036.7257618300423,-690.8441744681812,1813.2036031834648,-23382.65124645021,0.00011444759729783982,0.000000020489096641540527,0.000000014901161193847656,-0.00000011920928955078125,-0.00000011920928955078125,124928.0,16384.0,-262144.0,262144.0
Raw,1758239421999,259260938481,18,,-1442274380739061504,0.0,10.220216751098633,,,48107,26,0.0,16399,431439917152524,10,39.599998474121094,469.84124755859375,0.07673361152410507,25,-3992951.479936043,0.05425833538174629,1575420000,,,,0,,1,7.800000190734863,36.099998474121094,6.51925802230835,,6.51925802230835,,C,3066217805139802,0,18634620.300888885,-2684181.4425780457,18670427.729031455,1752.5697509523657,1666.13167969418,-1453.19743946103,-78846.6452394665,-0.000748886726796627,0.000000020489096641540527,0.000000014901161193847656,-0.00000011920928955078125,-0.00000011920928955078125,124928.0,16384.0,-262144.0,262144.0
Raw,1758239421999,259260938481,18,,-1442274380739061504,0.0,10.220216751098633,,,48107,27,0.0,16399,431439926666467,11,38.79999923706055,-496.33477783203125,0.08025103062391281,25,-149578.66268357914,0.0567455030977726,1575420000,,,,0,,1,7.800000190734863,35.29999923706055,1.862645149230957,,1.862645149230957,,C,3066217805139802,0,12335122.662209274,-21092491.300568283,9529233.892219262,-11.614458646497354,1310.0778297785296,2859.5600766976227,-7628.651884441934,-0.0015449605234607588,0.000000020489096641540527,0.000000014901161193847656,-0.00000011920928955078125,-0.00000011920928955078125,124928.0,16384.0,-262144.0,262144.0
Raw,1758239421999,259260938481,18,,-1442274380739061504,0.0,10.220216751098633,,,48107,8,0.0,16399,431439925494309,14,34.0,-783.41845703125,0.10749798268079758,25,-217876.42131999135,0.07601182162761688,1575420000,,,,0,,1,7.800000190734863,30.5,4.656612873077393,,4.656612873077393,,C,3066217805139802,0,5566842.999252284,-25709884.38872233,-202011.23390992766,363.58473324801236,73.15756376668526,3171.4110216046515,159182.6809305924,-0.001237659773323685,0.000000020489096641540527,0.000000014901161193847656,-0.00000011920928955078125,-0.00000011920928955078125,124928.0,16384.0,-262144.0,262144.0
Raw,1758239421999,259260938481,18,,-1442274380739061504,0.0,10.220216751098633,,,48107,9,0.0,16399,431439933136652,11,38.099998474121094,-368.99066162109375,0.08353102952241898,25,-114925.59471444692,0.05906479060649872,1575420000,,,,0,,1,7.800000190734863,34.599998474121094,0.46566128730773926,,0.46566128730773926,,C,3066217805139802,0,-9320963.974423423,-16425030.586888637,18543992.99106234,703.5271711464895,-2276.5417570796294,-1660.5750169547362,222544.02233826864,0.0011847986024804413,0.000000020489096641540527,0.000000014901161193847656,-0.00000011920928955078125,-0.00000011920928955078125,124928.0,16384.0,-262144.0,262144.0
Raw,1758239421999,259260938481,18,,-1442274380739061504,0.0,10.220216751098633,,,48107,21,0.0,16399,431439918408834,16,31.5,-610.8538208007812,0.12755101919174194,16,-177257.68168310635,0.18533816933631897,1575420000,,,,0,,1,7.800000190734863,28.0,-9.313225746154785,,-9.313225746154785,,C,3066217805139802,0,-13956934.13492931,7105724.697094422,21450201.98417061,-1847.3636067722846,-2002.5746349296523,-538.0678157967108,73282.38730297251,0.005859768876689486,0.000000020489096641540527,0.000000014901161193847656,-0.00000011920928955078125,-0.00000011920928955078125,124928.0,16384.0,-262144.0,262144.0
Raw,1758239421999,259260938481,18,,-1442274380739061504,0.0,10.220216751098633,,,48107,3,0.0,16391,431439917252586,18,28.799999237060547,483.2615051269531,0.15622803568840027,16,-4481240.786297944,0.20561566948890686,1575420000,,,,0,,1,7.800000190734863,25.299999237060547,1.3969838619232178,,1.3969838619232178,,C,3066217805139802,0,-9827169.548122697,-21566921.783710912,-12286657.742167108,1164.4935192648636,989.0705856283987,-2699.828783582271,201948.67137450387,-0.0009254422038793564,0.000000020489096641540527,0.000000014901161193847656,-0.00000011920928955078125,-0.00000011920928955078125,124928.0,16384.0,-262144.0,262144.0
Raw,1758239421999,259260938481,18,,-1442274380739061504,0.0,10.220216751098633,,,48107,30,0.0,16399,431439917923956,17,30.5,-726.662109375,0.13717420399188995,16,-2189421.9893776206,0.19214272499084473,1575420000,,,,0,,1,7.800000190734863,27.0,4.190951585769653,,4.190951585769653,,C,3066217805139802,0,-24839320.8470058,-745411.5531285824,9910901.18854092,1107.314940889582,-609.0278100169899,2753.7235414670436,-9337.237450490304,0.004032159931739443,0.000000020489096641540527,0.000000014901161193847656,-0.00000011920928955078125,-0.00000011920928955078125,124928.0,16384.0,-262144.0,262144.0
Raw,1758239421999,259260938481,18,,-1442274380739061504,0.0,10.220216751098633,,,48107,4,0.0,16399,431439930784638,16,31.600000381469727,114.05652618408203,0.1266447901725769,16,12022.668291770853,0.18469735980033875,1575420000,,,,0,,1,7.800000190734863,28.100000381469727,-4.656612873077393,,-4.656612873077393,,C,3066217805139802,0,458539.1916151056,-24559897.24572092,9907570.997573055,602.3014993247045,-1131.982203054166,-2855.8834109486015,2511.4642125072223,0.0007817095456630341,0.000000020489096641540527,0.000000014901161193847656,-0.00000011920928955078125,-0.00000011920928955078125,124928.0,16384.0,-262144.0,262144.0
Raw,1758239421999,259260938481,18,,-1442274380739061504,0.0,10.220216751098633,,,48107,4,0.0,32995,10221935664839,10,49.0,48.980224609375,0.04830334335565567,25,3690499.487387332,0.03415529429912567,1605375000,,,,0,,3,7.800000190734863,45.5,12.997031211853034,,12.997031211853034,,C,3066217805139802,0,,,,,,,,,0.000000020489096641540527,0.000000014901161193847656,-0.00000011920928955078125,-0.00000011920928955078125,124928.0,16384.0,-262144.0,262144.0
Raw,1758239421999,259260938481,18,,-1442274380739061504,0.0,10.220216751098633,,,48107,14,0.0,32995,10221933815467,10,45.20000076293945,124.4618911743164,0.0575079508125782,25,-3065115.694027842,0.04066387191414833,1598062500,,,,0,,3,7.800000190734863,41.70000076293945,12.997031211853034,,12.997031211853034,,C,3066217805139802,0,,,,,,,,,0.000000020489096641540527,0.000000014901161193847656,-0.00000011920928955078125,-0.00000011920928955078125,124928.0,16384.0,-262144.0,262144.0
Raw,1758239421999,259260938481,18,,-1442274380739061504,0.0,10.220216751098633,,,48107,27,0.0,19464,431439920994644,10,45.900001525878906,-401.58154296875,0.05562477186322212,25,-1851565.1732241136,0.039332274347543716,1575420000,,,,0,,6,7.800000190734863,42.400001525878906,-0.23755575284647779,,-0.23755575284647779,,C,3066217805139802,0,-7534504.376921626,-25407094.494532593,13182767.639717668,750.2663807766165,1089.3543683718758,2530.0024340408836,-232060.02355595358,-0.0031069480173755437,0.000000020489096641540527,0.000000014901161193847656,-0.00000011920928955078125,-0.00000011920928955078125,124928.0,16384.0,-262144.0,262144.0
Raw,1758239421999,259260938481,18,,-1442274380739061504,0.0,10.220216751098633,,,48107,15,0.0,32995,10221932851279,10,44.5,-519.9528198242188,0.05948840081691742,25,609661.223866314,0.04206424951553345,1602000000,,,,0,,3,7.800000190734863,41.0,12.997031211853034,,12.997031211853034,,C,3066217805139802,0,,,,,,,,,0.000000020489096641540527,0.000000014901161193847656,-0.00000011920928955078125,-0.00000011920928955078125,124928.0,16384.0,-262144.0,262144.0
Raw,1758239421999,259260938481,18,,-1442274380739061504,0.0,10.220216751098633,,,48107,3,0.0,32995,10221925511064,10,44.70000076293945,563.5875854492188,0.058912243694067,25,3335617.293708031,0.041656848043203354,1604812500,,,,0,,3,7.800000190734863,41.20000076293945,12.997031211853034,,12.997031211853034,,C,3066217805139802,0,,,,,,,,,0.000000020489096641540527,0.000000014901161193847656,-0.00000011920928955078125,-0.00000011920928955078125,124928.0,16384.0,-262144.0,262144.0
Raw,1758239421999,259260938481,18,,-1442274380739061504,0.0,10.220216751098633,,,48107,5,0.0,32995,10221932362251,10,42.70000076293945,-705.3109130859375,0.0650770515203476,25,1051290.674211898,0.04601598158478737,1602562600,,,,0,,3,7.800000190734863,39.20000076293945,12.997031211853034,,12.997031211853034,,C,3066217805139802,0,,,,,,,,,0.000000020489096641540527,0.000000014901161193847656,-0.00000011920928955078125,-0.00000011920928955078125,124928.0,16384.0,-262144.0,262144.0
Raw,1758239421999,259260938481,18,,-1442274380739061504,0.0,10.220216751098633,,,48107,30,0.0,19464,431439917920965,10,41.900001525878906,104.38272857666016,0.0678168386220932,25,-56027.74413392072,0.0479532852768898,1575420000,,,,0,,6,7.800000190734863,38.400001525878906,-0.23755575284647779,,-0.23755575284647779,,C,3066217805139802,0,9195781.592941549,-15300892.087974418,23603969.464532346,1404.2221326399215,1907.148514943658,689.9436372036223,-62896.20592857038,-0.012376597631373443,0.000000020489096641540527,0.000000014901161193847656,-0.00000011920928955078125,-0.00000011920928955078125,124928.0,16384.0,-262144.0,262144.0
Raw,1758239421999,259260938481,18,,-1442274380739061504,0.0,10.220216751098633,,,48107,7,0.0,19464,431439919625957,10,39.400001525878906,52.71873474121094,0.0775909498333931,25,-68191.17007528743,0.054864559322595596,1575420000,,,,0,,6,7.800000190734863,35.900001525878906,4.651887763884784,,4.651887763884784,,C,3066217805139802,0,3204401.5355308102,-27277479.726323273,11053164.483713636,372.3081919169492,-1046.4280276769923,-2687.8594384049397,-61961.7500902386,-0.000585033354582265,0.000000020489096641540527,0.000000014901161193847656,-0.00000011920928955078125,-0.00000011920928955078125,124928.0,16384.0,-262144.0,262144.0
Raw,1758239421999,259260938481,18,,-1442274380739061504,0.0,10.220216751098633,,,48107,23,0.0,32995,10221919894970,12,36.29999923706055,-471.72894287109375,0.09295062720775604,25,2088075.537250651,0.06572538614273071,1603687600,,,,0,,3,7.800000190734863,32.79999923706055,12.997031211853034,,12.997031211853034,,C,3066217805139802,0,,,,,,,,,0.000000020489096641540527,0.000000014901161193847656,-0.00000011920928955078125,-0.00000011920928955078125,124928.0,16384.0,-262144.0,262144.0
Raw,1758239421999,259260938481,18,,-1442274380739061504,0.0,10.220216751098633,,,48107,8,0.0,19464,431439905489123,13,34.599998474121094,292.7406005859375,0.1033901646733284,25,-4294155.416787861,0.07310718297958374,1575420000,,,,0,,6,7.800000190734863,31.100000381469727,-5.5926605568854795,,-5.5926605568854795,,C,3066217805139802,0,15742054.485628802,-23918800.21148872,-7542599.798867897,-372.9501610212245,662.2531514381831,-2880.9631208485794,-161057.82187163836,-0.0019577468920033425,0.000000020489096641540527,0.000000014901161193847656,-0.00000011920928955078125,-0.00000011920928955078125,124928.0,16384.0,-262144.0,262144.0
Raw,1758239421999,259260938481,18,,-1442274380739061504,0.0,10.220216751098633,,,48107,13,0.0,32995,10221919781909,15,32.599998474121094,467.4692687988281,0.11809024214744568,25,-513637.0396484585,0.08350160717964172,1600875000,,,,0,,3,7.800000190734863,29.100000381469727,12.997031211853034,,12.997031211853034,,C,3066217805139802,0,,,,,,,,,0.000000020489096641540527,0.000000014901161193847656,-0.00000011920928955078125,-0.00000011920928955078125,124928.0,16384.0,-262144.0,262144.0
Raw,1758239421999,259260938481,18,,-1442274380739061504,0.0,10.220216751098633,,,48107,21,0.0,19464,431439910249250,13,34.099998474121094,-758.5596923828125,0.10679652541875839,16,-1366795.9961712917,0.17066265642642975,1575420000,,,,0,,6,7.800000190734863,30.600000381469727,0.4609361781151311,,0.4609361781151311,,C,3066217805139802,0,-20300466.952375423,-20846033.085361645,-5425570.20185836,-374.23862895027935,-400.24646805442956,2935.690556972283,-207041.73521874356,-0.0006857398548163474,0.000000020489096641540527,0.000000014901161193847656,-0.00000011920928955078125,-0.00000011920928955078125,124928.0,16384.0,-262144.0,262144.0
Raw,1758239421999,259260938481,18,,-1442274380739061504,0.0,10.220216751098633,,,48107,29,0.0,19464,431439920766778,15,31.700000762939453,-448.1667785644531,0.1257481873035431,16,-194969.32942917602,0.1840633749961853,1575420000,,,,0,,6,7.800000190734863,28.200000762939453,-3.7300154076545224,,-3.7300154076545224,,C,3066217805139802,0,-11607767.039756788,-14291258.955860201,23165417.271481693,893.0710354910766,-2146.858294945949,-876.9956081510318,-40037.03571944235,-0.001076566673873458,0.000000020489096641540527,0.000000014901161193847656,-0.00000011920928955078125,-0.00000011920928955078125,124928.0,16384.0,-262144.0,262144.0
Raw,1758239421999,259260938481,18,,-1442274380739061504,0.0,10.220216751098633,,,48107,19,0.0,19464,431439911820998,15,32.20000076293945,-718.299072265625,0.12140488624572754,17,-4219606.079325842,0.1809922307729721,1575420000,,,,0,,6,7.800000190734863,28.700000762939453,-5.825491200539349,,-5.825491200539349,,C,3066217805139802,0,-18798700.402427,5148854.9498219285,22274545.349963095,915.4078364785486,-2039.161455758801,1244.2044480093348,676177.1013366557,0.012251070817001164,0.000000020489096641540527,0.000000014901161193847656,-0.00000011920928955078125,-0.00000011920928955078125,124928.0,16384.0,-262144.0,262144.0
Agc,1758239421999,259260938481,18,,-1442274380739061504,0.0,10.220216751098633,,,48107,7.800000190734863,1575420032,1
Agc,1758239421999,259260938481,18,,-1442274380739061504,0.0,10.220216751098633,,,48107,7.800000190734863,1575420032,1
Agc,1758239421999,259260938481,18,,-1442274380739061504,0.0,10.220216751098633,,,48107,7.800000190734863,1575420032,1
Agc,1758239421999,259260938481,18,,-1442274380739061504,0.0,10.220216751098633,,,48107,7.800000190734863,1575420032,1
Agc,1758239421999,259260938481,18,,-1442274380739061504,0.0,10.220216751098633,,,48107,7.800000190734863,1575420032,1
Agc,1758239421999,259260938481,18,,-1442274380739061504,0.0,10.220216751098633,,,48107,7.800000190734863,1575420032,1
Agc,1758239421999,259260938481,18,,-1442274380739061504,0.0,10.220216751098633,,,48107,7.800000190734863,1575420032,1
Agc,1758239421999,259260938481,18,,-1442274380739061504,0.0,10.220216751098633,,,48107,7.800000190734863,1575420032,1
Agc,1758239421999,259260938481,18,,-1442274380739061504,0.0,10.220216751098633,,,48107,7.800000190734863,1575420032,1
Agc,1758239421999,259260938481,18,,-1442274380739061504,0.0,10.220216751098633,,,48107,7.800000190734863,1575420032,1
Agc,1758239421999,259260938481,18,,-1442274380739061504,0.0,10.220216751098633,,,48107,7.800000190734863,1605374976,3
Agc,1758239421999,259260938481,18,,-1442274380739061504,0.0,10.220216751098633,,,48107,7.800000190734863,1598062464,3
Agc,1758239421999,259260938481,18,,-1442274380739061504,0.0,10.220216751098633,,,48107,7.800000190734863,1575420032,6
Agc,1758239421999,259260938481,18,,-1442274380739061504,0.0,10.220216751098633,,,48107,7.800000190734863,1602000000,3
Agc,1758239421999,259260938481,18,,-1442274380739061504,0.0,10.220216751098633,,,48107,7.800000190734863,1604812544,3
Agc,1758239421999,259260938481,18,,-1442274380739061504,0.0,10.220216751098633,,,48107,7.800000190734863,1602562560,3
Agc,1758239421999,259260938481,18,,-1442274380739061504,0.0,10.220216751098633,,,48107,7.800000190734863,1575420032,6
Agc,1758239421999,259260938481,18,,-1442274380739061504,0.0,10.220216751098633,,,48107,7.800000190734863,1575420032,6
Agc,1758239421999,259260938481,18,,-1442274380739061504,0.0,10.220216751098633,,,48107,7.800000190734863,1603687552,3
Agc,1758239421999,259260938481,18,,-1442274380739061504,0.0,10.220216751098633,,,48107,7.800000190734863,1575420032,6
Agc,1758239421999,259260938481,18,,-1442274380739061504,0.0,10.220216751098633,,,48107,7.800000190734863,1600875008,3
Agc,1758239421999,259260938481,18,,-1442274380739061504,0.0,10.220216751098633,,,48107,7.800000190734863,1575420032,6
Agc,1758239421999,259260938481,18,,-1442274380739061504,0.0,10.220216751098633,,,48107,7.800000190734863,1575420032,6
Agc,1758239421999,259260938481,18,,-1442274380739061504,0.0,10.220216751098633,,,48107,7.800000190734863,1575420032,6
Fix,GPS,40.1523327129,-105.1121710148,1500.0,0.44,1.5306122,89.3,1758239423000,0.21,8.5,3066218805139021,1.0,0,,,
Fix,FLP,40.1523327000,-105.1121710000,1498.4781105423704,0.44,5.221,89.0,1758239423249,0.21,8.5,3066218805139021,0.60861903,0,,,
Status,1758239423000,24,0,1,9,1575420000,38.10,297.2,74.7,1,0,1,34.6
Status,1758239423000,24,1,1,4,1575420000,31.10,137.8,60.6,1,0,1,27.6
Status,1758239423000,24,2,1,16,1575420000,42.00,50.6,45.6,1,0,1,38.5
Status,1758239423000,24,3,1,7,1575420000,40.50,288.9,41.7,1,0,1,37.0
Status,1758239423000,24,4,1,27,1575420000,38.80,102.3,35.7,1,0,1,35.3
Status,1758239423000,24,5,1,8,1575420000,38.70,141.6,30.2,1,0,1,35.2
Status,1758239423000,24,6,1,30,1575420000,30.40,276.9,12.8,0,0,1,26.9
Status,1758239423000,24,7,1,21,1575420000,31.40,320.3,11.7,0,0,1,27.9
Status,1758239423000,24,8,1,26,1575420000,39.90,49.8,9.1,0,0,1,36.4
Status,1758239423000,24,9,1,3,1575420000,29.40,189.0,8.3,0,0,1,25.9
Status,1758239423000,24,10,3,4,1605375000,49.00,183.2,71.5,1,0,1,45.5
Status,1758239423000,24,11,3,14,1598062500,45.10,17.9,59.2,1,0,1,41.6
Status,1758239423000,24,12,3,15,1602000000,44.50,259.4,52.8,1,0,1,41.0
Status,1758239423000,24,13,3,5,1602562600,42.70,321.9,49.6,1,0,1,39.2
Status,1758239423000,24,14,3,3,1604812500,44.60,159.2,22.0,1,0,1,41.1
Status,1758239423000,24,15,3,23,1603687600,36.50,46.6,6.8,0,0,1,33.0
Status,1758239423000,24,16,3,13,1600875000,32.70,47.4,6.2,0,0,1,29.2
Status,1758239423000,24,17,6,27,1575420000,45.80,185.3,72.5,1,0,1,42.3
Status,1758239423000,24,18,6,29,1575420000,31.50,312.6,64.5,1,0,1,28.0
Status,1758239423000,24,19,6,7,1575420000,39.40,127.9,57.3,1,0,1,35.9
Status,1758239423000,24,20,6,30,1575420000,41.90,52.0,48.3,1,0,1,38.4
Status,1758239423000,24,21,6,21,1575420000,33.90,214.6,20.9,1,0,1,30.4
Status,1758239423000,24,22,6,19,1575420000,32.00,311.2,16.8,0,0,1,28.5
Status,1758239423000,24,23,6,8,1575420000,34.60,129.9,6.7,0,0,1,31.1
Raw,1758239422999,260260937687,18,,-1442274380739062272,0.0,10.220216751098633,,,48107,16,0.0,16399,431440929067168,10,42.0,265.7093811035156,0.06746499985456467,25,52386.722053240985,0.04770450294017792,1575420000,,,,0,,1,7.800000190734863,38.5,-10.710209608078003,,-10.710209608078003,,C,3066218805139021,0,8414246.316662043,-13040669.000852693,21132770.48165811,1842.8879536664801,2079.231942110784,582.705086576127,31983.6306830851,0.0011909548738913145,0.000000020489096641540527,0.000000014901161193847656,-0.00000011920928955078125,-0.00000011920928955078125,124928.0,16384.0,-262144.0,262144.0
Raw,1758239422999,260260937687,18,,-1442274380739062272,0.0,10.220216751098633,,,48107,26,0.0,16399,431440917150170,10,39.900001525878906,464.2489318847656,0.07547397166490555,25,-3992485.319389106,0.05336764454841614,1575420000,,,,0,,1,7.800000190734863,36.400001525878906,6.51925802230835,,6.51925802230835,,C,3066218805139021,0,18636372.83834241,-2682515.4210653817,18668974.335392386,1752.5133974514656,1665.9191858489107,-1453.5966757997599,-78846.64598827634,-0.0007487364782718942,0.000000020489096641540527,0.000000014901161193847656,-0.00000011920928955078125,-0.00000011920928955078125,124928.0,16384.0,-262144.0,262144.0
Raw,1758239422999,260260937687,18,,-1442274380739062272,0.0,10.220216751098633,,,48107,7,0.0,16399,431440925163447,10,40.5,-571.1571655273438,0.07304602116346359,25,-4265355.913998029,0.051650840789079666,1575420000,,,,0,,1,7.800000190734863,37.0,-10.710209608078003,,-10.710209608078003,,C,3066218805139021,0,-18564383.406289015,-8255248.004977696,17903758.554626424,2036.8988738039247,-691.0194455936946,1812.844230305506,-23382.651131979146,0.00011449426165199839,0.000000020489096641540527,0.000000014901161193847656,-0.00000011920928955078125,-0.00000011920928955078125,124928.0,16384.0,-262144.0,262144.0
Raw,1758239422999,260260937687,18,,-1442274380739062272,0.0,10.220216751098633,,,48107,8,0.0,16399,431440925496143,11,38.70000076293945,-788.9214477539062,0.08070763945579529,25,-218663.43819891103,0.057068370282649994,1575420000,,,,0,,1,7.800000190734863,35.20000076293945,4.656612873077393,,4.656612873077393,,C,3066218805139021,0,5567206.543848361,-25709811.044400066,-198839.81487202065,363.50313336228,73.53081369565399,3171.4154098678996,159182.67969289402,-0.0012377324455883354,0.000000020489096641540527,0.000000014901161193847656,-0.00000011920928955078125,-0.00000011920928955078125,124928.0,16384.0,-262144.0,262144.0
Raw,1758239422999,260260937687,18,,-1442274380739062272,0.0,10.220216751098633,,,48107,27,0.0,16399,431440926667338,11,38.79999923706055,-501.78387451171875,0.08025103062391281,25,-150078.60451555531,0.0567455030977726,1575420000,,,,0,,1,7.800000190734863,35.29999923706055,1.862645149230957,,1.862645149230957,,C,3066218805139021,0,12335111.039803501,-21091181.04380616,9532093.349477021,-11.63032419198268,1310.433408823592,2859.349447005755,-7628.65342944249,-0.0015450378896275652,0.000000020489096641540527,0.000000014901161193847656,-0.00000011920928955078125,-0.00000011920928955078125,124928.0,16384.0,-262144.0,262144.0
Raw,1758239422999,260260937687,18,,-1442274380739062272,0.0,10.220216751098633,,,48107,9,0.0,16399,431440933137096,11,38.099998474121094,-373.89447021484375,0.08353102952241898,25,-115297.52172494493,0.05906479060649872,1575420000,,,,0,,1,7.800000190734863,34.599998474121094,0.46566128730773926,,0.46566128730773926,,C,3066218805139021,0,-9320260.537554163,-16427307.048092805,18542332.215978693,703.3459447712428,-2276.3786192235393,-1660.973669621725,222544.02352307056,0.001184804190415889,0.000000020489096641540527,0.000000014901161193847656,-0.00000011920928955078125,-0.00000011920928955078125,124928.0,16384.0,-262144.0,262144.0
Raw,1758239422999,260260937687,18,,-1442274380739062272,0.0,10.220216751098633,,,48107,30,0.0,16399,431440917925627,17,30.399999618530273,-733.5291137695312,0.13819599151611328,16,-2190153.6103850896,0.19286522269248962,1575420000,,,,0,,1,7.800000190734863,26.899999618530273,4.190951585769653,,4.190951585769653,,C,3066218805139021,0,-24838213.38215368,-746020.656930632,9913654.813504802,1107.611055655294,-609.1777642010936,2753.5171742628845,-9337.233418306847,0.004032193506645854,0.000000020489096641540527,0.000000014901161193847656,-0.00000011920928955078125,-0.00000011920928955078125,124928.0,16384.0,-262144.0,262144.0
Raw,1758239422999,260260937687,18,,-1442274380739062272,0.0,10.220216751098633,,,48107,21,0.0,16399,431440918410079,16,31.399999618530273,-616.7919921875,0.12846700847148895,16,-177872.25495026354,0.18598586320877075,1575420000,,,,0,,1,7.800000190734863,27.899999618530273,-9.313225746154785,,-9.313225746154785,,C,3066218805139021,0,-13958781.535526821,7103722.198004678,21449663.68750646,-1847.4329796126492,-2002.4185514260287,-538.5241702511191,73282.39316274952,0.0058597705501597375,0.000000020489096641540527,0.000000014901161193847656,-0.00000011920928955078125,-0.00000011920928955078125,124928.0,16384.0,-262144.0,262144.0
Raw,1758239422999,260260937687,18,,-1442274380739062272,0.0,10.220216751098633,,,48107,3,0.0,16391,431440917250210,18,29.399999618530273,476.5090026855469,0.1490735113620758,16,-4480761.871066132,0.20055672526359558,1575420000,,,,0,,1,7.800000190734863,25.899999618530273,1.3969838619232178,,1.3969838619232178,,C,3066218805139021,0,-9826004.908428892,-21565932.63181784,-12289357.435794227,1164.7914037719324,989.2378909824574,-2699.571290249327,201948.6704490918,-0.0009253863827325404,0.000000020489096641540527,0.000000014901161193847656,-0.00000011920928955078125,-0.00000011920928955078125,124928.0,16384.0,-262144.0,262144.0
Raw,1758239422999,260260937687,18,,-1442274380739062272,0.0,10.220216751098633,,,48107,4,0.0,16399,431440930783512,16,31.100000381469727,106.49170684814453,0.13127493858337402,16,12131.42165855039,0.1879713535308838,1575420000,,,,0,,1,7.800000190734863,27.600000381469727,-4.656612873077393,,-4.656612873077393,,C,3066218805139021,0,459141.40619855653,-24561029.07243991,9904715.01110215,602.129029588442,-1131.6737764888994,-2856.095952380523,2511.4649942002475,0.000781678265411756,0.000000020489096641540527,0.000000014901161193847656,-0.00000011920928955078125,-0.00000011920928955078125,124928.0,16384.0,-262144.0,262144.0
Raw,1758239422999,260260937687,18,,-1442274380739062272,0.0,10.220216751098633,,,48107,4,0.0,32995,10222935663902,10,49.0,43.96647262573242,0.04830334335565567,25,3690545.384092547,0.03415529429912567,1605375000,,,,0,,3,7.800000190734863,45.5,12.997031211853034,,12.997031211853034,,C,3066218805139021,0,,,,,,,,,0.000000020489096641540527,0.000000014901161193847656,-0.00000011920928955078125,-0.00000011920928955078125,124928.0,16384.0,-262144.0,262144.0
Raw,1758239422999,260260937687,18,,-1442274380739062272,0.0,10.220216751098633,,,48107,27,0.0,19464,431440920995207,10,45.79999923706055,-406.66400146484375,0.0558880940079689,25,-1851969.8679624277,0.03951847180724144,1575420000,,,,0,,6,7.800000190734863,42.29999923706055,-0.23754731515190364,,-0.23754731515190364,,C,3066218805139021,0,-7533753.992801264,-25406005.066541027,13185297.542231338,750.5010175707025,1089.500380432152,2529.799738098417,-232060.02666290206,-0.0031069455726537853,0.000000020489096641540527,0.000000014901161193847656,-0.00000011920928955078125,-0.00000011920928955078125,124928.0,16384.0,-262144.0,262144.0
Raw,1758239422999,260260937687,18,,-1442274380739062272,0.0,10.220216751098633,,,48107,14,0.0,32995,10222933814266,10,45.099998474121094,119.27486419677734,0.05778476968407631,25,-3064994.473100106,0.040859609842300415,1598062500,,,,0,,3,7.800000190734863,41.599998474121094,12.997031211853034,,12.997031211853034,,C,3066218805139021,0,,,,,,,,,0.000000020489096641540527,0.000000014901161193847656,-0.00000011920928955078125,-0.00000011920928955078125,124928.0,16384.0,-262144.0,262144.0
Raw,1758239422999,260260937687,18,,-1442274380739062272,0.0,10.220216751098633,,,48107,15,0.0,32995,10222932852219,10,44.5,-524.7141723632812,0.05948840081691742,25,609138.5395567374,0.04206424951553345,1602000000,,,,0,,3,7.800000190734863,41.0,12.997031211853034,,12.997031211853034,,C,3066218805139021,0,,,,,,,,,0.000000020489096641540527,0.000000014901161193847656,-0.00000011920928955078125,-0.00000011920928955078125,124928.0,16384.0,-262144.0,262144.0
Raw,1758239422999,260260937687,18,,-1442274380739062272,0.0,10.220216751098633,,,48107,3,0.0,32995,10222925508382,10,44.599998474121094,558.3411865234375,0.05919927731156349,25,3336177.4670238933,0.041859809309244156,1604812500,,,,0,,3,7.800000190734863,41.099998474121094,12.997031211853034,,12.997031211853034,,C,3066218805139021,0,,,,,,,,,0.000000020489096641540527,0.000000014901161193847656,-0.00000011920928955078125,-0.00000011920928955078125,124928.0,16384.0,-262144.0,262144.0
Raw,1758239422999,260260937687,18,,-1442274380739062272,0.0,10.220216751098633,,,48107,5,0.0,32995,10222932363807,10,42.70000076293945,-710.1538696289062,0.0650770515203476,25,1050582.511340105,0.04601598158478737,1602562600,,,,0,,3,7.800000190734863,39.20000076293945,12.997031211853034,,12.997031211853034,,C,3066218805139021,0,,,,,,,,,0.000000020489096641540527,0.000000014901161193847656,-0.00000011920928955078125,-0.00000011920928955078125,124928.0,16384.0,-262144.0,262144.0
Raw,1758239422999,260260937687,18,,-1442274380739062272,0.0,10.220216751098633,,,48107,30,0.0,19464,431440917919838,10,41.900001525878906,98.99222564697266,0.0678168386220932,25,-55926.84504731124,0.0479532852768898,1575420000,,,,0,,6,7.800000190734863,38.400001525878906,-0.23754731515190364,,-0.23754731515190364,,C,3066218805139021,0,9197185.90631329,-15298984.967062484,23604659.22589576,1404.4077723616097,1907.0975996603731,689.5806425254452,-62896.2183051531,-0.012376595732348505,0.000000020489096641540527,0.000000014901161193847656,-0.00000011920928955078125,-0.00000011920928955078125,124928.0,16384.0,-262144.0,262144.0
Raw,1758239422999,260260937687,18,,-1442274380739062272,0.0,10.220216751098633,,,48107,7,0.0,19464,431440919624990,10,39.400001525878906,47.38451385498047,0.0775909498333931,25,-68141.86513018268,0.054864559322595596,1575420000,,,,0,,6,7.800000190734863,35.900001525878906,4.651896201579358,,4.651896201579358,,C,3066218805139021,0,3204773.7509702826,-27278526.04350123,11050476.541973863,372.1234115102192,-1046.2083455966635,-2688.029232726772,-61961.75067527,-0.0005850305897183716,0.000000020489096641540527,0.000000014901161193847656,-0.00000011920928955078125,-0.00000011920928955078125,124928.0,16384.0,-262144.0,262144.0
Raw,1758239422999,260260937687,18,,-1442274380739062272,0.0,10.220216751098633,,,48107,23,0.0,32995,10222919895783,12,36.5,-477.1453552246094,0.09182736277580261,25,2087600.3306712913,0.06493113189935684,1603687600,,,,0,,3,7.800000190734863,33.0,12.997031211853034,,12.997031211853034,,C,3066218805139021,0,,,,,,,,,0.000000020489096641540527,0.000000014901161193847656,-0.00000011920928955078125,-0.00000011920928955078125,124928.0,16384.0,-262144.0,262144.0
Raw,1758239422999,260260937687,18,,-1442274380739062272,0.0,10.220216751098633,,,48107,8,0.0,19464,431440905487354,13,34.599998474121094,287.2255859375,0.1033901646733284,25,-4293866.299683054,0.07310718297958374,1575420000,,,,0,,6,7.800000190734863,31.100000381469727,-5.592652119190905,,-5.592652119190905,,C,3066218805139021,0,15741681.50543837,-23918137.81229177,-7545480.698975386,-373.01153166807626,662.5475863887164,-2880.847279344223,-161057.82382938077,-0.0019577447965275496,0.000000020489096641540527,0.000000014901161193847656,-0.00000011920928955078125,-0.00000011920928955078125,124928.0,16384.0,-262144.0,262144.0
Raw,1758239422999,260260937687,18,,-1442274380739062272,0.0,10.220216751098633,,,48107,13,0.0,32995,10222919779580,15,32.70000076293945,461.89825439453125,0.11728279292583466,25,-513173.22491422074,0.08293066173791885,1600875000,,,,0,,3,7.800000190734863,29.200000762939453,12.997031211853034,,12.997031211853034,,C,3066218805139021,0,,,,,,,,,0.000000020489096641540527,0.000000014901161193847656,-0.00000011920928955078125,-0.00000011920928955078125,124928.0,16384.0,-262144.0,262144.0
Raw,1758239422999,260260937687,18,,-1442274380739062272,0.0,10.220216751098633,,,48107,21,0.0,19464,431440910250985,14,33.900001525878906,-763.9946899414062,0.1082063764333725,25,-1367557.8049052164,0.07651273161172867,1575420000,,,,0,,6,7.800000190734863,30.399999618530273,0.46094461580970525,,0.46094461580970525,,C,3066218805139021,0,-20300841.11877661,-20846433.200435832,-5422634.464507388,-374.0928680131666,-399.9822948015633,2935.773950456746,-207041.73590448397,-0.0006857386324554682,0.000000020489096641540527,0.000000014901161193847656,-0.00000011920928955078125,-0.00000011920928955078125,124928.0,16384.0,-262144.0,262144.0
Raw,1758239422999,260260937687,18,,-1442274380739062272,0.0,10.220216751098633,,,48107,29,0.0,19464,431440920767511,16,31.5,-453.83941650390625,0.12755101919174194,17,-195421.05439388752,0.18533816933631897,1575420000,,,,0,,6,7.800000190734863,28.0,-3.7300069699599483,,-3.7300069699599483,,C,3066218805139021,0,-11606874.066210037,-14293405.808929011,23164540.097045198,892.8747477175784,-2146.844686998278,-877.3519766370744,-40037.036796009976,-0.0010765669867396355,0.000000020489096641540527,0.000000014901161193847656,-0.00000011920928955078125,-0.00000011920928955078125,124928.0,16384.0,-262144.0,262144.0
Raw,1758239422999,260260937687,18,,-1442274380739062272,0.0,10.220216751098633,,,48107,19,0.0,19464,431440911822609,15,32.0,-725.30224609375,0.12311480194330215,25,-4220329.103479237,0.08705447614192963,1575420000,,,,0,,6,7.800000190734863,28.5,-5.825482762844775,,-5.825482762844775,,C,3066218805139021,0,-18797785.04733384,5146815.692455843,22275789.38520341,915.2993946195795,-2039.3467000157184,1243.862021258537,676177.1135877466,0.012251071399077773,0.000000020489096641540527,0.000000014901161193847656,-0.00000011920928955078125,-0.00000011920928955078125,124928.0,16384.0,-262144.0,262144.0
Agc,1758239422999,260260937687,18,,-1442274380739062272,0.0,10.220216751098633,,,48107,7.800000190734863,1575420032,1
Agc,1758239422999,260260937687,18,,-1442274380739062272,0.0,10.220216751098633,,,48107,7.800000190734863,1575420032,1
Agc,1758239422999,260260937687,18,,-1442274380739062272,0.0,10.220216751098633,,,48107,7.800000190734863,1575420032,1
Agc,1758239422999,260260937687,18,,-1442274380739062272,0.0,10.220216751098633,,,48107,7.800000190734863,1575420032,1
Agc,1758239422999,260260937687,18,,-1442274380739062272,0.0,10.220216751098633,,,48107,7.800000190734863,1575420032,1
Agc,1758239422999,260260937687,18,,-1442274380739062272,0.0,10.220216751098633,,,48107,7.800000190734863,1575420032,1
Agc,1758239422999,260260937687,18,,-1442274380739062272,0.0,10.220216751098633,,,48107,7.800000190734863,1575420032,1
Agc,1758239422999,260260937687,18,,-1442274380739062272,0.0,10.220216751098633,,,48107,7.800000190734863,1575420032,1
Agc,1758239422999,260260937687,18,,-1442274380739062272,0.0,10.220216751098633,,,48107,7.800000190734863,1575420032,1
Agc,1758239422999,260260937687,18,,-1442274380739062272,0.0,10.220216751098633,,,48107,7.800000190734863,1575420032,1
Agc,1758239422999,260260937687,18,,-1442274380739062272,0.0,10.220216751098633,,,48107,7.800000190734863,1605374976,3
Agc,1758239422999,260260937687,18,,-1442274380739062272,0.0,10.220216751098633,,,48107,7.800000190734863,1575420032,6
Agc,1758239422999,260260937687,18,,-1442274380739062272,0.0,10.220216751098633,,,48107,7.800000190734863,1598062464,3
Agc,1758239422999,260260937687,18,,-1442274380739062272,0.0,10.220216751098633,,,48107,7.800000190734863,1602000000,3
Agc,1758239422999,260260937687,18,,-1442274380739062272,0.0,10.220216751098633,,,48107,7.800000190734863,1604812544,3
Agc,1758239422999,260260937687,18,,-1442274380739062272,0.0,10.220216751098633,,,48107,7.800000190734863,1602562560,3
Agc,1758239422999,260260937687,18,,-1442274380739062272,0.0,10.220216751098633,,,48107,7.800000190734863,1575420032,6
Agc,1758239422999,260260937687,18,,-1442274380739062272,0.0,10.220216751098633,,,48107,7.800000190734863,1575420032,6
Agc,1758239422999,260260937687,18,,-1442274380739062272,0.0,10.220216751098633,,,48107,7.800000190734863,1603687552,3
Agc,1758239422999,260260937687,18,,-1442274380739062272,0.0,10.220216751098633,,,48107,7.800000190734863,1575420032,6
Agc,1758239422999,260260937687,18,,-1442274380739062272,0.0,10.220216751098633,,,48107,7.800000190734863,1600875008,3
Agc,1758239422999,260260937687,18,,-1442274380739062272,0.0,10.220216751098633,,,48107,7.800000190734863,1575420032,6
Agc,1758239422999,260260937687,18,,-1442274380739062272,0.0,10.220216751098633,,,48107,7.800000190734863,1575420032,6
Agc,1758239422999,260260937687,18,,-1442274380739062272,0.0,10.220216751098633,,,48107,7.800000190734863,1575420032,6
Fix,NLP,40.1522048000,-105.1124158000,1497.9000244140625,,55.395,,1758239422624,,,3066218180000000,1.211774,0,,,
Fix,GPS,40.1523340959,-105.1121689193,1500.0,0.22,2.0408163,89.3,1758239424000,0.26,13.4,3066219805138173,1.0,0,,,
Fix,FLP,40.1523341000,-105.1121689000,1497.9000244140625,0.22,1.616,89.0,1758239424249,0.26,13.4,3066219805138173,0.65255064,0,,,
Status,1758239424000,24,0,1,9,1575420000,38.00,297.2,74.7,1,0,1,34.5
Status,1758239424000,24,1,1,4,1575420000,30.60,137.8,60.6,1,0,1,27.1
Status,1758239424000,24,2,1,16,1575420000,41.90,50.6,45.6,1,0,1,38.4
Status,1758239424000,24,3,1,7,1575420000,40.40,288.9,41.7,0,0,1,36.9
Status,1758239424000,24,4,1,27,1575420000,38.70,102.3,35.7,1,0,1,35.2
Status,1758239424000,24,5,1,8,1575420000,38.70,141.6,30.2,1,0,1,35.2
