# 
# Header Description:
# 
# Version: v3.1.1.1 Platform: 16 Manufacturer: Google Model: Pixel 8a GNSS Hardware Model Name: S.LSI,K041,SPOTNAV_4.15.4_3_250220_R2_258342
# 
# Raw,utcTimeMillis,TimeNanos,LeapSecond,TimeUncertaintyNanos,FullBiasNanos,BiasNanos,BiasUncertaintyNanos,DriftNanosPerSecond,DriftUncertaintyNanosPerSecond,HardwareClockDiscontinuityCount,Svid,TimeOffsetNanos,State,ReceivedSvTimeNanos,ReceivedSvTimeUncertaintyNanos,Cn0DbHz,PseudorangeRateMetersPerSecond,PseudorangeRateUncertaintyMetersPerSecond,AccumulatedDeltaRangeState,AccumulatedDeltaRangeMeters,AccumulatedDeltaRangeUncertaintyMeters,CarrierFrequencyHz,CarrierCycles,CarrierPhase,CarrierPhaseUncertainty,MultipathIndicator,SnrInDb,ConstellationType,AgcDb,BasebandCn0DbHz,FullInterSignalBiasNanos,FullInterSignalBiasUncertaintyNanos,SatelliteInterSignalBiasNanos,SatelliteInterSignalBiasUncertaintyNanos,CodeType,ChipsetElapsedRealtimeNanos,IsFullTracking,SvPositionEcefXMeters,SvPositionEcefYMeters,SvPositionEcefZMeters,SvVelocityEcefXMetersPerSecond,SvVelocityEcefYMetersPerSecond,SvVelocityEcefZMetersPerSecond,SvClockBiasMeters,SvClockDriftMetersPerSecond,KlobucharAlpha0,KlobucharAlpha1,KlobucharAlpha2,KlobucharAlpha3,KlobucharBeta0,KlobucharBeta1,KlobucharBeta2,KlobucharBeta3
# 
# UncalAccel,utcTimeMillis,elapsedRealtimeNanos,UncalAccelXMps2,UncalAccelYMps2,UncalAccelZMps2,BiasXMps2,BiasYMps2,BiasZMps2,CalibrationAccuracy
# 
# Accel,utcTimeMillis,elapsedRealtimeNanos,AccelXMps2,AccelYMps2,AccelZMps2,CalibrationAccuracy
# 
# UncalGyro,utcTimeMillis,elapsedRealtimeNanos,UncalGyroXRadPerSec,UncalGyroYRadPerSec,UncalGyroZRadPerSec,DriftXRadPerSec,DriftYRadPerSec,DriftZRadPerSec,CalibrationAccuracy
# 
# Gyro,utcTimeMillis,elapsedRealtimeNanos,GyroXRadPerSec,GyroYRadPerSec,GyroZRadPerSec,CalibrationAccuracy
# 
# UncalMag,utcTimeMillis,elapsedRealtimeNanos,UncalMagXMicroT,UncalMagYMicroT,UncalMagZMicroT,BiasXMicroT,BiasYMicroT,BiasZMicroT,CalibrationAccuracy
# 
# Mag,utcTimeMillis,elapsedRealtimeNanos,MagXMicroT,MagYMicroT,MagZMicroT,CalibrationAccuracy
# 
# Pressure,utcTimeMillis,elapsedRealtimeNanos,PressureHpa,CalibrationAccuracy
# 
# OrientationDeg,utcTimeMillis,elapsedRealtimeNanos,yawDeg,rollDeg,pitchDeg,CalibrationAccuracy
# 
# Fix,Provider,LatitudeDegrees,LongitudeDegrees,AltitudeMeters,SpeedMps,AccuracyMeters,BearingDegrees,UnixTimeMillis,SpeedAccuracyMps,BearingAccuracyDegrees,elapsedRealtimeNanos,VerticalAccuracyMeters,MockLocation,NumberOfUsedSignals,VerticalSpeedAccuracyMps,SolutionType
# 
# Nav,Svid,Type,Status,MessageId,Sub-messageId,Data(Bytes)
# 
# Status,UnixTimeMillis,SignalCount,SignalIndex,ConstellationType,Svid,CarrierFrequencyHz,Cn0DbHz,AzimuthDegrees,ElevationDegrees,UsedInFix,HasAlmanacData,HasEphemerisData,BasebandCn0DbHz
# 
# Agc,utcTimeMillis,TimeNanos,LeapSecond,TimeUncertaintyNanos,FullBiasNanos,BiasNanos,BiasUncertaintyNanos,DriftNanosPerSecond,DriftUncertaintyNanosPerSecond,HardwareClockDiscontinuityCount,AgcDb,CarrierFrequencyHz,ConstellationType
# 
Fix,FLP,40.0344288000,-105.2537151000,1608.1617748461465,16.56,11.178,180.0,1758762625322,0.33,0.4,3589431106218570,0.65266085,0,,,
Fix,GPS,40.0342654763,-105.2537072450,1599.0,16.76,3.0612245,179.5,1758762626000,0.29,0.3,3589432106218989,2.0,0,,,
Fix,FLP,40.0342655000,-105.2537072000,1608.2557171806511,16.76,9.555,179.0,1758762626322,0.29,0.3,3589432106218989,1.0421063,0,,,
Status,1758762626000,27,0,1,7,1575420000,40.60,355.5,74.3,1,0,1,37.1
Status,1758762626000,27,1,1,8,1575420000,40.90,76.0,51.3,1,0,1,37.4
Status,1758762626000,27,2,1,30,1575420000,39.90,307.2,48.5,1,0,1,36.4
Status,1758762626000,27,3,1,9,1575420000,37.50,181.2,44.9,1,0,1,34.0
Status,1758762626000,27,4,1,14,1575420000,43.90,248.6,29.3,1,0,1,40.4
Status,1758762626000,27,5,1,27,1575420000,39.10,47.5,25.7,1,0,1,35.6
Status,1758762626000,27,6,1,21,1575420000,35.30,276.8,14.6,1,0,1,31.8
Status,1758762626000,27,7,1,22,1575420000,40.80,242.1,14.1,1,0,1,37.3
Status,1758762626000,27,8,1,4,1575420000,32.10,157.5,11.9,1,0,1,28.6
Status,1758762626000,27,9,1,2,1575420000,32.80,117.5,8.0,1,0,1,29.3
Status,1758762626000,27,10,1,5,1575420000,34.50,307.2,8.0,1,0,1,31.0
Status,1758762626000,27,11,3,13,1600875000,28.40,21.2,54.0,1,0,1,24.9
Status,1758762626000,27,12,3,3,1604812500,45.10,231.4,51.8,1,0,1,41.6
Status,1758762626000,27,13,3,4,1605375000,41.00,310.5,41.0,1,0,1,37.5
Status,1758762626000,27,14,3,14,1598062500,44.10,285.6,38.4,1,0,1,40.6
Status,1758762626000,27,15,3,23,1603687600,33.50,99.9,24.1,1,0,1,30.0
Status,1758762626000,27,16,3,22,1600312400,35.70,53.4,21.4,1,0,1,32.2
Status,1758762626000,27,17,3,12,1601437400,41.40,60.5,17.1,1,0,1,37.9
Status,1758762626000,27,18,3,2,1599750000,38.20,182.0,11.6,1,0,1,34.7
Status,1758762626000,27,19,6,23,1575420000,42.30,322.7,82.6,1,0,1,38.8
Status,1758762626000,27,20,6,4,1575420000,44.60,263.2,70.6,1,0,1,41.1
Status,1758762626000,27,21,6,6,1575420000,39.40,302.7,49.6,1,0,1,35.9
Status,1758762626000,27,22,6,19,1575420000,27.30,160.0,36.4,1,0,1,23.8
Status,1758762626000,27,23,6,31,1575420000,42.30,241.9,35.0,1,0,1,38.8
Status,1758762626000,27,24,6,21,1575420000,40.90,50.6,34.8,1,0,1,37.4
Status,1758762626000,27,25,6,9,1575420000,28.90,315.4,26.8,1,0,1,25.4
Status,1758762626000,27,26,6,14,1575420000,41.70,82.7,45.8,0,0,1,38.2
Raw,1758762625999,5658183640,18,,-1442797838341816320,0.0,10.355074882507324,,,48209,14,0.0,16399,349843923936304,10,43.900001525878906,-369.65875244140625,0.06126849725842476,25,-9195.746528467658,0.04332295432686806,1575420000,,,,0,,1,7.800000190734863,40.400001525878906,-7.916241884231567,,-7.916241884231567,,C,3589432106218989,0,-22824303.390315026,-12651832.434369411,5756390.829942206,777.0619617947489,-40.0572185591745,3005.11302285624,209541.21800864185,0.001736783771775663,0.00000002514570951461792,0.000000022351741790771484,-0.00000011920928955078125,-0.00000011920928955078125,133120.0,0.0,-262144.0,262144.0
Raw,1758762625999,5658183640,18,,-1442797838341816320,0.0,10.355074882507324,,,48209,8,0.0,16399,349843930384174,10,40.900001525878906,302.826904296875,0.07149188965559006,25,-3827.363966597477,0.05055191367864609,1575420000,,,,0,,1,7.800000190734863,37.400001525878906,4.656612873077393,,4.656612873077393,,C,3589432106218989,0,8241007.13252328,-18233272.184760887,17074997.26149455,750.9724398274657,2103.4130255224986,1912.2068997952842,159019.61214120747,-0.0013127767597325146,0.00000002514570951461792,0.000000022351741790771484,-0.00000011920928955078125,-0.00000011920928955078125,133120.0,0.0,-262144.0,262144.0
Raw,1758762625999,5658183640,18,,-1442797838341816320,0.0,10.355074882507324,,,48209,7,0.0,16399,349843930642270,10,40.599998474121094,-12.016142845153809,0.07265277206897736,25,-5509.292869205296,0.051372773945331573,1575420000,,,,0,,1,7.800000190734863,37.099998474121094,-10.710209608078003,,-10.710209608078003,,C,3589432106218989,0,-4784519.257099674,-15929636.579827847,21211632.284458965,1996.6909943139897,-1625.1028510321607,-833.9706816354261,-24311.313341981455,-0.0003057622379856184,0.00000002514570951461792,0.000000022351741790771484,-0.00000011920928955078125,-0.00000011920928955078125,133120.0,0.0,-262144.0,262144.0
Raw,1758762625999,5658183640,18,,-1442797838341816320,0.0,10.355074882507324,,,48209,22,0.0,16399,349843919623084,10,40.79999923706055,-434.9734191894531,0.07187574356794357,17,-7772.233468892329,0.1459701657295227,1575420000,,,,0,,1,7.800000190734863,37.29999923706055,-11.175870895385742,,-11.175870895385742,,C,3589432106218989,0,-24228100.745189168,-10418042.347087944,-451597.1903433094,36.837675291776364,-331.13262973561274,3190.839513382533,-27105.177282339122,-0.000014473022019956261,0.00000002514570951461792,0.000000022351741790771484,-0.00000011920928955078125,-0.00000011920928955078125,133120.0,0.0,-262144.0,262144.0
Raw,1758762625999,5658183640,18,,-1442797838341816320,0.0,10.355074882507324,,,48209,30,0.0,16399,349843927846548,10,39.900001525878906,-266.9822082519531,0.07547397166490555,17,-6892.247441063722,0.14851447939872742,1575420000,,,,0,,1,7.800000190734863,36.400001525878906,4.190951585769653,,4.190951585769653,,C,3589432106218989,0,-14072519.798663687,-8323527.735735484,21143876.196077432,1946.9209575785528,-1797.6816041356033,567.0161005518407,-7595.371008110463,0.003970688582739967,0.00000002514570951461792,0.000000022351741790771484,-0.00000011920928955078125,-0.00000011920928955078125,133120.0,0.0,-262144.0,262144.0
Raw,1758762625999,5658183640,18,,-1442797838341816320,0.0,10.355074882507324,,,48209,27,0.0,16399,349843923706353,10,39.099998474121094,664.4673461914062,0.07890418916940689,17,-1885.4125524529954,0.15093998610973358,1575420000,,,,0,,1,7.800000190734863,35.599998474121094,1.862645149230957,,1.862645149230957,,C,3589432106218989,0,13722783.694027308,-7400134.294730116,21120255.962295648,646.0162468689824,2692.895726979436,557.8984946989448,-7802.098417670666,-0.0015169704138315865,0.00000002514570951461792,0.000000022351741790771484,-0.00000011920928955078125,-0.00000011920928955078125,133120.0,0.0,-262144.0,262144.0
Raw,1758762625999,5658183640,18,,-1442797838341816320,0.0,10.355074882507324,,,48209,9,0.0,16399,349843928646790,11,37.5,668.46435546875,0.08650518953800201,25,-3737.9714376899647,0.061167821288108826,1575420000,,,,0,,1,7.800000190734863,34.0,0.46566128730773926,,0.46566128730773926,,C,3589432106218989,0,-7274713.3739830665,-25400348.872508317,2179426.755640416,211.60909360184118,-344.6076260775317,-3168.340257131724,223319.40514018683,0.001280933734960854,0.00000002514570951461792,0.000000022351741790771484,-0.00000011920928955078125,-0.00000011920928955078125,133120.0,0.0,-262144.0,262144.0
Raw,1758762625999,5658183640,18,,-1442797838341816320,0.0,10.355074882507324,,,48209,21,0.0,16399,349843919438781,13,35.29999923706055,414.0677795410156,0.09888850152492523,17,-5065.142883969122,0.16507089138031006,1575420000,,,,0,,1,7.800000190734863,31.799999237060547,-9.313225746154785,,-9.313225746154785,,C,3589432106218989,0,-24507678.36281137,-1404492.1762442365,10148109.514591053,-1124.7050875893474,-676.582091803653,-2808.9457121508253,76283.49501936481,0.0056323522148886696,0.00000002514570951461792,0.000000022351741790771484,-0.00000011920928955078125,-0.00000011920928955078125,133120.0,0.0,-262144.0,262144.0
Raw,1758762625999,5658183640,18,,-1442797838341816320,0.0,10.355074882507324,,,48209,5,0.0,16399,349843917018572,13,34.5,211.9648895263672,0.10405827313661575,17,-6140.8930543939205,0.16872644424438477,1575420000,,,,0,,1,7.800000190734863,31.0,-10.710209608078003,,-10.710209608078003,,C,3589432106218989,0,-18339235.15740212,7095726.63572348,17691445.26140997,-2148.849873601135,-764.9300309996943,-1897.902231767888,-66027.60087129958,-0.0006498252914752811,0.00000002514570951461792,0.000000022351741790771484,-0.00000011920928955078125,-0.00000011920928955078125,133120.0,0.0,-262144.0,262144.0
Raw,1758762625999,5658183640,18,,-1442797838341816320,0.0,10.355074882507324,,,48209,4,0.0,16399,349843918635644,15,32.099998474121094,850.2306518554688,0.1222553625702858,16,-6674.318899839898,0.18159359693527222,1575420000,,,,0,,1,7.800000190734863,28.600000381469727,-4.656612873077393,,-4.656612873077393,,C,3589432106218989,0,2755265.0678617493,-24520074.540087495,-9582737.578040097,434.76851319174324,1170.2461392301161,-2879.065153997952,3053.625383044728,0.0006833857669334975,0.00000002514570951461792,0.000000022351741790771484,-0.00000011920928955078125,-0.00000011920928955078125,133120.0,0.0,-262144.0,262144.0
Raw,1758762625999,5658183640,18,,-1442797838341816320,0.0,10.355074882507324,,,48209,2,0.0,16391,349843917934564,15,32.79999923706055,-341.5154113769531,0.11648360639810562,16,-7276.109884325822,0.17751239240169525,1575420000,,,,0,,1,7.800000190734863,29.299999237060547,-17.695128917694092,,-17.695128917694092,,C,3589432106218989,0,16935524.98690875,-19930885.77772587,-2310471.12174461,467.2049219851013,-35.62412115018125,3198.2411892927926,-19729.386601022503,0.0014982600514485966,0.00000002514570951461792,0.000000022351741790771484,-0.00000011920928955078125,-0.00000011920928955078125,133120.0,0.0,-262144.0,262144.0
Raw,1758762625999,5658183640,18,,-1442797838341816320,0.0,10.355074882507324,,,48209,3,0.0,32867,15025932850216,10,45.099998474121094,537.8632202148438,0.05778476968407631,17,876445.9882521937,0.134263813495636,1604812500,,,,0,,3,7.800000190734863,41.599998474121094,4.656612873077392,,4.656612873077392,,C,3589432106218989,0,-15202487.362323783,-18694849.79515363,8308796.582907585,-720.1934117410461,-893.7391661564179,-3350.9227078577824,39047.444824757054,0.0,0.00000002514570951461792,0.000000022351741790771484,-0.00000011920928955078125,-0.00000011920928955078125,133120.0,0.0,-262144.0,262144.0
Raw,1758762625999,5658183640,18,,-1442797838341816320,0.0,10.355074882507324,,,48209,4,0.0,19456,349843921220585,10,44.599998474121094,128.88734436035156,0.05919927731156349,25,-8507.712770836304,0.041859809309244156,1575420000,,,,0,,6,7.800000190734863,41.099998474121094,-7.62520357966423,,-7.62520357966423,,C,3589432106218989,0,-13363731.996209774,-19654689.940457713,17643938.746497396,-149.96772995519558,-1764.2520986593327,-2077.9890213882477,-104741.10894584602,-0.0031165595864877105,0.00000002514570951461792,0.000000022351741790771484,-0.00000011920928955078125,-0.00000011920928955078125,133120.0,0.0,-262144.0,262144.0
Raw,1758762625999,5658183640,18,,-1442797838341816320,0.0,10.355074882507324,,,48209,14,0.0,32867,15025929746781,10,44.099998474121094,-213.7701416015625,0.060666363686323166,17,-535498.0114011958,0.13669592142105103,1598062500,,,,0,,3,7.800000190734863,40.599998474121094,4.656612873077392,,4.656612873077392,,C,3589432106218989,0,-18488749.063096102,-7472175.519455503,15934145.296484802,2178.2130773657627,66.75343928175607,2558.743770989028,8937.861924521625,0.0,0.00000002514570951461792,0.000000022351741790771484,-0.00000011920928955078125,-0.00000011920928955078125,133120.0,0.0,-262144.0,262144.0
Raw,1758762625999,5658183640,18,,-1442797838341816320,0.0,10.355074882507324,,,48209,31,0.0,19456,349843914943393,10,42.29999923706055,-256.6461181640625,0.06642576307058334,25,-10498.184678320373,0.04696965590119362,1575420000,,,,0,,6,7.800000190734863,38.79999923706055,0.7566995918750763,,0.7566995918750763,,C,3589432106218989,0,-23654014.04596562,-16758269.265400551,5984304.844751251,506.16389417253504,326.2622732744624,2919.6182786801246,-26833.609806459615,-0.0006492949360108469,0.00000002514570951461792,0.000000022351741790771484,-0.00000011920928955078125,-0.00000011920928955078125,133120.0,0.0,-262144.0,262144.0
Raw,1758762625999,5658183640,18,,-1442797838341816320,0.0,10.355074882507324,,,48209,23,0.0,19456,349843922355429,10,42.29999923706055,154.7866973876953,0.06642576307058334,25,-8372.050571745065,0.04696965590119362,1575420000,,,,0,,6,7.800000190734863,38.79999923706055,-1.57160684466362,,-1.57160684466362,,C,3589432106218989,0,-7272099.784964667,-19808659.59887463,20760130.66972944,1841.359434373434,972.5811675245186,1572.35307590489,-3268.5488284160747,-0.000316414922963304,0.00000002514570951461792,0.000000022351741790771484,-0.00000011920928955078125,-0.00000011920928955078125,133120.0,0.0,-262144.0,262144.0
Raw,1758762625999,5658183640,18,,-1442797838341816320,0.0,10.355074882507324,,,48209,12,0.0,32867,15025923585116,10,41.400001525878906,678.1635131835938,0.06961800158023834,25,-21835.49141999514,0.04922688752412796,1601437400,,,,0,,3,7.800000190734863,37.900001525878906,4.656612873077392,,4.656612873077392,,C,3589432106218989,0,17590612.30647905,-8043103.654741871,16660203.757231636,2274.656364312778,-113.39634091461721,-2459.2786549763628,17860.013724352302,0.0002726596521824831,0.00000002514570951461792,0.000000022351741790771484,-0.00000011920928955078125,-0.00000011920928955078125,133120.0,0.0,-262144.0,262144.0
Raw,1758762625999,5658183640,18,,-1442797838341816320,0.0,10.355074882507324,,,48209,14,0.0,19456,349843919168644,10,41.70000076293945,-366.6065368652344,0.06852881610393524,25,-14583.811767481027,0.04845672473311424,1575420000,,,,0,,6,7.800000190734863,38.20000076293945,-6.228219717741013,,-6.228219717741013,,C,3589432106218989,0,12027958.6688356,-20843024.848192986,17271291.028821006,102.77988057394256,1975.410574537714,1377.0704442450117,490314.2211472923,0.15107230184366927,0.00000002514570951461792,0.000000022351741790771484,-0.00000011920928955078125,-0.00000011920928955078125,133120.0,0.0,-262144.0,262144.0
Raw,1758762625999,5658183640,18,,-1442797838341816320,0.0,10.355074882507324,,,48209,4,0.0,32867,15025930640642,10,41.0,-189.76837158203125,0.07111111283302307,17,957246.728083132,0.14365413784980774,1605375000,,,,0,,3,7.800000190734863,37.5,4.656612873077392,,4.656612873077392,,C,3589432106218989,0,-13867607.785417764,-5361343.372238112,20742874.096628785,-1465.769558375528,-2431.8712362852807,-1612.2235494891447,93776.76227058387,0.0005453193043649662,0.00000002514570951461792,0.000000022351741790771484,-0.00000011920928955078125,-0.00000011920928955078125,133120.0,0.0,-262144.0,262144.0
Raw,1758762625999,5658183640,18,,-1442797838341816320,0.0,10.355074882507324,,,48209,21,0.0,19456,349843914212217,10,40.900001525878906,555.4028930664062,0.07149188965559006,25,-6310.542889298021,0.05055191367864609,1575420000,,,,0,,6,7.800000190734863,37.400001525878906,-2.5029294192790985,,-2.5029294192790985,,C,3589432106218989,0,13652063.453117657,-11485538.242155865,23623196.340963747,2115.8447917479652,1064.3291978723064,-705.2359533482456,-207393.30683000942,-0.0006682839593850076,0.00000002514570951461792,0.000000022351741790771484,-0.00000011920928955078125,-0.00000011920928955078125,133120.0,0.0,-262144.0,262144.0
Raw,1758762625999,5658183640,18,,-1442797838341816320,0.0,10.355074882507324,,,48209,6,0.0,19456,349843918285533,10,39.400001525878906,-128.89956665039062,0.0775909498333931,25,-11639.564591733586,0.054864559322595596,1575420000,,,,0,,6,7.800000190734863,35.900001525878906,0.29103830456733704,,0.29103830456733704,,C,3589432106218989,0,-16447574.024758551,-9666066.776812866,22609576.459979948,-145.0261140999311,-2266.858021841488,-1073.8732260108918,-51676.54170905043,-0.0015044722604216076,0.00000002514570951461792,0.000000022351741790771484,-0.00000011920928955078125,-0.00000011920928955078125,133120.0,0.0,-262144.0,262144.0
Raw,1758762625999,5658183640,18,,-1442797838341816320,0.0,10.355074882507324,,,48209,2,0.0,32867,15025921990313,11,38.20000076293945,972.5980224609375,0.08305026590824127,25,-275036.21752307797,0.058724842965602875,1599750000,,,,0,,3,7.800000190734863,34.70000076293945,4.656612873077392,,4.656612873077392,,C,3589432106218989,0,-6902532.037873191,-22177545.05248734,-10419239.420638286,546.9410606248484,1340.450235722512,-3210.206089053779,-6904.98135871999,0.0,0.00000002514570951461792,0.000000022351741790771484,-0.00000011920928955078125,-0.00000011920928955078125,133120.0,0.0,-262144.0,262144.0
Raw,1758762625999,5658183640,18,,-1442797838341816320,0.0,10.355074882507324,,,48209,22,0.0,32867,15025925003952,12,35.70000076293945,141.18783569335938,0.09644688665866852,17,-194138.35364805395,0.16186444461345673,1600312400,,,,0,,3,7.800000190734863,32.20000076293945,4.656612873077392,,4.656612873077392,,C,3589432106218989,0,15387038.549981628,-7476555.468191453,18949594.119858164,-1451.0002814085547,2144.2875443265125,2027.4069881109585,26117.940436898538,0.0005453193043649662,0.00000002514570951461792,0.000000022351741790771484,-0.00000011920928955078125,-0.00000011920928955078125,133120.0,0.0,-262144.0,262144.0
Raw,1758762625999,5658183640,18,,-1442797838341816320,0.0,10.355074882507324,,,48209,23,0.0,32867,15025925696549,14,33.5,-385.7059631347656,0.1111111119389534,17,703878.4408912216,0.17203639447689056,1603687600,,,,0,,3,7.800000190734863,30.0,4.656612873077392,,4.656612873077392,,C,3589432106218989,0,15549567.269815855,-18874030.776232354,7268257.148848259,-706.508252329121,734.902896846716,3417.8352515103697,-49938.53959322855,-0.0002726596521824831,0.00000002514570951461792,0.000000022351741790771484,-0.00000011920928955078125,-0.00000011920928955078125,133120.0,0.0,-262144.0,262144.0
Raw,1758762625999,5658183640,18,,-1442797838341816320,0.0,10.355074882507324,,,48209,9,0.0,19456,349843912671922,18,28.899999618530273,-309.7838439941406,0.15500031411647797,17,-17975.628720867287,0.20474755764007568,1575420000,,,,0,,6,7.800000190734863,25.399999618530273,-2.9685907065868378,,-2.9685907065868378,,C,3589432106218989,0,-16662164.35250918,1168446.9179249075,24427486.994544372,-136.0126243046119,-2448.746322311253,25.66484950333825,-7680.948413252611,-0.0046545274235541,0.00000002514570951461792,0.000000022351741790771484,-0.00000011920928955078125,-0.00000011920928955078125,133120.0,0.0,-262144.0,262144.0
Raw,1758762625999,5658183640,18,,-1442797838341816320,0.0,10.355074882507324,,,48209,13,0.0,32867,15025932979657,19,28.399999618530273,373.8128356933594,0.16128772497177124,16,-107991.04974214996,0.20768049359321594,1600875000,,,,0,,3,7.800000190734863,24.899999618530273,4.656612873077392,,4.656612873077392,,C,3589432106218989,0,1431112.8800144682,-11042704.03736004,22938352.330882225,3142.5377404758156,-57.277509879866585,-223.078227322271,-18840.092682208866,0.0,0.00000002514570951461792,0.000000022351741790771484,-0.00000011920928955078125,-0.00000011920928955078125,133120.0,0.0,-262144.0,262144.0
Raw,1758762625999,5658183640,18,,-1442797838341816320,0.0,10.355074882507324,,,48209,19,0.0,19456,349843917676670,20,27.299999237060547,618.5682373046875,0.17654122412204742,16,-15405.440676024024,0.21997913718223572,1575420000,,,,0,,6,7.800000190734863,23.799999237060547,-7.159542292356491,,-7.159542292356491,,C,3589432106218989,0,-848834.6362765792,-29574819.241710696,-944000.7778265446,-81.64961346575103,98.78549607752839,-3026.2632887253235,682572.7963826911,0.012206180370412767,0.00000002514570951461792,0.000000022351741790771484,-0.00000011920928955078125,-0.00000011920928955078125,133120.0,0.0,-262144.0,262144.0
Agc,1758762625999,5658183640,18,,-1442797838341816320,0.0,10.355074882507324,,,48209,7.800000190734863,1575420032,1
Agc,1758762625999,5658183640,18,,-1442797838341816320,0.0,10.355074882507324,,,48209,7.800000190734863,1575420032,1
Agc,1758762625999,5658183640,18,,-1442797838341816320,0.0,10.355074882507324,,,48209,7.800000190734863,1575420032,1
Agc,1758762625999,5658183640,18,,-1442797838341816320,0.0,10.355074882507324,,,48209,7.800000190734863,1575420032,1
Agc,1758762625999,5658183640,18,,-1442797838341816320,0.0,10.355074882507324,,,48209,7.800000190734863,1575420032,1
Agc,1758762625999,5658183640,18,,-1442797838341816320,0.0,10.355074882507324,,,48209,7.800000190734863,1575420032,1
Agc,1758762625999,5658183640,18,,-1442797838341816320,0.0,10.355074882507324,,,48209,7.800000190734863,1575420032,1
Agc,1758762625999,5658183640,18,,-1442797838341816320,0.0,10.355074882507324,,,48209,7.800000190734863,1575420032,1
Agc,1758762625999,5658183640,18,,-1442797838341816320,0.0,10.355074882507324,,,48209,7.800000190734863,1575420032,1
Agc,1758762625999,5658183640,18,,-1442797838341816320,0.0,10.355074882507324,,,48209,7.800000190734863,1575420032,1
Agc,1758762625999,5658183640,18,,-1442797838341816320,0.0,10.355074882507324,,,48209,7.800000190734863,1575420032,1
Agc,1758762625999,5658183640,18,,-1442797838341816320,0.0,10.355074882507324,,,48209,7.800000190734863,1604812544,3
Agc,1758762625999,5658183640,18,,-1442797838341816320,0.0,10.355074882507324,,,48209,7.800000190734863,1575420032,6
Agc,1758762625999,5658183640,18,,-1442797838341816320,0.0,10.355074882507324,,,48209,7.800000190734863,1598062464,3
Agc,1758762625999,5658183640,18,,-1442797838341816320,0.0,10.355074882507324,,,48209,7.800000190734863,1575420032,6
Agc,1758762625999,5658183640,18,,-1442797838341816320,0.0,10.355074882507324,,,48209,7.800000190734863,1575420032,6
Agc,1758762625999,5658183640,18,,-1442797838341816320,0.0,10.355074882507324,,,48209,7.800000190734863,1601437440,3
Agc,1758762625999,5658183640,18,,-1442797838341816320,0.0,10.355074882507324,,,48209,7.800000190734863,1575420032,6
Agc,1758762625999,5658183640,18,,-1442797838341816320,0.0,10.355074882507324,,,48209,7.800000190734863,1605374976,3
Agc,1758762625999,5658183640,18,,-1442797838341816320,0.0,10.355074882507324,,,48209,7.800000190734863,1575420032,6
Agc,1758762625999,5658183640,18,,-1442797838341816320,0.0,10.355074882507324,,,48209,7.800000190734863,1575420032,6
Agc,1758762625999,5658183640,18,,-1442797838341816320,0.0,10.355074882507324,,,48209,7.800000190734863,1599750016,3
Agc,1758762625999,5658183640,18,,-1442797838341816320,0.0,10.355074882507324,,,48209,7.800000190734863,1600312448,3
Agc,1758762625999,5658183640,18,,-1442797838341816320,0.0,10.355074882507324,,,48209,7.800000190734863,1603687552,3
Agc,1758762625999,5658183640,18,,-1442797838341816320,0.0,10.355074882507324,,,48209,7.800000190734863,1575420032,6
Agc,1758762625999,5658183640,18,,-1442797838341816320,0.0,10.355074882507324,,,48209,7.800000190734863,1600875008,3
Agc,1758762625999,5658183640,18,,-1442797838341816320,0.0,10.355074882507324,,,48209,7.800000190734863,1575420032,6
Fix,GPS,40.0341085251,-105.2537003718,1600.0,16.93,2.5510204,179.8,1758762627000,0.37,0.4,3589433106219402,2.0,0,,,
Fix,FLP,40.0341085000,-105.2537004000,1608.171675058138,16.93,8.387,179.0,1758762627322,0.37,0.4,3589433106219402,1.0519843,0,,,
Status,1758762627000,27,0,1,7,1575420000,40.60,355.5,74.3,1,0,1,37.1
Status,1758762627000,27,1,1,8,1575420000,40.90,76.0,51.3,1,0,1,37.4
Status,1758762627000,27,2,1,30,1575420000,40.30,307.2,48.5,1,0,1,36.8
Status,1758762627000,27,3,1,9,1575420000,37.50,181.2,44.9,1,0,1,34.0
Status,1758762627000,27,4,1,14,1575420000,43.90,248.6,29.3,1,0,1,40.4
Status,1758762627000,27,5,1,27,1575420000,39.00,47.5,25.7,1,0,1,35.5
Status,1758762627000,27,6,1,21,1575420000,35.30,276.8,14.6,1,0,1,31.8
Status,1758762627000,27,7,1,22,1575420000,40.70,242.1,14.1,1,0,1,37.2
Status,1758762627000,27,8,1,4,1575420000,32.10,157.5,11.9,1,0,1,28.6
Status,1758762627000,27,9,1,2,1575420000,32.20,117.5,8.0,1,0,1,28.7
Status,1758762627000,27,10,1,5,1575420000,34.60,307.2,8.0,1,0,1,31.1
Status,1758762627000,27,11,3,13,1600875000,28.40,21.2,54.0,1,0,1,24.9
Status,1758762627000,27,12,3,3,1604812500,45.50,231.4,51.8,1,0,1,42.0
Status,1758762627000,27,13,3,4,1605375000,41.60,310.5,41.0,1,0,1,38.1
Status,1758762627000,27,14,3,14,1598062500,44.70,285.6,38.4,1,0,1,41.2
Status,1758762627000,27,15,3,23,1603687600,33.60,99.9,24.1,1,0,1,30.1
Status,1758762627000,27,16,3,22,1600312400,35.90,53.4,21.4,1,0,1,32.4
Status,1758762627000,27,17,3,12,1601437400,41.60,60.5,17.1,1,0,1,38.1
Status,1758762627000,27,18,3,2,1599750000,38.20,182.0,11.6,1,0,1,34.7
Status,1758762627000,27,19,6,23,1575420000,42.40,322.7,82.6,1,0,1,38.9
Status,1758762627000,27,20,6,4,1575420000,44.90,263.2,70.6,1,0,1,41.4
Status,1758762627000,27,21,6,6,1575420000,39.80,302.7,49.6,1,0,1,36.3
Status,1758762627000,27,22,6,19,1575420000,27.30,160.0,36.4,1,0,1,23.8
Status,1758762627000,27,23,6,31,1575420000,42.90,241.9,35.0,1,0,1,39.4
Status,1758762627000,27,24,6,21,1575420000,40.80,50.6,34.8,1,0,1,37.3
Status,1758762627000,27,25,6,9,1575420000,29.10,315.4,26.8,1,0,1,25.6
Status,1758762627000,27,26,6,14,1575420000,41.90,82.7,45.8,0,0,1,38.4
Raw,1758762627000,6658184067,18,,-1442797838341815808,0.0,10.355074882507324,,,48209,14,0.0,16399,349844923937952,10,43.900001525878906,-371.585205078125,0.06126849725842476,25,-9566.203890557503,0.04332295432686806,1575420000,,,,0,,1,7.800000190734863,40.400001525878906,-7.916241884231567,,-7.916241884231567,,C,3589433106219402,0,-22823526.152310535,-12651872.44983261,5759395.887776854,777.4114854737591,-39.97358443339721,3004.9927313514963,209541.2197454333,0.0017367934924550354,0.00000002514570951461792,0.000000022351741790771484,-0.00000011920928955078125,-0.00000011920928955078125,133120.0,0.0,-262144.0,262144.0
Raw,1758762627000,6658184067,18,,-1442797838341815808,0.0,10.355074882507324,,,48209,8,0.0,16399,349844930383598,10,40.900001525878906,301.1573791503906,0.07149188965559006,25,-3525.1820028149814,0.05055191367864609,1575420000,,,,0,,1,7.800000190734863,37.400001525878906,4.656612873077393,,4.656612873077393,,C,3589433106219402,0,8241758.189597707,-18231168.676558517,17076909.280294817,751.1425769407008,2103.605792362103,1911.832896522304,159019.61082846727,-0.0013127051352057606,0.00000002514570951461792,0.000000022351741790771484,-0.00000011920928955078125,-0.00000011920928955078125,133120.0,0.0,-262144.0,262144.0
Raw,1758762627000,6658184067,18,,-1442797838341815808,0.0,10.355074882507324,,,48209,30,0.0,16399,349844927847858,10,40.29999923706055,-268.76715087890625,0.07384215295314789,17,-7159.963031981824,0.14736062288284302,1575420000,,,,0,,1,7.800000190734863,36.79999923706055,4.190951585769653,,4.190951585769653,,C,3589433106219402,0,-14070572.896810498,-8325325.496927077,21144442.99222136,1946.8776392295194,-1797.836063170651,566.5747001872792,-7595.367037447723,0.0039706264878986985,0.00000002514570951461792,0.000000022351741790771484,-0.00000011920928955078125,-0.00000011920928955078125,133120.0,0.0,-262144.0,262144.0
Raw,1758762627000,6658184067,18,,-1442797838341815808,0.0,10.355074882507324,,,48209,7,0.0,16399,349844930642741,10,40.599998474121094,-13.774518966674805,0.07265277206897736,25,-5522.010289828322,0.051372773945331573,1575420000,,,,0,,1,7.800000190734863,37.099998474121094,-10.710209608078003,,-10.710209608078003,,C,3589433106219402,0,-4782522.647717387,-15931261.70931723,21210798.097534336,1996.5258833389698,-1625.154588479445,-834.4023793894512,-24311.31364783594,-0.00030594646887038834,0.00000002514570951461792,0.000000022351741790771484,-0.00000011920928955078125,-0.00000011920928955078125,133120.0,0.0,-262144.0,262144.0
Raw,1758762627000,6658184067,18,,-1442797838341815808,0.0,10.355074882507324,,,48209,22,0.0,16399,349844919624969,10,40.70000076293945,-436.7918701171875,0.07226268202066422,17,-8207.91750365519,0.14624378085136414,1575420000,,,,0,,1,7.800000190734863,37.20000076293945,-11.175870895385742,,-11.175870895385742,,C,3589433106219402,0,-24228063.73285882,-10418373.39758114,-448406.339921803,37.18684935185394,-330.9671163433613,3190.84928857922,-27105.177296731345,-0.000014311372069641948,0.00000002514570951461792,0.000000022351741790771484,-0.00000011920928955078125,-0.00000011920928955078125,133120.0,0.0,-262144.0,262144.0
Raw,1758762627000,6658184067,18,,-1442797838341815808,0.0,10.355074882507324,,,48209,27,0.0,16399,349844923704558,11,39.0,662.9093017578125,0.0793493390083313,17,-1221.5189926967578,0.15125474333763123,1575420000,,,,0,,1,7.800000190734863,35.5,1.862645149230957,,1.862645149230957,,C,3589433106219402,0,13723429.790824786,-7397441.3891248675,21120813.627120346,646.1796666563016,2692.9251395019082,557.4331549093038,-7802.099934585331,-0.0015168643531069392,0.00000002514570951461792,0.000000022351741790771484,-0.00000011920928955078125,-0.00000011920928955078125,133120.0,0.0,-262144.0,262144.0
Raw,1758762627000,6658184067,18,,-1442797838341815808,0.0,10.355074882507324,,,48209,9,0.0,16399,349844928644989,11,37.5,666.71044921875,0.08650518953800201,16,-3070.1634108335275,0.1563146561384201,1575420000,,,,0,,1,7.800000190734863,34.0,0.46566128730773926,,0.46566128730773926,,C,3589433106219402,0,-7274501.73191786,-25400693.29077582,2176258.3977829656,211.675807850387,-344.23015038025943,-3168.386858901707,223319.4064211402,0.0012809776526410133,0.00000002514570951461792,0.000000022351741790771484,-0.00000011920928955078125,-0.00000011920928955078125,133120.0,0.0,-262144.0,262144.0
Raw,1758762627000,6658184067,18,,-1442797838341815808,0.0,10.355074882507324,,,48209,21,0.0,16399,349844919437869,13,35.29999923706055,412.99249267578125,0.09888850152492523,16,-4651.297056991985,0.16507089138031006,1575420000,,,,0,,1,7.800000190734863,31.799999237060547,-9.313225746154785,,-9.313225746154785,,C,3589433106219402,0,-24508802.92075043,-1405168.6645086054,10145300.463514457,-1124.4128342620068,-676.3956760274913,-2809.161554919977,76283.50065171243,0.0056323532917303964,0.00000002514570951461792,0.000000022351741790771484,-0.00000011920928955078125,-0.00000011920928955078125,133120.0,0.0,-262144.0,262144.0
Raw,1758762627000,6658184067,18,,-1442797838341815808,0.0,10.355074882507324,,,48209,5,0.0,16399,349844917018269,13,34.599998474121094,211.02662658691406,0.1033901646733284,16,-5929.121302740634,0.16825401782989502,1575420000,,,,0,,1,7.800000190734863,31.100000381469727,-10.710209608078003,,-10.710209608078003,,C,3589433106219402,0,-18341383.913683135,7094961.805079201,17689547.16922713,-2148.6639800680996,-764.7317235215613,-1898.2832772089241,-66027.60152109576,-0.0006497674621641636,0.00000002514570951461792,0.000000022351741790771484,-0.00000011920928955078125,-0.00000011920928955078125,133120.0,0.0,-262144.0,262144.0
Raw,1758762627000,6658184067,18,,-1442797838341815808,0.0,10.355074882507324,,,48209,4,0.0,16399,349844918633200,15,32.099998474121094,849.7203369140625,0.1222553625702858,16,-5823.913626271518,0.18159359693527222,1575420000,,,,0,,1,7.800000190734863,28.600000381469727,-4.656612873077393,,-4.656612873077393,,C,3589433106219402,0,2755699.89837061,-24518904.13020683,-9585616.533147747,434.894636856106,1170.5793368144105,-2878.859123358274,3053.6260664355996,0.0006833993170403119,0.00000002514570951461792,0.000000022351741790771484,-0.00000011920928955078125,-0.00000011920928955078125,133120.0,0.0,-262144.0,262144.0
Raw,1758762627000,6658184067,18,,-1442797838341815808,0.0,10.355074882507324,,,48209,2,0.0,16391,349844917936098,15,32.20000076293945,-342.62554931640625,0.12140488624572754,16,-7618.735577235493,0.1809922307729721,1575420000,,,,0,,1,7.800000190734863,28.700000762939453,-17.695128917694092,,-17.695128917694092,,C,3589433106219402,0,16935992.04849701,-19930921.269483104,-2307272.850213813,466.91682710475834,-35.35927768831843,3198.2920482666095,-19729.385102669563,0.0014984412409830838,0.00000002514570951461792,0.000000022351741790771484,-0.00000011920928955078125,-0.00000011920928955078125,133120.0,0.0,-262144.0,262144.0
Raw,1758762627000,6658184067,18,,-1442797838341815808,0.0,10.355074882507324,,,48209,3,0.0,32867,15026932848857,10,45.5,536.071533203125,0.056689340621232986,25,876983.1368798537,0.04008503258228302,1604812500,,,,0,,3,7.800000190734863,42.0,4.656612873077392,,4.656612873077392,,C,3589433106219402,0,-15203207.477348357,-18695743.30525643,8305445.564748734,-720.0385797859142,-893.283491981698,-3351.122732124878,39047.444824757054,0.0,0.00000002514570951461792,0.000000022351741790771484,-0.00000011920928955078125,-0.00000011920928955078125,133120.0,0.0,-262144.0,262144.0
Raw,1758762627000,6658184067,18,,-1442797838341815808,0.0,10.355074882507324,,,48209,4,0.0,19456,349844921220588,10,44.900001525878906,127.10881805419922,0.058344416320323944,25,-8379.532096920993,0.04125533625483513,1575420000,,,,0,,6,7.800000190734863,41.400001525878906,-7.62520357966423,,-7.62520357966423,,C,3589433106219402,0,-13363882.025433872,-19656454.082853932,17641860.621881586,-150.09071177053983,-1764.0326772016954,-2078.260192399995,-104741.11206240488,-0.0031165581167442724,0.00000002514570951461792,0.000000022351741790771484,-0.00000011920928955078125,-0.00000011920928955078125,133120.0,0.0,-262144.0,262144.0
Raw,1758762627000,6658184067,18,,-1442797838341815808,0.0,10.355074882507324,,,48209,14,0.0,32867,15026929747924,10,44.70000076293945,-215.51979064941406,0.058912243694067,25,-535712.4789553627,0.041656848043203354,1598062500,,,,0,,3,7.800000190734863,41.20000076293945,4.656612873077392,,4.656612873077392,,C,3589433106219402,0,-18486570.670307174,-7472108.855114752,15936703.852192858,2178.5675285853067,66.57506763169545,2558.3618130531495,8937.861924521625,0.0,0.00000002514570951461792,0.000000022351741790771484,-0.00000011920928955078125,-0.00000011920928955078125,133120.0,0.0,-262144.0,262144.0
Raw,1758762627000,6658184067,18,,-1442797838341815808,0.0,10.355074882507324,,,48209,31,0.0,19456,349844914944672,10,42.900001525878906,-258.5652160644531,0.06441804021596909,25,-10755.616881740287,0.04554999619722366,1575420000,,,,0,,6,7.800000190734863,39.400001525878906,0.7566995918750763,,0.7566995918750763,,C,3589433106219402,0,-23653507.73873658,-16757942.955391444,5987224.420757584,506.44927023341086,326.3569027026335,2919.526258222414,-26833.6104557538,-0.0006492917636933271,0.00000002514570951461792,0.000000022351741790771484,-0.00000011920928955078125,-0.00000011920928955078125,133120.0,0.0,-262144.0,262144.0
Raw,1758762627000,6658184067,18,,-1442797838341815808,0.0,10.355074882507324,,,48209,23,0.0,19456,349844922355346,10,42.400001525878906,153.0189971923828,0.06608467549085617,25,-8217.96402582198,0.0467284731566906,1575420000,,,,0,,6,7.800000190734863,38.900001525878906,-1.57160684466362,,-1.57160684466362,,C,3589433106219402,0,-7270258.318230645,-19807687.052548166,20761702.86314974,1841.5743345491276,972.511640007729,1572.0340216372824,-3268.5491448316056,-0.0003164161903441709,0.00000002514570951461792,0.000000022351741790771484,-0.00000011920928955078125,-0.00000011920928955078125,133120.0,0.0,-262144.0,262144.0
Raw,1758762627000,6658184067,18,,-1442797838341815808,0.0,10.355074882507324,,,48209,14,0.0,19456,349844919170287,10,41.900001525878906,-368.3525695800781,0.0678168386220932,25,-14951.097233469824,0.0479532852768898,1575420000,,,,0,,6,7.800000190734863,38.400001525878906,-6.228219717741013,,-6.228219717741013,,C,3589433106219402,0,12028061.532687109,-20841049.33746141,17272667.969062053,102.94748721633232,1975.6043945907531,1376.805508679687,490314.3722190166,0.15107065008487552,0.00000002514570951461792,0.000000022351741790771484,-0.00000011920928955078125,-0.00000011920928955078125,133120.0,0.0,-262144.0,262144.0
Raw,1758762627000,6658184067,18,,-1442797838341815808,0.0,10.355074882507324,,,48209,4,0.0,32867,15026930641719,10,41.599998474121094,-191.40646362304688,0.06888903677463531,25,957056.3937472295,0.04871143773198128,1605375000,,,,0,,3,7.800000190734863,38.099998474121094,4.656612873077392,,4.656612873077392,,C,3589433106219402,0,-13869073.60451474,-5363775.089179205,20741261.622653417,-1465.8654692269024,-2431.5574093508303,-1612.7209273982667,93776.76281590376,0.0005453193043649662,0.00000002514570951461792,0.000000022351741790771484,-0.00000011920928955078125,-0.00000011920928955078125,133120.0,0.0,-262144.0,262144.0
Raw,1758762627000,6658184067,18,,-1442797838341815808,0.0,10.355074882507324,,,48209,12,0.0,32867,15026923583283,10,41.599998474121094,676.7818603515625,0.06888903677463531,16,-21157.8652142364,0.14231249690055847,1601437400,,,,0,,3,7.800000190734863,38.099998474121094,4.656612873077392,,4.656612873077392,,C,3589433106219402,0,17592886.786451,-8043217.141778565,16657744.283494387,2274.311915388469,-113.57813573445924,-2459.6778346924552,17860.013997011454,0.0002726596521824831,0.00000002514570951461792,0.000000022351741790771484,-0.00000011920928955078125,-0.00000011920928955078125,133120.0,0.0,-262144.0,262144.0
Raw,1758762627000,6658184067,18,,-1442797838341815808,0.0,10.355074882507324,,,48209,21,0.0,19456,349844914210798,10,40.79999923706055,553.8123168945312,0.07187574356794357,25,-5755.7055108710565,0.05082333832979202,1575420000,,,,0,,6,7.800000190734863,37.29999923706055,-2.5029294192790985,,-2.5029294192790985,,C,3589433106219402,0,13654179.30394841,-11484474.011075944,23622490.924534883,2115.86286635093,1064.1359800801674,-705.5989045352379,-207393.30749829233,-0.0006682837556581944,0.00000002514570951461792,0.000000022351741790771484,-0.00000011920928955078125,-0.00000011920928955078125,133120.0,0.0,-262144.0,262144.0
Raw,1758762627000,6658184067,18,,-1442797838341815808,0.0,10.355074882507324,,,48209,6,0.0,19456,349844918286388,10,39.79999923706055,-130.73037719726562,0.07589038461446762,25,-11769.220717669385,0.05366209149360657,1575420000,,,,0,,6,7.800000190734863,36.29999923706055,0.29103830456733704,,0.29103830456733704,,C,3589433106219402,0,-16447719.133429196,-9668333.577488702,22608502.41178434,-145.19097597756624,-2266.739445673952,-1074.2213258218117,-51676.54321352316,-0.0015044706451590173,0.00000002514570951461792,0.000000022351741790771484,-0.00000011920928955078125,-0.00000011920928955078125,133120.0,0.0,-262144.0,262144.0
Raw,1758762627000,6658184067,18,,-1442797838341815808,0.0,10.355074882507324,,,48209,2,0.0,32867,15026921987502,11,38.20000076293945,970.6341552734375,0.08305026590824127,25,-274064.38723286724,0.058724842965602875,1599750000,,,,0,,3,7.800000190734863,34.70000076293945,4.656612873077392,,4.656612873077392,,C,3589433106219402,0,-6901984.935569397,-22176204.43695325,-10422449.491774684,547.2666468504187,1340.7883586383539,-3209.9542497709986,-6904.98135871999,0.0,0.00000002514570951461792,0.000000022351741790771484,-0.00000011920928955078125,-0.00000011920928955078125,133120.0,0.0,-262144.0,262144.0
Raw,1758762627000,6658184067,18,,-1442797838341815808,0.0,10.355074882507324,,,48209,22,0.0,32867,15026925003893,12,35.900001525878906,139.66720581054688,0.09525986015796661,25,-193997.76820172317,0.06735824793577194,1600312400,,,,0,,3,7.800000190734863,32.400001525878906,4.656612873077392,,4.656612873077392,,C,3589433106219402,0,15385587.562801307,-7474411.0053167865,18951621.29972857,-1450.9742407386639,2144.6384616980495,2026.952990069172,26117.94098221781,0.0005453193043649662,0.00000002514570951461792,0.000000022351741790771484,-0.00000011920928955078125,-0.00000011920928955078125,133120.0,0.0,-262144.0,262144.0
Raw,1758762627000,6658184067,18,,-1442797838341815808,0.0,10.355074882507324,,,48209,23,0.0,32867,15026925698301,14,33.599998474121094,-387.3995056152344,0.11037405580282211,25,703492.099603122,0.07804549485445023,1603687600,,,,0,,3,7.800000190734863,30.100000381469727,4.656612873077392,,4.656612873077392,,C,3589433106219402,0,15548860.66861834,-18873295.64415054,7271674.902804196,-706.6916516369096,735.3586996979668,3417.6606820606007,-49938.53986588868,-0.0002726596521824831,0.00000002514570951461792,0.000000022351741790771484,-0.00000011920928955078125,-0.00000011920928955078125,133120.0,0.0,-262144.0,262144.0
Raw,1758762627000,6658184067,18,,-1442797838341815808,0.0,10.355074882507324,,,48209,9,0.0,19456,349844912673391,18,29.100000381469727,-311.6524353027344,0.1525878757238388,16,-18286.207404082226,0.20304173231124878,1575420000,,,,0,,6,7.800000190734863,25.600000381469727,-2.9685907065868378,,-2.9685907065868378,,C,3589433106219402,0,-16662300.460075546,1165998.172054294,24427512.471565407,-136.20210812257739,-2448.7382156831927,25.289117665648327,-7680.953067785233,-0.0046545241439162055,0.00000002514570951461792,0.000000022351741790771484,-0.00000011920928955078125,-0.00000011920928955078125,133120.0,0.0,-262144.0,262144.0
Raw,1758762627000,6658184067,18,,-1442797838341815808,0.0,10.355074882507324,,,48209,13,0.0,32867,15026932978814,19,28.399999618530273,371.81427001953125,0.16128772497177124,16,-107618.12209107683,0.20768049359321594,1600875000,,,,0,,3,7.800000190734863,24.899999618530273,4.656612873077392,,4.656612873077392,,C,3589433106219402,0,1434255.397512845,-11042761.44062204,22938128.977106392,3142.5025517466624,-57.52910944917862,-223.62970129799703,-18840.092682208866,0.0,0.00000002514570951461792,0.000000022351741790771484,-0.00000011920928955078125,-0.00000011920928955078125,133120.0,0.0,-262144.0,262144.0
Raw,1758762627000,6658184067,18,,-1442797838341815808,0.0,10.355074882507324,,,48209,19,0.0,19456,349844917675007,20,27.299999237060547,617.6295776367188,0.17654122412204742,16,-14786.982317801449,0.21997913718223572,1575420000,,,,0,,6,7.800000190734863,23.799999237060547,-7.159542292356491,,-7.159542292356491,,C,3589433106219402,0,-848916.2742779885,-29574720.301810797,-947027.0288204744,-81.62665337823942,99.09463210028238,-3026.2487569371406,682572.8085888516,0.012206181068904698,0.00000002514570951461792,0.000000022351741790771484,-0.00000011920928955078125,-0.00000011920928955078125,133120.0,0.0,-262144.0,262144.0
Agc,1758762627000,6658184067,18,,-1442797838341815808,0.0,10.355074882507324,,,48209,7.800000190734863,1575420032,1
Agc,1758762627000,6658184067,18,,-1442797838341815808,0.0,10.355074882507324,,,48209,7.800000190734863,1575420032,1
Agc,1758762627000,6658184067,18,,-1442797838341815808,0.0,10.355074882507324,,,48209,7.800000190734863,1575420032,1
Agc,1758762627000,6658184067,18,,-1442797838341815808,0.0,10.355074882507324,,,48209,7.800000190734863,1575420032,1
Agc,1758762627000,6658184067,18,,-1442797838341815808,0.0,10.355074882507324,,,48209,7.800000190734863,1575420032,1
Agc,1758762627000,6658184067,18,,-1442797838341815808,0.0,10.355074882507324,,,48209,7.800000190734863,1575420032,1
Agc,1758762627000,6658184067,18,,-1442797838341815808,0.0,10.355074882507324,,,48209,7.800000190734863,1575420032,1
Agc,1758762627000,6658184067,18,,-1442797838341815808,0.0,10.355074882507324,,,48209,7.800000190734863,1575420032,1
Agc,1758762627000,6658184067,18,,-1442797838341815808,0.0,10.355074882507324,,,48209,7.800000190734863,1575420032,1
Agc,1758762627000,6658184067,18,,-1442797838341815808,0.0,10.355074882507324,,,48209,7.800000190734863,1575420032,1
Agc,1758762627000,6658184067,18,,-1442797838341815808,0.0,10.355074882507324,,,48209,7.800000190734863,1575420032,1
Agc,1758762627000,6658184067,18,,-1442797838341815808,0.0,10.355074882507324,,,48209,7.800000190734863,1604812544,3
Agc,1758762627000,6658184067,18,,-1442797838341815808,0.0,10.355074882507324,,,48209,7.800000190734863,1575420032,6
Agc,1758762627000,6658184067,18,,-1442797838341815808,0.0,10.355074882507324,,,48209,7.800000190734863,1598062464,3
Agc,1758762627000,6658184067,18,,-1442797838341815808,0.0,10.355074882507324,,,48209,7.800000190734863,1575420032,6
Agc,1758762627000,6658184067,18,,-1442797838341815808,0.0,10.355074882507324,,,48209,7.800000190734863,1575420032,6
Agc,1758762627000,6658184067,18,,-1442797838341815808,0.0,10.355074882507324,,,48209,7.800000190734863,1575420032,6
Agc,1758762627000,6658184067,18,,-1442797838341815808,0.0,10.355074882507324,,,48209,7.800000190734863,1605374976,3
Agc,1758762627000,6658184067,18,,-1442797838341815808,0.0,10.355074882507324,,,48209,7.800000190734863,1601437440,3
Agc,1758762627000,6658184067,18,,-1442797838341815808,0.0,10.355074882507324,,,48209,7.800000190734863,1575420032,6
Agc,1758762627000,6658184067,18,,-1442797838341815808,0.0,10.355074882507324,,,48209,7.800000190734863,1575420032,6
Agc,1758762627000,6658184067,18,,-1442797838341815808,0.0,10.355074882507324,,,48209,7.800000190734863,1599750016,3
Agc,1758762627000,6658184067,18,,-1442797838341815808,0.0,10.355074882507324,,,48209,7.800000190734863,1600312448,3
Agc,1758762627000,6658184067,18,,-1442797838341815808,0.0,10.355074882507324,,,48209,7.800000190734863,1603687552,3
Agc,1758762627000,6658184067,18,,-1442797838341815808,0.0,10.355074882507324,,,48209,7.800000190734863,1575420032,6
Agc,1758762627000,6658184067,18,,-1442797838341815808,0.0,10.355074882507324,,,48209,7.800000190734863,1600875008,3
Agc,1758762627000,6658184067,18,,-1442797838341815808,0.0,10.355074882507324,,,48209,7.800000190734863,1575420032,6
Fix,GPS,40.0339579023,-105.2537022997,1600.0,16.93,2.5510204,179.6,1758762628000,0.45,0.5,3589434106219816,2.0,0,,,
Fix,FLP,40.0339579000,-105.2537023000,1608.1056870042037,16.93,6.687,179.0,1758762628322,0.45,0.5,3589434106219816,0.6813045,0,,,
Status,1758762628000,28,0,1,7,1575420000,40.50,355.5,74.3,1,0,1,37.0
Status,1758762628000,28,1,1,8,1575420000,41.00,76.0,51.3,1,0,1,37.5
Status,1758762628000,28,2,1,30,1575420000,40.60,307.2,48.5,1,0,1,37.1
Status,1758762628000,28,3,1,9,1575420000,37.50,181.2,44.9,1,0,1,34.0
Status,1758762628000,28,4,1,14,1575420000,44.00,248.6,29.3,1,0,1,40.5
Status,1758762628000,28,5,1,27,1575420000,38.90,47.5,25.7,1,0,1,35.4
Status,1758762628000,28,6,1,21,1575420000,35.30,276.8,14.6,1,0,1,31.8
Status,1758762628000,28,7,1,22,1575420000,40.70,242.1,14.1,1,0,1,37.2
Status,1758762628000,28,8,1,4,1575420000,32.10,157.5,11.9,1,0,1,28.6
Status,1758762628000,28,9,1,2,1575420000,31.50,117.5,8.0,1,0,1,28.0
Status,1758762628000,28,10,1,5,1575420000,34.30,307.2,8.0,1,0,1,30.8
Status,1758762628000,28,11,3,13,1600875000,28.40,21.2,54.0,1,0,1,24.9
Status,1758762628000,28,12,3,3,1604812500,45.80,231.4,51.8,1,0,1,42.3
Status,1758762628000,28,13,3,4,1605375000,41.80,310.5,41.0,1,0,1,38.3
Status,1758762628000,28,14,3,14,1598062500,44.80,285.6,38.4,1,0,1,41.3
Status,1758762628000,28,15,3,23,1603687600,33.60,99.9,24.1,1,0,1,30.1
Status,1758762628000,28,16,3,22,1600312400,35.90,53.4,21.4,1,0,1,32.4
Status,1758762628000,28,17,3,12,1601437400,40.80,60.5,17.1,1,0,1,37.3
Status,1758762628000,28,18,3,2,1599750000,38.20,182.0,11.6,1,0,1,34.7
Status,1758762628000,28,19,3,5,1602562600,24.10,340.2,2.1,0,0,1,20.6
Status,1758762628000,28,20,6,23,1575420000,42.40,322.7,82.6,1,0,1,38.9
Status,1758762628000,28,21,6,4,1575420000,45.00,263.2,70.6,1,0,1,41.5
Status,1758762628000,28,22,6,6,1575420000,40.10,302.7,49.6,1,0,1,36.6
Status,1758762628000,28,23,6,19,1575420000,27.30,160.0,36.4,1,0,1,23.8
Status,1758762628000,28,24,6,31,1575420000,43.20,241.9,35.0,1,0,1,39.7
Status,1758762628000,28,25,6,21,1575420000,40.80,50.6,34.8,1,0,1,37.3
Status,1758762628000,28,26,6,9,1575420000,29.10,315.4,26.8,1,0,1,25.6
Status,1758762628000,28,27,6,14,1575420000,41.90,82.7,45.8,0,0,1,38.4
Raw,1758762628000,7658184495,18,,-1442797838341815552,0.0,10.355074882507324,,,48209,14,0.0,16399,349845923939650,10,44.0,-380.87908935546875,0.06096631661057472,25,-9943.6091697683,0.04310928285121918,1575420000,,,,0,,1,7.800000190734863,40.5,-7.916241884231567,,-7.916241884231567,,C,3589434106219816,0,-22822748.564742908,-12651912.381688775,5762400.825438659,777.7610091106999,-39.89000073894937,3004.872377100408,209541.22148223457,0.0017368030967190862,0.00000002514570951461792,0.000000022351741790771484,-0.00000011920928955078125,-0.00000011920928955078125,133120.0,0.0,-262144.0,262144.0
Raw,1758762628000,7658184495,18,,-1442797838341815552,0.0,10.355074882507324,,,48209,8,0.0,16399,349845930383030,10,41.0,291.5111083984375,0.07111111283302307,16,-3230.1138533504272,0.14542950689792633,1575420000,,,,0,,1,7.800000190734863,37.5,4.656612873077393,,4.656612873077393,,C,3589434106219816,0,8242509.416823203,-18229064.975602854,17078820.92508678,751.3127301003444,2103.798498647683,1911.4588521806875,159019.60951579871,-0.0013126334815751761,0.00000002514570951461792,0.000000022351741790771484,-0.00000011920928955078125,-0.00000011920928955078125,133120.0,0.0,-262144.0,262144.0
Raw,1758762628000,7658184495,18,,-1442797838341815552,0.0,10.355074882507324,,,48209,30,0.0,16399,349845927849220,10,40.599998474121094,-278.1481018066406,0.07265277206897736,17,-7434.633706231572,0.14651960134506226,1575420000,,,,0,,1,7.800000190734863,37.099998474121094,4.190951585769653,,4.190951585769653,,C,3589434106219816,0,-14068626.038200647,-8327123.412654059,21145009.34698745,1946.8342686177023,-1797.9904876050368,566.1332871522292,-7595.363066846879,0.003970564381233999,0.00000002514570951461792,0.000000022351741790771484,-0.00000011920928955078125,-0.00000011920928955078125,133120.0,0.0,-262144.0,262144.0
Raw,1758762628000,7658184495,18,,-1442797838341815552,0.0,10.355074882507324,,,48209,7,0.0,16399,349845930643245,10,40.5,-23.17156410217285,0.07304602116346359,25,-5541.697146529943,0.051650840789079666,1575420000,,,,0,,1,7.800000190734863,37.0,-10.710209608078003,,-10.710209608078003,,C,3589434106219816,0,-4780526.203398704,-15932886.890572563,21209963.478891477,1996.3607353539833,-1625.2062755959737,-834.834062601446,-24311.3139538747,-0.00030613073613494635,0.00000002514570951461792,0.000000022351741790771484,-0.00000011920928955078125,-0.00000011920928955078125,133120.0,0.0,-262144.0,262144.0
Raw,1758762628000,7658184495,18,,-1442797838341815552,0.0,10.355074882507324,,,48209,22,0.0,16399,349845919626879,10,40.70000076293945,-446.189697265625,0.07226268202066422,17,-8650.605437930528,0.14624378085136414,1575420000,,,,0,,1,7.800000190734863,37.20000076293945,-11.175870895385742,,-11.175870895385742,,C,3589434106219816,0,-24228026.37134232,-10418704.282592205,-445215.47968000575,37.53604441403321,-330.8016495319672,3190.8589944028586,-27105.177310961913,-0.000014149707567412406,0.00000002514570951461792,0.000000022351741790771484,-0.00000011920928955078125,-0.00000011920928955078125,133120.0,0.0,-262144.0,262144.0
Raw,1758762628000,7658184495,18,,-1442797838341815552,0.0,10.355074882507324,,,48209,27,0.0,16399,349845923702800,11,38.900001525878906,652.8657836914062,0.07979825884103775,16,-564.9770853129448,0.15157218277454376,1575420000,,,,0,,1,7.800000190734863,35.400001525878906,1.862645149230957,,1.862645149230957,,C,3589434106219816,0,13724076.05106291,-7394748.454042151,21121370.826621287,646.3430808889834,2692.9544826775314,556.9678042876859,-7802.101451393976,-0.001516758265097451,0.00000002514570951461792,0.000000022351741790771484,-0.00000011920928955078125,-0.00000011920928955078125,133120.0,0.0,-262144.0,262144.0
Raw,1758762628000,7658184495,18,,-1442797838341815552,0.0,10.355074882507324,,,48209,9,0.0,16399,349845928643204,11,37.5,657.2144165039062,0.08650518953800201,25,-2409.4176236457133,0.061167821288108826,1575420000,,,,0,,1,7.800000190734863,34.0,0.46566128730773926,,0.46566128730773926,,C,3589434106219816,0,-7274290.0231094,-25401037.331576265,2173089.993307097,211.74257354536837,-343.8526795873524,-3168.433392815621,223319.40770213757,0.0012810216576326638,0.00000002514570951461792,0.000000022351741790771484,-0.00000011920928955078125,-0.00000011920928955078125,133120.0,0.0,-262144.0,262144.0
Raw,1758762628000,7658184495,18,,-1442797838341815552,0.0,10.355074882507324,,,48209,21,0.0,16399,349845919436954,13,35.29999923706055,402.8701171875,0.09888850152492523,16,-4244.768265059887,0.16507089138031006,1575420000,,,,0,,1,7.800000190734863,31.799999237060547,-9.313225746154785,,-9.313225746154785,,C,3589434106219816,0,-24509927.18641049,-1405844.9663712066,10142491.19663359,-1124.1205358155962,-676.2092920887177,-2809.377337932269,76283.50628406112,0.005632354397675954,0.00000002514570951461792,0.000000022351741790771484,-0.00000011920928955078125,-0.00000011920928955078125,133120.0,0.0,-262144.0,262144.0
Raw,1758762628000,7658184495,18,,-1442797838341815552,0.0,10.355074882507324,,,48209,4,0.0,16399,349845918630826,15,32.099998474121094,838.4983520507812,0.1222553625702858,17,-4981.44607799605,0.18159359693527222,1575420000,,,,0,,1,7.800000190734863,28.600000381469727,-4.656612873077393,,-4.656612873077393,,C,3589434106219816,0,2756134.8550539655,-24517733.387066223,-9588495.282395849,435.020802112375,1170.9124968613608,-2878.653030906824,3053.626749840072,0.0006834128748778312,0.00000002514570951461792,0.000000022351741790771484,-0.00000011920928955078125,-0.00000011920928955078125,133120.0,0.0,-262144.0,262144.0
Raw,1758762628000,7658184495,18,,-1442797838341815552,0.0,10.355074882507324,,,48209,2,0.0,16391,349845917937745,16,31.5,-353.34649658203125,0.12755101919174194,16,-7968.508569366561,0.18533816933631897,1575420000,,,,0,,1,7.800000190734863,28.0,-17.695128917694092,,-17.695128917694092,,C,3589434106219816,0,16936458.82205914,-19930956.496380266,-2304074.527497911,466.6287650186832,-35.094393942907374,3198.3428365241716,-19729.38360413525,0.0014986224450694863,0.00000002514570951461792,0.000000022351741790771484,-0.00000011920928955078125,-0.00000011920928955078125,133120.0,0.0,-262144.0,262144.0
Raw,1758762628000,7658184495,18,,-1442797838341815552,0.0,10.355074882507324,,,48209,5,0.0,16399,349845917018008,13,34.29999923706055,200.9136505126953,0.10541407018899918,16,-5724.58822820615,0.16968512535095215,1575420000,,,,0,,1,7.800000190734863,30.799999237060547,-10.710209608078003,,-10.710209608078003,,C,3589434106219816,0,-18343532.484129347,7094197.172703005,17687648.695940003,-2148.478023426844,-764.5334304907058,-1898.6642811356812,-66027.60217083411,-0.0006497096037492156,0.00000002514570951461792,0.000000022351741790771484,-0.00000011920928955078125,-0.00000011920928955078125,133120.0,0.0,-262144.0,262144.0
Raw,1758762628000,7658184495,18,,-1442797838341815552,0.0,10.355074882507324,,,48209,3,0.0,32867,15027932847518,10,45.79999923706055,526.7900390625,0.0558880940079689,25,877513.3799161464,0.03951847180724144,1604812500,,,,0,,3,7.800000190734863,42.29999923706055,4.656612873077392,,4.656612873077392,,C,3589434106219816,0,-15203927.437515434,-18696636.359706208,8302094.346539143,-719.883667537707,-892.8278232258974,-3351.3226758859296,39047.444824757054,0.0,0.00000002514570951461792,0.000000022351741790771484,-0.00000011920928955078125,-0.00000011920928955078125,133120.0,0.0,-262144.0,262144.0
Raw,1758762628000,7658184495,18,,-1442797838341815552,0.0,10.355074882507324,,,48209,4,0.0,19456,349845921220611,10,45.0,116.28456115722656,0.058063577860593796,25,-6451.660566142521,0.04105675593018532,1575420000,,,,0,,6,7.800000190734863,41.5,-7.62520357966423,,-7.62520357966423,,C,3589434106219816,0,-13364032.177626064,-19658218.00584612,17639782.226069167,-150.21366008106142,-1763.813220084385,-2078.531331468062,-104741.11517896237,-0.00311655669065658,0.00000002514570951461792,0.000000022351741790771484,-0.00000011920928955078125,-0.00000011920928955078125,133120.0,0.0,-262144.0,262144.0
Raw,1758762628000,7658184495,18,,-1442797838341815552,0.0,10.355074882507324,,,48209,14,0.0,32867,15027929749083,10,44.79999923706055,-224.8814239501953,0.058627303689718246,25,-535933.8891553966,0.04145536571741104,1598062500,,,,0,,3,7.800000190734863,41.29999923706055,4.656612873077392,,4.656612873077392,,C,3589434106219816,0,-18484391.923065122,-7472042.369171239,15939262.025952786,2178.921913141233,66.39664303691688,2557.9797938143874,8937.861924521625,0.0,0.00000002514570951461792,0.000000022351741790771484,-0.00000011920928955078125,-0.00000011920928955078125,133120.0,0.0,-262144.0,262144.0
Raw,1758762628000,7658184495,18,,-1442797838341815552,0.0,10.355074882507324,,,48209,31,0.0,19456,349845914945977,10,43.20000076293945,-267.8722839355469,0.06344815343618393,25,-11020.009206326351,0.04486418887972832,1575420000,,,,0,,6,7.800000190734863,39.70000076293945,0.7566995918750763,,0.7566995918750763,,C,3589434106219816,0,-23653001.146113515,-16757616.550766917,5990143.904796809,506.73465496409426,326.4514872006783,2919.4341928921435,-26833.61110504483,-0.0006492886022897437,0.00000002514570951461792,0.000000022351741790771484,-0.00000011920928955078125,-0.00000011920928955078125,133120.0,0.0,-262144.0,262144.0
Raw,1758762628000,7658184495,18,,-1442797838341815552,0.0,10.355074882507324,,,48209,23,0.0,19456,349845922355282,10,42.400001525878906,143.60218811035156,0.06608467549085617,25,-8070.867015049816,0.0467284731566906,1575420000,,,,0,,6,7.800000190734863,38.900001525878906,-1.57160684466362,,-1.57160684466362,,C,3589434106219816,0,-7268416.636575791,-19806714.575751286,20763274.737533573,1841.7892060845206,972.4420713840807,1571.7149431987207,-3268.5494612484085,-0.0003164174577250378,0.00000002514570951461792,0.000000022351741790771484,-0.00000011920928955078125,-0.00000011920928955078125,133120.0,0.0,-262144.0,262144.0
Raw,1758762628000,7658184495,18,,-1442797838341815552,0.0,10.355074882507324,,,48209,4,0.0,32867,15027930642787,10,41.79999923706055,-200.6496124267578,0.0681714415550232,25,956859.1513783804,0.048204027116298676,1605375000,,,,0,,3,7.800000190734863,38.29999923706055,4.656612873077392,,4.656612873077392,,C,3589434106219816,0,-13870539.51947287,-5366206.492241517,20739648.651333317,-1465.9613068197777,-2431.2435230192445,-1613.2182668343805,93776.76336122365,0.0005453193043649662,0.00000002514570951461792,0.000000022351741790771484,-0.00000011920928955078125,-0.00000011920928955078125,133120.0,0.0,-262144.0,262144.0
