# 
# Header Description:
# 
# Version: v3.1.1.1 Platform: 16 Manufacturer: Google Model: Pixel 8a GNSS Hardware Model Name: S.LSI,K041,SPOTNAV_4.15.4_3_250220_R2_258342
# 
# Raw,utcTimeMillis,TimeNanos,LeapSecond,TimeUncertaintyNanos,FullBiasNanos,BiasNanos,BiasUncertaintyNanos,DriftNanosPerSecond,DriftUncertaintyNanosPerSecond,HardwareClockDiscontinuityCount,Svid,TimeOffsetNanos,State,ReceivedSvTimeNanos,ReceivedSvTimeUncertaintyNanos,Cn0DbHz,PseudorangeRateMetersPerSecond,PseudorangeRateUncertaintyMetersPerSecond,AccumulatedDeltaRangeState,AccumulatedDeltaRangeMeters,AccumulatedDeltaRangeUncertaintyMeters,CarrierFrequencyHz,CarrierCycles,CarrierPhase,CarrierPhaseUncertainty,MultipathIndicator,SnrInDb,ConstellationType,AgcDb,BasebandCn0DbHz,FullInterSignalBiasNanos,FullInterSignalBiasUncertaintyNanos,SatelliteInterSignalBiasNanos,SatelliteInterSignalBiasUncertaintyNanos,CodeType,ChipsetElapsedRealtimeNanos,IsFullTracking,SvPositionEcefXMeters,SvPositionEcefYMeters,SvPositionEcefZMeters,SvVelocityEcefXMetersPerSecond,SvVelocityEcefYMetersPerSecond,SvVelocityEcefZMetersPerSecond,SvClockBiasMeters,SvClockDriftMetersPerSecond,KlobucharAlpha0,KlobucharAlpha1,KlobucharAlpha2,KlobucharAlpha3,KlobucharBeta0,KlobucharBeta1,KlobucharBeta2,KlobucharBeta3
# 
# UncalAccel,utcTimeMillis,elapsedRealtimeNanos,UncalAccelXMps2,UncalAccelYMps2,UncalAccelZMps2,BiasXMps2,BiasYMps2,BiasZMps2,CalibrationAccuracy
# 
# Accel,utcTimeMillis,elapsedRealtimeNanos,AccelXMps2,AccelYMps2,AccelZMps2,CalibrationAccuracy
# 
# UncalGyro,utcTimeMillis,elapsedRealtimeNanos,UncalGyroXRadPerSec,UncalGyroYRadPerSec,UncalGyroZRadPerSec,DriftXRadPerSec,DriftYRadPerSec,DriftZRadPerSec,CalibrationAccuracy
# 
# Gyro,utcTimeMillis,elapsedRealtimeNanos,GyroXRadPerSec,GyroYRadPerSec,GyroZRadPerSec,CalibrationAccuracy
# 
# UncalMag,utcTimeMillis,elapsedRealtimeNanos,UncalMagXMicroT,UncalMagYMicroT,UncalMagZMicroT,BiasXMicroT,BiasYMicroT,BiasZMicroT,CalibrationAccuracy
# 
# Mag,utcTimeMillis,elapsedRealtimeNanos,MagXMicroT,MagYMicroT,MagZMicroT,CalibrationAccuracy
# 
# Pressure,utcTimeMillis,elapsedRealtimeNanos,PressureHpa,CalibrationAccuracy
# 
# OrientationDeg,utcTimeMillis,elapsedRealtimeNanos,yawDeg,rollDeg,pitchDeg,CalibrationAccuracy
# 
# Fix,Provider,LatitudeDegrees,LongitudeDegrees,AltitudeMeters,SpeedMps,AccuracyMeters,BearingDegrees,UnixTimeMillis,SpeedAccuracyMps,BearingAccuracyDegrees,elapsedRealtimeNanos,VerticalAccuracyMeters,MockLocation,NumberOfUsedSignals,VerticalSpeedAccuracyMps,SolutionType
# 
# Nav,Svid,Type,Status,MessageId,Sub-messageId,Data(Bytes)
# 
# Status,UnixTimeMillis,SignalCount,SignalIndex,ConstellationType,Svid,CarrierFrequencyHz,Cn0DbHz,AzimuthDegrees,ElevationDegrees,UsedInFix,HasAlmanacData,HasEphemerisData,BasebandCn0DbHz
# 
# Agc,utcTimeMillis,TimeNanos,LeapSecond,TimeUncertaintyNanos,FullBiasNanos,BiasNanos,BiasUncertaintyNanos,DriftNanosPerSecond,DriftUncertaintyNanosPerSecond,HardwareClockDiscontinuityCount,AgcDb,CarrierFrequencyHz,ConstellationType
# 
Fix,FLP,40.0364327000,-105.2722043000,1621.327830371405,8.73,2.755,269.0,1758759840269,0.33,0.8,3586646053233400,0.97852755,0,,,
Fix,GPS,40.0364345033,-105.2722965460,1623.0,7.5,2.5510204,269.4,1758759841000,0.27,0.8,3586647053234177,2.0,0,,,
Fix,FLP,40.0364345000,-105.2722965000,1621.52364238925,7.5,2.755,269.0,1758759841269,0.27,0.8,3586647053234177,1.0348316,0,,,
Status,1758759841000,24,0,1,9,1575420000,43.70,191.0,68.1,1,0,1,40.2
Status,1758759841000,24,1,1,7,1575420000,39.60,315.7,60.1,1,0,1,36.1
Status,1758759841000,24,2,1,8,1575420000,42.30,112.4,49.7,1,0,1,38.8
Status,1758759841000,24,3,1,27,1575420000,38.00,67.2,37.6,1,0,1,34.5
Status,1758759841000,24,4,1,4,1575420000,37.40,152.4,32.7,1,0,1,33.9
Status,1758759841000,24,5,1,30,1575420000,39.70,294.0,31.6,1,0,1,36.2
Status,1758759841000,24,6,1,16,1575420000,36.60,49.5,20.7,1,0,1,33.1
Status,1758759841000,24,7,1,21,1575420000,42.70,297.4,18.8,1,0,1,39.2
Status,1758759841000,24,8,1,14,1575420000,35.90,235.1,12.7,1,0,1,32.4
Status,1758759841000,24,9,3,13,1600875000,38.20,334.3,63.6,1,0,1,34.7
Status,1758759841000,24,10,3,3,1604812500,43.00,280.5,63.5,1,0,1,39.5
Status,1758759841000,24,11,3,2,1599750000,46.20,182.2,36.7,1,0,1,42.7
Status,1758759841000,24,12,3,12,1601437400,40.20,42.6,33.8,1,0,1,36.7
Status,1758759841000,24,13,3,14,1598062500,36.20,261.0,24.2,1,0,1,32.7
Status,1758759841000,24,14,3,4,1605375000,36.50,328.7,23.3,1,0,1,33.0
Status,1758759841000,24,15,3,22,1600312400,24.70,77.5,15.4,0,0,1,21.2
Status,1758759841000,24,16,3,21,1604250000,23.30,22.0,7.5,0,0,1,19.8
Status,1758759841000,24,17,3,23,1603687600,24.70,117.9,6.7,0,1,0,21.2
Status,1758759841000,24,18,6,23,1575420000,44.30,229.8,73.3,1,0,1,40.8
Status,1758759841000,24,19,6,4,1575420000,34.40,303.0,62.0,1,0,1,30.9
Status,1758759841000,24,20,6,19,1575420000,33.10,150.6,54.5,1,0,1,29.6
Status,1758759841000,24,21,6,21,1575420000,29.30,48.1,50.0,1,0,1,25.8
Status,1758759841000,24,22,6,6,1575420000,39.70,312.0,35.6,1,0,1,36.2
Status,1758759841000,24,23,6,31,1575420000,42.60,228.4,21.0,1,0,1,39.1
Raw,1758759841000,25438679883,18,,-1442795033561320192,0.0,10.360421180725098,,,48200,9,0.0,16399,347058932506133,10,43.70000076293945,507.3151550292969,0.06187965348362923,25,7036.7203646420385,0.04375510290265083,1575420000,,,,0,,1,7.800000190734863,40.20000076293945,0.46566128730773926,,0.46566128730773926,,C,3586647053234177,0,-7791191.061196126,-22993446.98214525,10582220.701904058,224.78320424425763,-1365.6316666656098,-2781.970815173935,223316.21321503015,0.0011768386466428638,0.000000027939677238464355,0.000000022351741790771484,-0.00000011920928955078125,-0.00000011920928955078125,135168.0,0.0,-196608.0,262144.0
Raw,1758759841000,25438679883,18,,-1442795033561320192,0.0,10.360421180725098,,,48200,21,0.0,16399,347058920796532,10,42.70000076293945,232.04640197753906,0.0650770515203476,25,-1995.1102614533966,0.04601598158478737,1575420000,,,,0,,1,7.800000190734863,39.20000076293945,-9.313225746154785,,-9.313225746154785,,C,3586647053234177,0,-20424668.82876671,1291140.174470745,16931939.524810325,-1735.875272626246,-1280.8465461993255,-1995.5813151626223,76267.81948589731,0.005628666083794087,0.000000027939677238464355,0.000000022351741790771484,-0.00000011920928955078125,-0.00000011920928955078125,135168.0,0.0,-196608.0,262144.0
Raw,1758759841000,25438679883,18,,-1442795033561320192,0.0,10.360421180725098,,,48200,8,0.0,16399,347058930208662,10,42.29999923706055,41.8360595703125,0.06642576307058334,25,-4521.504457378527,0.04696965590119362,1575420000,,,,0,,1,7.800000190734863,38.79999923706055,4.656612873077393,,4.656612873077393,,C,3586647053234177,0,6724602.751728522,-23143332.54427933,10467183.641361453,377.31103037184977,1358.3823450438217,2766.068501328223,159022.97179563847,-0.001425311726052314,0.000000027939677238464355,0.000000022351741790771484,-0.00000011920928955078125,-0.00000011920928955078125,135168.0,0.0,-196608.0,262144.0
Raw,1758759841000,25438679883,18,,-1442795033561320192,0.0,10.360421180725098,,,48200,16,0.0,16399,347058921907566,12,36.599998474121094,925.1356201171875,0.09127336740493774,25,8031.634302034893,0.06453939527273178,1575420000,,,,0,,1,7.800000190734863,33.099998474121094,-10.710209608078003,,-10.710209608078003,,C,3586647053234177,0,15585453.970945526,-6368845.58249518,20274944.58330724,2109.849828864353,1601.8720845723776,-1056.0612916510672,33273.98678401834,0.0017092373091145419,0.000000027939677238464355,0.000000022351741790771484,-0.00000011920928955078125,-0.00000011920928955078125,135168.0,0.0,-196608.0,262144.0
Raw,1758759841000,25438679883,18,,-1442795033561320192,0.0,10.360421180725098,,,48200,30,0.0,16399,347058923739915,10,39.70000076293945,-234.11155700683594,0.07631023973226547,25,-11725.399414349871,0.05395897105336189,1575420000,,,,0,,1,7.800000190734863,36.20000076293945,4.190951585769653,,4.190951585769653,,C,3586647053234177,0,-19463452.704934396,-4013458.8815387767,17920511.911597032,1850.2573646156466,-1272.7093679158181,1715.860148434949,-7606.582577855041,0.004088451507413993,0.000000027939677238464355,0.000000022351741790771484,-0.00000011920928955078125,-0.00000011920928955078125,135168.0,0.0,-196608.0,262144.0
Raw,1758759841000,25438679883,18,,-1442795033561320192,0.0,10.360421180725098,,,48200,7,0.0,16399,347058928714140,10,39.599998474121094,-18.158920288085938,0.07673361152410507,25,-6203.519194813934,0.05425833538174629,1575420000,,,,0,,1,7.800000190734863,36.099998474121094,-10.710209608078003,,-10.710209608078003,,C,3586647053234177,0,-10830898.318130491,-11765828.156164326,21829123.8688784,2283.1018913458815,-1315.0839092062117,393.95094303869945,-24310.974496354414,0.0000773577339714393,0.000000027939677238464355,0.000000022351741790771484,-0.00000011920928955078125,-0.00000011920928955078125,135168.0,0.0,-196608.0,262144.0
Raw,1758759841000,25438679883,18,,-1442795033561320192,0.0,10.360421180725098,,,48200,4,0.0,16399,347058925043111,11,37.400001525878906,870.2882080078125,0.08701629191637039,25,14257.861405816198,0.06152921915054321,1575420000,,,,0,,1,7.800000190734863,33.900001525878906,-4.656612873077393,,-4.656612873077393,,C,3586647053234177,0,1868450.2474660361,-26382777.473213527,-997555.3934586206,265.51276330351544,141.74881832764032,-3200.3419166987774,3051.7107227833276,0.0006746368162566796,0.000000027939677238464355,0.000000022351741790771484,-0.00000011920928955078125,-0.00000011920928955078125,135168.0,0.0,-196608.0,262144.0
Raw,1758759841000,25438679883,18,,-1442795033561320192,0.0,10.360421180725098,,,48200,27,0.0,16399,347058927140740,11,38.0,445.56365966796875,0.08401596546173096,25,5652.916622948484,0.059407688677310944,1575420000,,,,0,,1,7.800000190734863,34.5,1.862645149230957,,1.862645149230957,,C,3586647053234177,0,12546098.55461145,-14538929.657845002,17827247.95269549,214.0844770970804,2347.7495342443863,1774.1852246004992,-7797.501549290605,-0.0017052332314051455,0.000000027939677238464355,0.000000022351741790771484,-0.00000011920928955078125,-0.00000011920928955078125,135168.0,0.0,-196608.0,262144.0
Raw,1758759841000,25438679883,18,,-1442795033561320192,0.0,10.360421180725098,,,48200,14,0.0,16399,347058918835442,12,35.900001525878906,-359.9178466796875,0.09525986015796661,25,-20307.78680394357,0.06735824793577194,1575420000,,,,0,,1,7.800000190734863,32.400001525878906,-7.916241884231567,,-7.916241884231567,,C,3586647053234177,0,-23663751.453263607,-12040873.665113006,-2848831.8862220026,-152.3795100276022,-457.8706670645717,3090.8458487166845,209536.3250572203,0.0016616422217339277,0.000000027939677238464355,0.000000022351741790771484,-0.00000011920928955078125,-0.00000011920928955078125,135168.0,0.0,-196608.0,262144.0
Raw,1758759841000,25438679883,18,,-1442795033561320192,0.0,10.360421180725098,,,48200,2,0.0,32867,12240929475264,10,46.20000076293945,959.1732788085938,0.054845910519361496,25,-115535.7248006536,0.0387815423309803,1599750000,,,,0,,3,7.800000190734863,42.70000076293945,8.38190317153931,,8.38190317153931,,C,3586647053234177,0,-7341722.661894369,-24373167.038989194,-794332.3157612234,-155.41943620650068,169.40297570994562,-3593.451073304369,-6905.2605622038245,0.0,0.000000027939677238464355,0.000000022351741790771484,-0.00000011920928955078125,-0.00000011920928955078125,135168.0,0.0,-196608.0,262144.0
Raw,1758759841000,25438679883,18,,-1442795033561320192,0.0,10.360421180725098,,,48200,23,0.0,19456,347058921810060,10,44.29999923706055,95.75357818603516,0.06007305160164833,25,-5256.209892772743,0.04247765615582466,1575420000,,,,0,,6,7.800000190734863,40.79999923706055,-1.57160684466362,,-1.57160684466362,,C,3586647053234177,0,-11485352.027082648,-22628974.98405668,15242578.151299542,1163.1699582686574,993.420605865268,2350.541694910382,-3267.6699690425166,-0.00031326975386036793,0.000000027939677238464355,0.000000022351741790771484,-0.00000011920928955078125,-0.00000011920928955078125,135168.0,0.0,-196608.0,262144.0
Raw,1758759841000,25438679883,18,,-1442795033561320192,0.0,10.360421180725098,,,48200,31,0.0,19456,347058910904503,10,42.599998474121094,-247.71153259277344,0.06541035324335098,25,-13965.080793794732,0.04625166207551956,1575420000,,,,0,,6,7.800000190734863,39.099998474121094,0.9895302355289459,,0.9895302355289459,,C,3586647053234177,0,-24011016.307301186,-17146119.01729985,-2339477.8213315397,-222.5585214061784,-99.18646309414987,2998.4362523731966,-26831.836391856355,-0.0006535305437864736,0.000000027939677238464355,0.000000022351741790771484,-0.00000011920928955078125,-0.00000011920928955078125,135168.0,0.0,-196608.0,262144.0
Raw,1758759841000,25438679883,18,,-1442795033561320192,0.0,10.360421180725098,,,48200,3,0.0,32867,12240934585737,10,43.0,188.24618530273438,0.06409229338169098,25,640153.5200965595,0.04531966149806976,1604812500,,,,0,,3,7.800000190734863,39.5,8.38190317153931,,8.38190317153931,,C,3586647053234177,0,-12888468.252827317,-14470064.365171421,16590480.790298102,-837.917282297189,-2110.8354120996046,-2504.083737117875,39046.04880733788,0.0,0.000000027939677238464355,0.000000022351741790771484,-0.00000011920928955078125,-0.00000011920928955078125,135168.0,0.0,-196608.0,262144.0
Raw,1758759841000,25438679883,18,,-1442795033561320192,0.0,10.360421180725098,,,48200,6,0.0,19456,347058915045536,10,39.70000076293945,-180.26866149902344,0.07631023973226547,25,-12255.04054234115,0.05395897105336189,1575420000,,,,0,,6,7.800000190734863,36.20000076293945,0.29103830456733704,,0.29103830456733704,,C,3586647053234177,0,-16728409.727684818,-3069271.2445955565,24204494.05990558,354.818652366723,-2405.5119704448775,-60.06365593092138,-51672.37573564863,-0.001501590530097019,0.000000027939677238464355,0.000000022351741790771484,-0.00000011920928955078125,-0.00000011920928955078125,135168.0,0.0,-196608.0,262144.0
Raw,1758759841000,25438679883,18,,-1442795033561320192,0.0,10.360421180725098,,,48200,12,0.0,32867,12240928523084,10,40.20000076293945,762.23486328125,0.07424511015415192,25,6543.771920818603,0.0524987168610096,1601437400,,,,0,,3,7.800000190734863,36.70000076293945,8.38190317153931,,8.38190317153931,,C,3586647053234177,0,10198727.866463155,-8583583.782855503,21775133.613878317,2924.7094626642715,541.2243918397741,-1156.992967721283,17859.39833286371,0.0002726596521824831,0.000000027939677238464355,0.000000022351741790771484,-0.00000011920928955078125,-0.00000011920928955078125,135168.0,0.0,-196608.0,262144.0
Raw,1758759841000,25438679883,18,,-1442795033561320192,0.0,10.360421180725098,,,48200,13,0.0,32867,12240934426948,11,38.20000076293945,307.33831787109375,0.08305026590824127,25,-48122.752538731496,0.058724842965602875,1600875000,,,,0,,3,7.800000190734863,34.70000076293945,8.38190317153931,,8.38190317153931,,C,3586647053234177,0,-7115607.485175484,-11834644.382124169,21434749.111174148,2875.59642734232,600.8573089430787,1286.0584082376402,-18839.534275241196,0.0,0.000000027939677238464355,0.000000022351741790771484,-0.00000011920928955078125,-0.00000011920928955078125,135168.0,0.0,-196608.0,262144.0
Raw,1758759841000,25438679883,18,,-1442795033561320192,0.0,10.360421180725098,,,48200,4,0.0,32867,12240925833518,12,36.5,-434.3227233886719,0.09182736277580261,25,662764.6035176496,0.06493113189935684,1605375000,,,,0,,3,7.800000190734863,33.0,8.38190317153931,,8.38190317153931,,C,3586647053234177,0,-10390080.211676734,2377344.010796665,23196489.782397963,-960.8054092883507,-3023.740174818673,-122.64218706284754,93774.84136040533,0.0008179789565474493,0.000000027939677238464355,0.000000022351741790771484,-0.00000011920928955078125,-0.00000011920928955078125,135168.0,0.0,-196608.0,262144.0
Raw,1758759841000,25438679883,18,,-1442795033561320192,0.0,10.360421180725098,,,48200,14,0.0,32867,12240925866645,12,36.20000076293945,-252.83087158203125,0.09351999312639236,25,-273001.90145149187,0.06612798571586609,1598062500,,,,0,,3,7.800000190734863,32.70000076293945,8.38190317153931,,8.38190317153931,,C,3586647053234177,0,,,,,,,,,0.000000027939677238464355,0.000000022351741790771484,-0.00000011920928955078125,-0.00000011920928955078125,135168.0,0.0,-196608.0,262144.0
Raw,1758759841000,25438679883,18,,-1442795033561320192,0.0,10.360421180725098,,,48200,4,0.0,19456,347058920185195,13,34.400001525878906,26.539060592651367,0.10473287850618362,25,-7036.192401314061,0.07405661791563034,1575420000,,,,0,,6,7.800000190734863,30.899999618530273,-7.62520357966423,,-7.62520357966423,,C,3586647053234177,0,-13525809.98196825,-14034567.951541375,22275523.63559335,296.2766464882123,-2215.052374196169,-1214.9829057405623,-104732.5482657638,-0.003129136821371503,0.000000027939677238464355,0.000000022351741790771484,-0.00000011920928955078125,-0.00000011920928955078125,135168.0,0.0,-196608.0,262144.0
Raw,1758759841000,25438679883,18,,-1442795033561320192,0.0,10.360421180725098,,,48200,19,0.0,19456,347058921641621,14,33.099998474121094,589.7557983398438,0.11413440108299255,25,5481.465775274241,0.08070443570613861,1575420000,,,,0,,6,7.800000190734863,29.600000381469727,-7.159542292356491,,-7.159542292356491,,C,3586647053234177,0,-697282.041201056,-28659986.520352103,7373375.492716852,30.872307305091205,-743.8218650007311,-2887.268124172939,682538.8895041189,0.012196085532195866,0.000000027939677238464355,0.000000022351741790771484,-0.00000011920928955078125,-0.00000011920928955078125,135168.0,0.0,-196608.0,262144.0
Raw,1758759841000,25438679883,18,,-1442795033561320192,0.0,10.360421180725098,,,48200,21,0.0,19456,347058917768353,18,29.299999237060547,584.9602661132812,0.15023136138916016,16,5409.902970230475,0.20137542486190796,1575420000,,,,0,,6,7.800000190734863,25.799999237060547,-2.270098775625229,,-2.270098775625229,,C,3586647053234177,0,7999782.927119194,-15128904.64274751,24154838.21370831,1885.8193264344777,1519.3817342099978,327.2479041885513,-207391.52484371394,-0.0006734247144777328,0.000000027939677238464355,0.000000022351741790771484,-0.00000011920928955078125,-0.00000011920928955078125,135168.0,0.0,-196608.0,262144.0
Raw,1758759841000,25438679883,18,,-1442795033561320192,0.0,10.360421180725098,,,48200,23,0.0,51,9925301,25,24.700000762939453,-439.2442321777344,0.2224990874528885,16,4918408.34304085,0.2507988214492798,1603687600,,,,0,,3,7.800000190734863,21.200000762939453,8.38190317153931,,8.38190317153931,,C,3586647053234177,0,,,,,,,,,0.000000027939677238464355,0.000000022351741790771484,-0.00000011920928955078125,-0.00000011920928955078125,135168.0,0.0,-196608.0,262144.0
Raw,1758759841000,25438679883,18,,-1442795033561320192,0.0,10.360421180725098,,,48200,22,0.0,32867,12240923107666,25,24.700000762939453,-137.9464569091797,0.2224990874528885,16,-173182.3092270246,0.250995934009552,1600312400,,,,0,,3,7.800000190734863,21.200000762939453,8.38190317153931,,8.38190317153931,,C,3586647053234177,0,19235398.750714228,-11976532.62048196,11742533.409228299,-1205.2895650735852,1064.770139042603,3067.9779712519994,26115.872039743,0.0005453193043649662,0.000000027939677238464355,0.000000022351741790771484,-0.00000011920928955078125,-0.00000011920928955078125,135168.0,0.0,-196608.0,262144.0
Raw,1758759841000,25438679883,18,,-1442795033561320192,0.0,10.360421180725098,,,48200,21,0.0,32867,12240920026540,28,23.299999237060547,484.60662841796875,0.25507602095603943,16,1311253.4054009127,0.27380120754241943,1604250000,,,,0,,3,7.800000190734863,19.799999237060547,8.38190317153931,,8.38190317153931,,C,3586647053234177,0,10349129.07346555,4269162.47883228,22927890.73426667,-2152.155321239419,2287.312440921373,542.0700966251328,-71945.18525612667,-0.0010906386087299325,0.000000027939677238464355,0.000000022351741790771484,-0.00000011920928955078125,-0.00000011920928955078125,135168.0,0.0,-196608.0,262144.0
Agc,1758759841000,25438679883,18,,-1442795033561320192,0.0,10.360421180725098,,,48200,7.800000190734863,1575420032,1
Agc,1758759841000,25438679883,18,,-1442795033561320192,0.0,10.360421180725098,,,48200,7.800000190734863,1575420032,1
Agc,1758759841000,25438679883,18,,-1442795033561320192,0.0,10.360421180725098,,,48200,7.800000190734863,1575420032,1
Agc,1758759841000,25438679883,18,,-1442795033561320192,0.0,10.360421180725098,,,48200,7.800000190734863,1575420032,1
Agc,1758759841000,25438679883,18,,-1442795033561320192,0.0,10.360421180725098,,,48200,7.800000190734863,1575420032,1
Agc,1758759841000,25438679883,18,,-1442795033561320192,0.0,10.360421180725098,,,48200,7.800000190734863,1575420032,1
Agc,1758759841000,25438679883,18,,-1442795033561320192,0.0,10.360421180725098,,,48200,7.800000190734863,1575420032,1
Agc,1758759841000,25438679883,18,,-1442795033561320192,0.0,10.360421180725098,,,48200,7.800000190734863,1575420032,1
Agc,1758759841000,25438679883,18,,-1442795033561320192,0.0,10.360421180725098,,,48200,7.800000190734863,1575420032,1
Agc,1758759841000,25438679883,18,,-1442795033561320192,0.0,10.360421180725098,,,48200,7.800000190734863,1599750016,3
Agc,1758759841000,25438679883,18,,-1442795033561320192,0.0,10.360421180725098,,,48200,7.800000190734863,1575420032,6
Agc,1758759841000,25438679883,18,,-1442795033561320192,0.0,10.360421180725098,,,48200,7.800000190734863,1575420032,6
Agc,1758759841000,25438679883,18,,-1442795033561320192,0.0,10.360421180725098,,,48200,7.800000190734863,1604812544,3
Agc,1758759841000,25438679883,18,,-1442795033561320192,0.0,10.360421180725098,,,48200,7.800000190734863,1575420032,6
Agc,1758759841000,25438679883,18,,-1442795033561320192,0.0,10.360421180725098,,,48200,7.800000190734863,1601437440,3
Agc,1758759841000,25438679883,18,,-1442795033561320192,0.0,10.360421180725098,,,48200,7.800000190734863,1600875008,3
Agc,1758759841000,25438679883,18,,-1442795033561320192,0.0,10.360421180725098,,,48200,7.800000190734863,1605374976,3
Agc,1758759841000,25438679883,18,,-1442795033561320192,0.0,10.360421180725098,,,48200,7.800000190734863,1598062464,3
Agc,1758759841000,25438679883,18,,-1442795033561320192,0.0,10.360421180725098,,,48200,7.800000190734863,1575420032,6
Agc,1758759841000,25438679883,18,,-1442795033561320192,0.0,10.360421180725098,,,48200,7.800000190734863,1575420032,6
Agc,1758759841000,25438679883,18,,-1442795033561320192,0.0,10.360421180725098,,,48200,7.800000190734863,1575420032,6
Agc,1758759841000,25438679883,18,,-1442795033561320192,0.0,10.360421180725098,,,48200,7.800000190734863,1603687552,3
Agc,1758759841000,25438679883,18,,-1442795033561320192,0.0,10.360421180725098,,,48200,7.800000190734863,1600312448,3
Agc,1758759841000,25438679883,18,,-1442795033561320192,0.0,10.360421180725098,,,48200,7.800000190734863,1604249984,3
Fix,GPS,40.0364330364,-105.2723753359,1623.0,6.24,2.5510204,269.3,1758759842000,0.26,0.8,3586648053235047,2.0,0,,,
Fix,FLP,40.0364330000,-105.2723753000,1621.571907850346,6.24,2.653,269.0,1758759842269,0.26,0.8,3586648053235047,1.0222272,0,,,
Status,,24,0,1,9,1575420000,43.80,191.0,68.1,1,0,1,40.3
Status,,24,1,1,7,1575420000,39.60,315.7,60.1,1,0,1,36.1
Status,,24,2,1,8,1575420000,42.30,112.4,49.7,1,0,1,38.8
Status,,24,3,1,27,1575420000,37.90,67.2,37.6,1,0,1,34.4
Status,,24,4,1,4,1575420000,37.80,152.4,32.7,1,0,1,34.3
Status,,24,5,1,30,1575420000,39.70,294.0,31.6,1,0,1,36.2
Status,,24,6,1,16,1575420000,40.10,49.5,20.7,1,0,1,36.6
Status,,24,7,1,21,1575420000,42.90,297.4,18.8,1,0,1,39.4
Status,,24,8,1,14,1575420000,36.40,235.1,12.7,1,0,1,32.9
Status,,24,9,3,13,1600875000,38.20,334.3,63.6,1,0,1,34.7
Status,,24,10,3,3,1604812500,43.00,280.5,63.5,1,0,1,39.5
Status,,24,11,3,2,1599750000,46.40,182.2,36.7,1,0,1,42.9
Status,,24,12,3,12,1601437400,40.20,42.6,33.8,1,0,1,36.7
Status,,24,13,3,14,1598062500,36.30,261.0,24.2,1,0,1,32.8
Status,,24,14,3,4,1605375000,37.10,328.7,23.3,1,0,1,33.6
Status,,24,15,3,22,1600312400,24.70,77.5,15.4,0,0,1,21.2
Status,,24,16,3,21,1604250000,23.40,22.0,7.5,0,0,1,19.9
Status,,24,17,3,23,1603687600,28.70,117.9,6.7,0,1,0,25.2
Status,,24,18,6,23,1575420000,44.20,229.8,73.3,1,0,1,40.7
Status,,24,19,6,4,1575420000,34.40,303.0,62.0,1,0,1,30.9
Status,,24,20,6,19,1575420000,33.20,150.6,54.5,1,0,1,29.7
Status,,24,21,6,21,1575420000,29.10,48.1,50.0,1,0,1,25.6
Status,,24,22,6,6,1575420000,40.10,312.0,35.6,1,0,1,36.6
Status,,24,23,6,31,1575420000,42.70,228.4,21.0,1,0,1,39.2
Raw,1758759842000,26438680738,18,,-1442795033561319168,0.0,10.360421180725098,,,48200,9,0.0,16399,347059932505303,10,43.79999923706055,502.593505859375,0.06157294288277626,25,7541.145052401931,0.043538227677345276,1575420000,,,,0,,1,7.800000190734863,40.29999923706055,0.46566128730773926,,0.46566128730773926,,C,3586648053235047,0,-7790966.314874517,-22994812.44348865,10579438.619843313,224.7098197849348,-1365.2932814749602,-2782.1979146176745,223316.21439188268,0.001176868419861421,0.000000027939677238464355,0.000000022351741790771484,-0.00000011920928955078125,-0.00000011920928955078125,135168.0,0.0,-196608.0,262144.0
Raw,1758759842000,26438680738,18,,-1442795033561319168,0.0,10.360421180725098,,,48200,21,0.0,16399,347059920796625,10,42.900001525878906,228.234375,0.06441804021596909,25,-1765.5072772424546,0.04554999619722366,1575420000,,,,0,,1,7.800000190734863,39.400001525878906,-9.313225746154785,,-9.313225746154785,,C,3586648053235047,0,-20426404.634700365,1289859.4440898653,16929943.763227172,-1735.7362616193586,-1280.6139773594382,-1995.941472924048,76267.8251145647,0.005628667597193271,0.000000027939677238464355,0.000000022351741790771484,-0.00000011920928955078125,-0.00000011920928955078125,135168.0,0.0,-196608.0,262144.0
Raw,1758759842000,26438680738,18,,-1442795033561319168,0.0,10.360421180725098,,,48200,8,0.0,16399,347059930209395,10,42.29999923706055,36.21598815917969,0.06642576307058334,25,-4483.028316684009,0.04696965590119362,1575420000,,,,0,,1,7.800000190734863,38.79999923706055,4.656612873077393,,4.656612873077393,,C,3586648053235047,0,6724980.106095721,-23141973.995719172,10469949.596857056,377.3971578046767,1358.7127777305532,2765.8384248403804,159022.97037032974,-0.0014253036642912775,0.000000027939677238464355,0.000000022351741790771484,-0.00000011920928955078125,-0.00000011920928955078125,135168.0,0.0,-196608.0,262144.0
Raw,1758759842000,26438680738,18,,-1442795033561319168,0.0,10.360421180725098,,,48200,16,0.0,16399,347059921905346,10,40.099998474121094,919.3572387695312,0.07465138286352158,25,8953.357511648828,0.05278599262237549,1575420000,,,,0,,1,7.800000190734863,36.599998474121094,-10.710209608078003,,-10.710209608078003,,C,3586648053235047,0,15587563.804662472,-6367243.815422085,20273888.30360362,2109.8269622974285,1601.6691694901517,-1056.502801258281,33273.98849334403,0.0017094216600526124,0.000000027939677238464355,0.000000022351741790771484,-0.00000011920928955078125,-0.00000011920928955078125,135168.0,0.0,-196608.0,262144.0
Raw,1758759842000,26438680738,18,,-1442795033561319168,0.0,10.360421180725098,,,48200,30,0.0,16399,347059923741558,10,39.70000076293945,-238.10096740722656,0.07631023973226547,25,-11962.042676928046,0.05395897105336189,1575420000,,,,0,,1,7.800000190734863,36.20000076293945,4.190951585769653,,4.190951585769653,,C,3586648053235047,0,-19461602.386684038,-4014731.6968527567,17922227.588155676,1850.3730462084577,-1272.917077016213,1715.4873251963493,-7606.578489407505,0.004088430126103049,0.000000027939677238464355,0.000000022351741790771484,-0.00000011920928955078125,-0.00000011920928955078125,135168.0,0.0,-196608.0,262144.0
Raw,1758759842000,26438680738,18,,-1442795033561319168,0.0,10.360421180725098,,,48200,7,0.0,16399,347059928715058,10,39.599998474121094,-22.623464584350586,0.07673361152410507,25,-6224.443054510187,0.05425833538174629,1575420000,,,,0,,1,7.800000190734863,36.099998474121094,-10.710209608078003,,-10.710209608078003,,C,3586648053235047,0,-10828615.229931407,-11767143.320727248,21829517.600625418,2283.070305762313,-1315.242797928402,393.5118265941374,-24310.974419040576,0.00007726977855782025,0.000000027939677238464355,0.000000022351741790771484,-0.00000011920928955078125,-0.00000011920928955078125,135168.0,0.0,-196608.0,262144.0
Raw,1758759842000,26438680738,18,,-1442795033561319168,0.0,10.360421180725098,,,48200,4,0.0,16399,347059925041075,11,37.79999923706055,864.8795166015625,0.08499860018491745,25,15124.904610099948,0.06010251119732857,1575420000,,,,0,,1,7.800000190734863,34.29999923706055,-4.656612873077393,,-4.656612873077393,,C,3586648053235047,0,1868715.7549153557,-26382635.530580286,-1000755.7181228425,265.503225143006,142.13702600302076,-3200.3204320310206,3051.7113974151193,0.0006746295152879611,0.000000027939677238464355,0.000000022351741790771484,-0.00000011920928955078125,-0.00000011920928955078125,135168.0,0.0,-196608.0,262144.0
Raw,1758759842000,26438680738,18,,-1442795033561319168,0.0,10.360421180725098,,,48200,27,0.0,16399,347059927140126,11,37.900001525878906,439.7380065917969,0.08450513333082199,25,6094.98042834294,0.059753578156232834,1575420000,,,,0,,1,7.800000190734863,34.400001525878906,1.862645149230957,,1.862645149230957,,C,3586648053235047,0,12546312.704554282,-14536581.80298746,17829021.93932275,214.21567625964317,2347.9630542307996,1773.790201857112,-7797.503254509223,-0.0017052060911737499,0.000000027939677238464355,0.000000022351741790771484,-0.00000011920928955078125,-0.00000011920928955078125,135168.0,0.0,-196608.0,262144.0
Raw,1758759842000,26438680738,18,,-1442795033561319168,0.0,10.360421180725098,,,48200,14,0.0,16399,347059918837513,12,36.400001525878906,-363.8977355957031,0.09238641709089279,25,-20670.230311119172,0.06532643735408783,1575420000,,,,0,,1,7.800000190734863,32.900001525878906,-7.916241884231567,,-7.916241884231567,,C,3586648053235047,0,-23663903.681687783,-12041331.431597304,-2845741.004157732,-152.07670243748254,-457.66041162824195,3090.9054666665897,209536.32671888778,0.0016616858483757824,0.000000027939677238464355,0.000000022351741790771484,-0.00000011920928955078125,-0.00000011920928955078125,135168.0,0.0,-196608.0,262144.0
Raw,1758759842000,26438680738,18,,-1442795033561319168,0.0,10.360421180725098,,,48200,2,0.0,32867,12241929472937,10,46.400001525878906,954.3508911132812,0.054335713386535645,25,-114579.49367552753,0.03842078149318695,1599750000,,,,0,,3,7.800000190734863,42.900001525878906,8.38190317153931,,8.38190317153931,,C,3586648053235047,0,-7341877.999536908,-24372997.395765476,-797925.7488593481,-155.25654940861364,169.884252353117,-3593.4318564005866,-6905.2605622038245,0.0,0.000000027939677238464355,0.000000022351741790771484,-0.00000011920928955078125,-0.00000011920928955078125,135168.0,0.0,-196608.0,262144.0
Raw,1758759842000,26438680738,18,,-1442795033561319168,0.0,10.360421180725098,,,48200,23,0.0,19456,347059921810601,10,44.20000076293945,91.14413452148438,0.060368604958057404,25,-5163.295217269938,0.042686641216278076,1575420000,,,,0,,6,7.800000190734863,40.70000076293945,-1.57160684466362,,-1.57160684466362,,C,3586648053235047,0,-11484188.72635538,-22627981.53405747,15244928.57713948,1163.43023704202,993.4783096629303,2350.307435775407,-3267.6702823129776,-0.000313270827064116,0.000000027939677238464355,0.000000022351741790771484,-0.00000011920928955078125,-0.00000011920928955078125,135168.0,0.0,-196608.0,262144.0
Raw,1758759842000,26438680738,18,,-1442795033561319168,0.0,10.360421180725098,,,48200,31,0.0,19456,347059910906200,10,42.70000076293945,-251.780517578125,0.0650770515203476,25,-14215.357386044947,0.04601598158478737,1575420000,,,,0,,6,7.800000190734863,39.20000076293945,0.9895302355289459,,0.9895302355289459,,C,3586648053235047,0,-24011238.752682377,-17146218.101481892,-2336479.362011754,-222.3314806927011,-98.98156998644104,2998.4722027564844,-26831.83704538655,-0.0006535276334034279,0.000000027939677238464355,0.000000022351741790771484,-0.00000011920928955078125,-0.00000011920928955078125,135168.0,0.0,-196608.0,262144.0
Raw,1758759842000,26438680738,18,,-1442795033561319168,0.0,10.360421180725098,,,48200,3,0.0,32867,12241934585986,10,43.0,183.97874450683594,0.06409229338169098,25,640339.0904768202,0.04531966149806976,1604812500,,,,0,,3,7.800000190734863,39.5,8.38190317153931,,8.38190317153931,,C,3586648053235047,0,-12889306.203777911,-14472175.004753005,16587976.506750843,-837.984189008721,-2110.442712969114,-2504.4821154311,39046.04880733788,0.0,0.000000027939677238464355,0.000000022351741790771484,-0.00000011920928955078125,-0.00000011920928955078125,135168.0,0.0,-196608.0,262144.0
Raw,1758759842000,26438680738,18,,-1442795033561319168,0.0,10.360421180725098,,,48200,12,0.0,32867,12241928521381,10,40.20000076293945,756.4990844726562,0.07424511015415192,25,7302.565710777824,0.0524987168610096,1601437400,,,,0,,3,7.800000190734863,36.70000076293945,8.38190317153931,,8.38190317153931,,C,3586648053235047,0,10201652.515400555,-8583042.692717738,21773976.362141084,2924.598381975948,540.9577353753098,-1157.514449535592,17859.398605522896,0.0002726596521824831,0.000000027939677238464355,0.000000022351741790771484,-0.00000011920928955078125,-0.00000011920928955078125,135168.0,0.0,-196608.0,262144.0
Raw,1758759842000,26438680738,18,,-1442795033561319168,0.0,10.360421180725098,,,48200,6,0.0,19456,347059915046996,10,40.099998474121094,-184.43655395507812,0.07465138286352158,25,-12437.930377856617,0.05278599262237549,1575420000,,,,0,,6,7.800000190734863,36.599998474121094,0.29103830456733704,,0.29103830456733704,,C,3586648053235047,0,-16728054.999644391,-3071676.770478972,24204433.809825797,354.63639156300366,-2405.532763717637,-60.43632755928572,-51672.37723724167,-0.0015015911776572466,0.000000027939677238464355,0.000000022351741790771484,-0.00000011920928955078125,-0.00000011920928955078125,135168.0,0.0,-196608.0,262144.0
Raw,1758759842000,26438680738,18,,-1442795033561319168,0.0,10.360421180725098,,,48200,13,0.0,32867,12241934426802,11,38.20000076293945,302.6920471191406,0.08305026590824127,25,-47818.28133802704,0.058724842965602875,1600875000,,,,0,,3,7.800000190734863,34.70000076293945,8.38190317153931,,8.38190317153931,,C,3586648053235047,0,-7112731.778771159,-11834043.623820072,21436034.91169563,2875.817231332258,600.659467008788,1285.5430152738782,-18839.534275241196,0.0,0.000000027939677238464355,0.000000022351741790771484,-0.00000011920928955078125,-0.00000011920928955078125,135168.0,0.0,-196608.0,262144.0
Raw,1758759842000,26438680738,18,,-1442795033561319168,0.0,10.360421180725098,,,48200,4,0.0,32867,12241925835850,12,37.099998474121094,-438.7114562988281,0.08857710659503937,25,662327.5218008468,0.06263287365436554,1605375000,,,,0,,3,7.800000190734863,33.599998474121094,8.38190317153931,,8.38190317153931,,C,3586648053235047,0,-10391041.143004201,2374320.3115108525,23196366.86206254,-961.0527668160696,-3023.644303474678,-123.1979089378039,93774.8421783862,0.0008179789565474493,0.000000027939677238464355,0.000000022351741790771484,-0.00000011920928955078125,-0.00000011920928955078125,135168.0,0.0,-196608.0,262144.0
Raw,1758759842000,26438680738,18,,-1442795033561319168,0.0,10.360421180725098,,,48200,14,0.0,32867,12241925868359,12,36.29999923706055,-256.62628173828125,0.09295062720775604,25,-273257.16380469146,0.06572538614273071,1598062500,,,,0,,3,7.800000190734863,32.79999923706055,8.38190317153931,,8.38190317153931,,C,3586648053235047,0,,,,,,,,,0.000000027939677238464355,0.000000022351741790771484,-0.00000011920928955078125,-0.00000011920928955078125,135168.0,0.0,-196608.0,262144.0
Raw,1758759842000,26438680738,18,,-1442795033561319168,0.0,10.360421180725098,,,48200,4,0.0,19456,347059920185963,13,34.400001525878906,22.19369125366211,0.10473287850618362,25,-7012.349686099123,0.07405661791563034,1575420000,,,,0,,6,7.800000190734863,30.899999618530273,-7.62520357966423,,-7.62520357966423,,C,3586648053235047,0,-13525513.798642632,-14036782.956680981,22274308.48055773,296.0895516244017,-2214.9544944149475,-1215.3252958908847,-104732.5513949023,-0.0031291353807318956,0.000000027939677238464355,0.000000022351741790771484,-0.00000011920928955078125,-0.00000011920928955078125,135168.0,0.0,-196608.0,262144.0
Raw,1758759842000,26438680738,18,,-1442795033561319168,0.0,10.360421180725098,,,48200,23,0.0,51,9927678,19,28.700000762939453,-443.4000549316406,0.15747039020061493,16,4917967.220511731,0.2048170268535614,1603687600,,,,0,,3,7.800000190734863,25.200000762939453,8.38190317153931,,8.38190317153931,,C,3586648053235047,0,,,,,,,,,0.000000027939677238464355,0.000000022351741790771484,-0.00000011920928955078125,-0.00000011920928955078125,135168.0,0.0,-196608.0,262144.0
Raw,1758759842000,26438680738,18,,-1442795033561319168,0.0,10.360421180725098,,,48200,19,0.0,19456,347059921640530,14,33.20000076293945,584.5242919921875,0.11336711049079895,25,6068.074199199072,0.08016188442707062,1575420000,,,,0,,6,7.800000190734863,29.700000762939453,-7.159542292356491,,-7.159542292356491,,C,3586648053235047,0,-697251.2196575152,-28660730.19962744,7370488.171083658,30.770853568699742,-743.5383047295352,-2887.3814351986666,682538.9017001915,0.012196086114272475,0.000000027939677238464355,0.000000022351741790771484,-0.00000011920928955078125,-0.00000011920928955078125,135168.0,0.0,-196608.0,262144.0
Raw,1758759842000,26438680738,18,,-1442795033561319168,0.0,10.360421180725098,,,48200,21,0.0,19456,347059917767265,18,29.100000381469727,578.96728515625,0.1525878757238388,16,5991.381092880946,0.20304173231124878,1575420000,,,,0,,6,7.800000190734863,25.600000381469727,-2.270098775625229,,-2.270098775625229,,C,3586648053235047,0,8001668.815005835,-15127385.324203856,24155165.275690153,1885.960544304815,1519.2586531131117,326.8767703493446,-207391.52551713763,-0.0006734241324011236,0.000000027939677238464355,0.000000022351741790771484,-0.00000011920928955078125,-0.00000011920928955078125,135168.0,0.0,-196608.0,262144.0
Raw,1758759842000,26438680738,18,,-1442795033561319168,0.0,10.360421180725098,,,48200,22,0.0,32867,12241923109047,25,24.700000762939453,-145.98716735839844,0.2224990874528885,16,-173325.2753636004,0.250995934009552,1600312400,,,,0,,3,7.800000190734863,21.200000762939453,8.38190317153931,,8.38190317153931,,C,3586648053235047,0,19234193.35765912,-11975467.649233393,11745601.250595147,-1205.493202980309,1065.1694334947026,3067.696297945383,26115.872585063058,0.0005453193043649662,0.000000027939677238464355,0.000000022351741790771484,-0.00000011920928955078125,-0.00000011920928955078125,135168.0,0.0,-196608.0,262144.0
Raw,1758759842000,26438680738,18,,-1442795033561319168,0.0,10.360421180725098,,,48200,21,0.0,32867,12241920025671,27,23.399999618530273,477.0744323730469,0.252518892288208,16,1311733.5002624788,0.27199307084083557,1604250000,,,,0,,3,7.800000190734863,19.899999618530273,8.38190317153931,,8.38190317153931,,C,3586648053235047,0,10346976.99021187,4271449.906346617,22928432.528821748,-2152.014929399904,2287.54657308061,541.5199583876293,-71945.18634676433,-0.0010906386087299325,0.000000027939677238464355,0.000000022351741790771484,-0.00000011920928955078125,-0.00000011920928955078125,135168.0,0.0,-196608.0,262144.0
Agc,1758759842000,26438680738,18,,-1442795033561319168,0.0,10.360421180725098,,,48200,7.800000190734863,1575420032,1
Agc,1758759842000,26438680738,18,,-1442795033561319168,0.0,10.360421180725098,,,48200,7.800000190734863,1575420032,1
Agc,1758759842000,26438680738,18,,-1442795033561319168,0.0,10.360421180725098,,,48200,7.800000190734863,1575420032,1
Agc,1758759842000,26438680738,18,,-1442795033561319168,0.0,10.360421180725098,,,48200,7.800000190734863,1575420032,1
Agc,1758759842000,26438680738,18,,-1442795033561319168,0.0,10.360421180725098,,,48200,7.800000190734863,1575420032,1
Agc,1758759842000,26438680738,18,,-1442795033561319168,0.0,10.360421180725098,,,48200,7.800000190734863,1575420032,1
Agc,1758759842000,26438680738,18,,-1442795033561319168,0.0,10.360421180725098,,,48200,7.800000190734863,1575420032,1
Agc,1758759842000,26438680738,18,,-1442795033561319168,0.0,10.360421180725098,,,48200,7.800000190734863,1575420032,1
Agc,1758759842000,26438680738,18,,-1442795033561319168,0.0,10.360421180725098,,,48200,7.800000190734863,1575420032,1
Agc,1758759842000,26438680738,18,,-1442795033561319168,0.0,10.360421180725098,,,48200,7.800000190734863,1599750016,3
Agc,1758759842000,26438680738,18,,-1442795033561319168,0.0,10.360421180725098,,,48200,7.800000190734863,1575420032,6
Agc,1758759842000,26438680738,18,,-1442795033561319168,0.0,10.360421180725098,,,48200,7.800000190734863,1575420032,6
Agc,1758759842000,26438680738,18,,-1442795033561319168,0.0,10.360421180725098,,,48200,7.800000190734863,1604812544,3
Agc,1758759842000,26438680738,18,,-1442795033561319168,0.0,10.360421180725098,,,48200,7.800000190734863,1601437440,3
Agc,1758759842000,26438680738,18,,-1442795033561319168,0.0,10.360421180725098,,,48200,7.800000190734863,1575420032,6
Agc,1758759842000,26438680738,18,,-1442795033561319168,0.0,10.360421180725098,,,48200,7.800000190734863,1600875008,3
Agc,1758759842000,26438680738,18,,-1442795033561319168,0.0,10.360421180725098,,,48200,7.800000190734863,1605374976,3
Agc,1758759842000,26438680738,18,,-1442795033561319168,0.0,10.360421180725098,,,48200,7.800000190734863,1598062464,3
Agc,1758759842000,26438680738,18,,-1442795033561319168,0.0,10.360421180725098,,,48200,7.800000190734863,1575420032,6
Agc,1758759842000,26438680738,18,,-1442795033561319168,0.0,10.360421180725098,,,48200,7.800000190734863,1603687552,3
Agc,1758759842000,26438680738,18,,-1442795033561319168,0.0,10.360421180725098,,,48200,7.800000190734863,1575420032,6
Agc,1758759842000,26438680738,18,,-1442795033561319168,0.0,10.360421180725098,,,48200,7.800000190734863,1575420032,6
Agc,1758759842000,26438680738,18,,-1442795033561319168,0.0,10.360421180725098,,,48200,7.800000190734863,1600312448,3
Agc,1758759842000,26438680738,18,,-1442795033561319168,0.0,10.360421180725098,,,48200,7.800000190734863,1604249984,3
Fix,NLP,40.0364818000,-105.2690336000,1620.300048828125,,20.78,,1758759825698,,,3586631482000000,1.210102,0,,,
Fix,GPS,40.0364303123,-105.2724387031,1623.0,4.81,3.0612245,270.2,1758759843000,0.27,1.2,3586649053235865,2.0,0,,,
Fix,FLP,40.0364303000,-105.2724387000,1620.300048828125,4.81,2.755,270.0,1758759843269,0.27,1.2,3586649053235865,0.82209104,0,,,
Status,,24,0,1,9,1575420000,43.90,191.0,68.1,1,0,1,40.4
Status,,24,1,1,7,1575420000,39.50,315.7,60.1,1,0,1,36.0
Status,,24,2,1,8,1575420000,42.30,112.4,49.7,1,0,1,38.8
Status,,24,3,1,27,1575420000,37.80,67.2,37.6,1,0,1,34.3
Status,,24,4,1,4,1575420000,38.00,152.4,32.7,1,0,1,34.5
Status,,24,5,1,30,1575420000,39.60,294.0,31.6,1,0,1,36.1
Status,,24,6,1,16,1575420000,40.20,49.5,20.7,1,0,1,36.7
Status,,24,7,1,21,1575420000,42.90,297.4,18.8,1,0,1,39.4
Status,,24,8,1,14,1575420000,36.70,235.1,12.7,1,0,1,33.2
Status,,24,9,3,13,1600875000,38.20,334.3,63.6,1,0,1,34.7
Status,,24,10,3,3,1604812500,42.90,280.5,63.5,1,0,1,39.4
Status,,24,11,3,2,1599750000,46.70,182.2,36.7,1,0,1,43.2
Status,,24,12,3,12,1601437400,40.30,42.6,33.8,1,0,1,36.8
Status,,24,13,3,14,1598062500,36.30,261.0,24.2,0,0,1,32.8
Status,,24,14,3,4,1605375000,37.40,328.7,23.3,1,0,1,33.9
Status,,24,15,3,22,1600312400,24.70,77.5,15.4,0,0,1,21.2
Status,,24,16,3,21,1604250000,23.40,22.0,7.5,0,0,1,19.9
Status,,24,17,3,23,1603687600,34.40,117.9,6.7,0,1,0,30.9
Status,,24,18,6,23,1575420000,44.10,229.8,73.3,1,0,1,40.6
Status,,24,19,6,4,1575420000,34.40,303.0,62.0,1,0,1,30.9
Status,,24,20,6,19,1575420000,33.50,150.6,54.5,1,0,1,30.0
Status,,24,21,6,21,1575420000,28.90,48.1,50.0,1,0,1,25.4
Status,,24,22,6,6,1575420000,40.20,312.0,35.6,1,0,1,36.7
Status,,24,23,6,31,1575420000,42.70,228.4,21.0,1,0,1,39.2
Raw,1758759843000,27438681532,18,,-1442795033561318400,0.0,10.360421180725098,,,48200,9,0.0,16399,347060932504432,10,43.900001525878906,498.2895202636719,0.06126849725842476,25,8041.479879023798,0.04332295432686806,1575420000,,,,0,,1,7.800000190734863,40.400001525878906,0.46566128730773926,,0.46566128730773926,,C,3586649053235865,0,-7790741.641923608,-22996177.566375066,10576656.31082734,224.63648091132717,-1364.954863984228,-2782.424954142489,223316.21556876498,0.0011768981930799782,0.000000027939677238464355,0.000000022351741790771484,-0.00000011920928955078125,-0.00000011920928955078125,135168.0,0.0,-196608.0,262144.0
Raw,1758759843000,27438681532,18,,-1442795033561318400,0.0,10.360421180725098,,,48200,21,0.0,16399,347060920796658,10,42.900001525878906,224.94451904296875,0.06441804021596909,25,-1539.009825186943,0.04554999619722366,1575420000,,,,0,,1,7.800000190734863,39.400001525878906,-9.313225746154785,,-9.313225746154785,,C,3586649053235865,0,-20428140.301488064,1288578.9463547356,16927947.641627233,-1735.597189019596,-1280.3814083848483,-1996.3015882042514,76267.8307432332,0.005628669066936709,0.000000027939677238464355,0.000000022351741790771484,-0.00000011920928955078125,-0.00000011920928955078125,135168.0,0.0,-196608.0,262144.0
Raw,1758759843000,27438681532,18,,-1442795033561318400,0.0,10.360421180725098,,,48200,8,0.0,16399,347060930210072,10,42.29999923706055,31.041446685791016,0.06642576307058334,25,-4449.508623061352,0.04696965590119362,1575420000,,,,0,,1,7.800000190734863,38.79999923706055,4.656612873077393,,4.656612873077393,,C,3586649053235865,0,6725357.546590366,-23140615.11681983,10472715.322090762,377.4833271758711,1359.0431750667308,2765.6082876406103,159022.96894502908,-0.0014252956316340715,0.000000027939677238464355,0.000000022351741790771484,-0.00000011920928955078125,-0.00000011920928955078125,135168.0,0.0,-196608.0,262144.0
Raw,1758759843000,27438681532,18,,-1442795033561318400,0.0,10.360421180725098,,,48200,16,0.0,16399,347060921903081,10,40.20000076293945,913.7298583984375,0.07424511015415192,25,9869.752296170547,0.0524987168610096,1575420000,,,,0,,1,7.800000190734863,36.70000076293945,-10.710209608078003,,-10.710209608078003,,C,3586649053235865,0,15589673.615386708,-6365642.251347625,20272831.582451645,2109.8040332700366,1601.4662306449077,-1056.9442854310712,33273.990202853995,0.0017096060255425982,0.000000027939677238464355,0.000000022351741790771484,-0.00000011920928955078125,-0.00000011920928955078125,135168.0,0.0,-196608.0,262144.0
Raw,1758759843000,27438681532,18,,-1442795033561318400,0.0,10.360421180725098,,,48200,30,0.0,16399,347060923743148,10,39.599998474121094,-241.54432678222656,0.07673361152410507,25,-12201.953437315184,0.05425833538174629,1575420000,,,,0,,1,7.800000190734863,36.099998474121094,4.190951585769653,,4.190951585769653,,C,3586649053235865,0,-19459751.952879347,-4016004.7198071675,17923942.89178159,1850.488669103114,-1273.1247832140432,1715.114466062007,-7606.574400981576,0.004088408726602211,0.000000027939677238464355,0.000000022351741790771484,-0.00000011920928955078125,-0.00000011920928955078125,135168.0,0.0,-196608.0,262144.0
Raw,1758759843000,27438681532,18,,-1442795033561318400,0.0,10.360421180725098,,,48200,7,0.0,16399,347060928715931,10,39.5,-26.680936813354492,0.07716049253940582,25,-6249.204979439522,0.054560184478759766,1575420000,,,,0,,1,7.800000190734863,36.0,-10.710209608078003,,-10.710209608078003,,C,3586649053235865,0,-10826332.17344879,-11768458.644107535,21829910.893233366,2283.0386638149503,-1315.4016619409354,393.07270107906487,-24310.974341814726,0.00007718178312643431,0.000000027939677238464355,0.000000022351741790771484,-0.00000011920928955078125,-0.00000011920928955078125,135168.0,0.0,-196608.0,262144.0
Raw,1758759843000,27438681532,18,,-1442795033561318400,0.0,10.360421180725098,,,48200,4,0.0,16399,347060925038994,11,38.0,859.9057006835938,0.08401596546173096,25,15987.189930582688,0.059407688677310944,1575420000,,,,0,,1,7.800000190734863,34.5,-4.656612873077393,,-4.656612873077393,,C,3586649053235865,0,1868981.252840581,-26382493.199746985,-1003956.0211240178,265.49373929524893,142.52523286979343,-3200.298878540803,3051.7120720395824,0.0006746222215952002,0.000000027939677238464355,0.000000022351741790771484,-0.00000011920928955078125,-0.00000011920928955078125,135168.0,0.0,-196608.0,262144.0
Raw,1758759843000,27438681532,18,,-1442795033561318400,0.0,10.360421180725098,,,48200,27,0.0,16399,347060927139447,11,37.79999923706055,434.2467041015625,0.08499860018491745,25,6531.833046458429,0.06010251119732857,1575420000,,,,0,,1,7.800000190734863,34.29999923706055,1.862645149230957,,1.862645149230957,,C,3586649053235865,0,12546526.985696234,-14534233.734792091,17830795.53079275,214.34690317595448,2348.176515268504,1773.3951401674017,-7797.504959700574,-0.0017051789200195344,0.000000027939677238464355,0.000000022351741790771484,-0.00000011920928955078125,-0.00000011920928955078125,135168.0,0.0,-196608.0,262144.0
Raw,1758759843000,27438681532,18,,-1442795033561318400,0.0,10.360421180725098,,,48200,14,0.0,16399,347060918839516,12,36.70000076293945,-367.1693420410156,0.09072434157133102,25,-21035.824566103867,0.06415118277072906,1575420000,,,,0,,1,7.800000190734863,33.20000076293945,-7.916241884231567,,-7.916241884231567,,C,3586649053235865,0,-23664055.607277222,-12041788.987813314,-2842650.062717961,-151.7738624793605,-457.45019355226196,3090.9650198133068,209536.32838059883,0.0016617295041214675,0.000000027939677238464355,0.000000022351741790771484,-0.00000011920928955078125,-0.00000011920928955078125,135168.0,0.0,-196608.0,262144.0
Raw,1758759843000,27438681532,18,,-1442795033561318400,0.0,10.360421180725098,,,48200,2,0.0,32995,12242929470551,10,46.70000076293945,949.997802734375,0.053583674132823944,25,-113627.41759781058,0.037889014929533005,1599750000,,,,0,,3,7.800000190734863,43.20000076293945,8.38190317153931,,8.38190317153931,,C,3586649053235865,0,-7342033.174247309,-24372827.271289576,-801519.1624851398,-155.09358940190305,170.36550237077824,-3593.412552744143,-6905.2605622038245,0.0,0.000000027939677238464355,0.000000022351741790771484,-0.00000011920928955078125,-0.00000011920928955078125,135168.0,0.0,-196608.0,262144.0
Raw,1758759843000,27438681532,18,,-1442795033561318400,0.0,10.360421180725098,,,48200,23,0.0,19456,347060921811096,10,44.099998474121094,87.01134490966797,0.060666363686323166,25,-5074.316053528245,0.04289718717336655,1575420000,,,,0,,6,7.800000190734863,40.599998474121094,-1.57160684466362,,-1.57160684466362,,C,3586649053235865,0,-11483025.165404294,-22626988.02642412,15247278.768593995,1163.6905125280234,993.5359655194609,2350.0731405314045,-3267.670595584495,-0.00031327189890362206,0.000000027939677238464355,0.000000022351741790771484,-0.00000011920928955078125,-0.00000011920928955078125,135168.0,0.0,-196608.0,262144.0
Raw,1758759843000,27438681532,18,,-1442795033561318400,0.0,10.360421180725098,,,48200,3,0.0,32995,12242934586159,10,42.900001525878906,180.2483673095703,0.06441804021596909,25,640521.1129350706,0.04554999619722366,1604812500,,,,0,,3,7.800000190734863,39.400001525878906,8.38190317153931,,8.38190317153931,,C,3586649053235865,0,-12890144.22153492,-14474285.251450151,16585471.825045474,-838.0510224698661,-2110.049964324244,-2504.880433965214,39046.04880733788,0.0,0.000000027939677238464355,0.000000022351741790771484,-0.00000011920928955078125,-0.00000011920928955078125,135168.0,0.0,-196608.0,262144.0
Raw,1758759843000,27438681532,18,,-1442795033561318400,0.0,10.360421180725098,,,48200,31,0.0,19456,347060910907840,10,42.70000076293945,-255.25216674804688,0.0650770515203476,25,-14468.95115757305,0.04601598158478737,1575420000,,,,0,,6,7.800000190734863,39.20000076293945,0.9895302355289459,,0.9895302355289459,,C,3586649053235865,0,-24011460.97099377,-17146316.980780914,-2333480.866935495,-222.10440791131248,-98.77670903393559,2998.508107024839,-26831.837698913798,-0.0006535247193824034,0.000000027939677238464355,0.000000022351741790771484,-0.00000011920928955078125,-0.00000011920928955078125,135168.0,0.0,-196608.0,262144.0
Raw,1758759843000,27438681532,18,,-1442795033561318400,0.0,10.360421180725098,,,48200,12,0.0,32995,12242928519670,10,40.29999923706055,751.1396484375,0.07384215295314789,25,8056.350705896828,0.05221378803253174,1601437400,,,,0,,3,7.800000190734863,36.79999923706055,8.38190317153931,,8.38190317153931,,C,3586649053235865,0,10204577.053187266,-8582501.869237263,21772818.588946052,2924.4872079017186,540.6910850620973,-1158.035903671231,17859.398878182084,0.0002726596521824831,0.000000027939677238464355,0.000000022351741790771484,-0.00000011920928955078125,-0.00000011920928955078125,135168.0,0.0,-196608.0,262144.0
Raw,1758759843000,27438681532,18,,-1442795033561318400,0.0,10.360421180725098,,,48200,6,0.0,19456,347060915048404,10,40.20000076293945,-188.12796020507812,0.07424511015415192,25,-12624.31238988923,0.0524987168610096,1575420000,,,,0,,6,7.800000190734863,36.70000076293945,0.29103830456733704,,0.29103830456733704,,C,3586649053235865,0,-16727700.453886772,-3074082.3170051677,24204373.18707746,354.45412417183917,-2405.5535061657692,-60.80899824610458,-51672.378738835294,-0.0015015918252174743,0.000000027939677238464355,0.000000022351741790771484,-0.00000011920928955078125,-0.00000011920928955078125,135168.0,0.0,-196608.0,262144.0
Raw,1758759843000,27438681532,18,,-1442795033561318400,0.0,10.360421180725098,,,48200,13,0.0,32995,12242934426561,11,38.20000076293945,298.4402770996094,0.08305026590824127,25,-47517.73696100712,0.058724842965602875,1600875000,,,,0,,3,7.800000190734863,34.70000076293945,8.38190317153931,,8.38190317153931,,C,3586649053235865,0,-7109855.851877539,-11833443.063436644,21437320.196686663,2876.037952602316,600.4615816474133,1285.0275914570796,-18839.534275241196,0.0,0.000000027939677238464355,0.000000022351741790771484,-0.00000011920928955078125,-0.00000011920928955078125,135168.0,0.0,-196608.0,262144.0
Raw,1758759843000,27438681532,18,,-1442795033561318400,0.0,10.360421180725098,,,48200,4,0.0,32995,12242925838106,11,37.400001525878906,-442.453369140625,0.08701629191637039,25,661886.7653955282,0.06152921915054321,1605375000,,,,0,,3,7.800000190734863,33.900001525878906,8.38190317153931,,8.38190317153931,,C,3586649053235865,0,-10392002.321600707,2371296.7083726833,23196243.38601476,-961.3000923681249,-3023.5483397334438,-123.75362795069196,93774.842996367,0.0008179789565474493,0.000000027939677238464355,0.000000022351741790771484,-0.00000011920928955078125,-0.00000011920928955078125,135168.0,0.0,-196608.0,262144.0
Raw,1758759843000,27438681532,18,,-1442795033561318400,0.0,10.360421180725098,,,48200,14,0.0,32995,12242925869992,12,36.29999923706055,-259.854736328125,0.09295062720775604,25,-273515.48788041936,0.06572538614273071,1598062500,,,,0,,3,7.800000190734863,32.79999923706055,8.38190317153931,,8.38190317153931,,C,3586649053235865,0,,,,,,,,,0.000000027939677238464355,0.000000022351741790771484,-0.00000011920928955078125,-0.00000011920928955078125,135168.0,0.0,-196608.0,262144.0
Raw,1758759843000,27438681532,18,,-1442795033561318400,0.0,10.360421180725098,,,48200,23,0.0,51,9929956,13,34.400001525878906,-449.0106201171875,0.10473287850618362,17,4917521.286720228,0.16752633452415466,1603687600,,,,0,,3,7.800000190734863,30.899999618530273,8.38190317153931,,8.38190317153931,,C,3586649053235865,0,,,,,,,,,0.000000027939677238464355,0.000000022351741790771484,-0.00000011920928955078125,-0.00000011920928955078125,135168.0,0.0,-196608.0,262144.0
Raw,1758759843000,27438681532,18,,-1442795033561318400,0.0,10.360421180725098,,,48200,4,0.0,19456,347060920186705,13,34.400001525878906,18.21474266052246,0.10473287850618362,25,-6992.258942864683,0.07405661791563034,1575420000,,,,0,,6,7.800000190734863,30.899999618530273,-7.62520357966423,,-7.62520357966423,,C,3586649053235865,0,-13525217.802414102,-14038997.863858342,22273092.98317264,295.9024680617405,-2214.856565093941,-1215.6676673411616,-104732.5545240393,-0.0031291339255403727,0.000000027939677238464355,0.000000022351741790771484,-0.00000011920928955078125,-0.00000011920928955078125,135168.0,0.0,-196608.0,262144.0
Raw,1758759843000,27438681532,18,,-1442795033561318400,0.0,10.360421180725098,,,48200,19,0.0,19456,347060921639374,14,33.5,579.7055053710938,0.1111111119389534,25,6650.080970265589,0.07856667041778564,1575420000,,,,0,,6,7.800000190734863,30.0,-7.159542292356491,,-7.159542292356491,,C,3586649053235865,0,-697220.4995492995,-28661473.59528337,7367600.7363494355,30.669440886507637,-743.2547222136313,-2887.4947018357307,682538.9138962639,0.012196086696349084,0.000000027939677238464355,0.000000022351741790771484,-0.00000011920928955078125,-0.00000011920928955078125,135168.0,0.0,-196608.0,262144.0
Raw,1758759843000,27438681532,18,,-1442795033561318400,0.0,10.360421180725098,,,48200,21,0.0,19456,347060917766134,18,28.899999618530273,573.272216796875,0.15500031411647797,16,6567.3889180506585,0.20474755764007568,1575420000,,,,0,,6,7.800000190734863,25.399999618530273,-2.270098775625229,,-2.270098775625229,,C,3586649053235865,0,8003554.844010536,-15125866.128824469,24155491.966522012,1886.1017252753436,1519.1355361630121,326.50563151176885,-207391.52619056072,-0.000673423579428345,0.000000027939677238464355,0.000000022351741790771484,-0.00000011920928955078125,-0.00000011920928955078125,135168.0,0.0,-196608.0,262144.0
Raw,1758759843000,27438681532,18,,-1442795033561318400,0.0,10.360421180725098,,,48200,22,0.0,32867,12242923110340,25,24.700000762939453,-156.01528930664062,0.2224990874528885,16,-173476.94101072656,0.250995934009552,1600312400,,,,0,,3,7.800000190734863,21.200000762939453,8.38190317153931,,8.38190317153931,,C,3586649053235865,0,19232987.761112403,-11974402.27877881,11748668.809981562,-1205.6967599216646,1065.56873759219,3067.414551218646,26115.87313038307,0.0005453193043649662,0.000000027939677238464355,0.000000022351741790771484,-0.00000011920928955078125,-0.00000011920928955078125,135168.0,0.0,-196608.0,262144.0
Raw,1758759843000,27438681532,18,,-1442795033561318400,0.0,10.360421180725098,,,48200,21,0.0,32867,12242920024936,27,23.399999618530273,471.6484069824219,0.252518892288208,16,1312207.9643995753,0.27199307084083557,1604250000,,,,0,,3,7.800000190734863,19.899999618530273,8.38190317153931,,8.38190317153931,,C,3586649053235865,0,10344825.047098724,4273737.568267791,22928973.773304943,-2151.87446330434,2287.7806420428733,540.9698068923531,-71945.18743740214,-0.0010906386087299325,0.000000027939677238464355,0.000000022351741790771484,-0.00000011920928955078125,-0.00000011920928955078125,135168.0,0.0,-196608.0,262144.0
Agc,1758759843000,27438681532,18,,-1442795033561318400,0.0,10.360421180725098,,,48200,7.800000190734863,1575420032,1
Agc,1758759843000,27438681532,18,,-1442795033561318400,0.0,10.360421180725098,,,48200,7.800000190734863,1575420032,1
Agc,1758759843000,27438681532,18,,-1442795033561318400,0.0,10.360421180725098,,,48200,7.800000190734863,1575420032,1
Agc,1758759843000,27438681532,18,,-1442795033561318400,0.0,10.360421180725098,,,48200,7.800000190734863,1575420032,1
Agc,1758759843000,27438681532,18,,-1442795033561318400,0.0,10.360421180725098,,,48200,7.800000190734863,1575420032,1
Agc,1758759843000,27438681532,18,,-1442795033561318400,0.0,10.360421180725098,,,48200,7.800000190734863,1575420032,1
Agc,1758759843000,27438681532,18,,-1442795033561318400,0.0,10.360421180725098,,,48200,7.800000190734863,1575420032,1
Agc,1758759843000,27438681532,18,,-1442795033561318400,0.0,10.360421180725098,,,48200,7.800000190734863,1575420032,1
Agc,1758759843000,27438681532,18,,-1442795033561318400,0.0,10.360421180725098,,,48200,7.800000190734863,1575420032,1
Agc,1758759843000,27438681532,18,,-1442795033561318400,0.0,10.360421180725098,,,48200,7.800000190734863,1599750016,3
Agc,1758759843000,27438681532,18,,-1442795033561318400,0.0,10.360421180725098,,,48200,7.800000190734863,1575420032,6
Agc,1758759843000,27438681532,18,,-1442795033561318400,0.0,10.360421180725098,,,48200,7.800000190734863,1604812544,3
Agc,1758759843000,27438681532,18,,-1442795033561318400,0.0,10.360421180725098,,,48200,7.800000190734863,1575420032,6
Agc,1758759843000,27438681532,18,,-1442795033561318400,0.0,10.360421180725098,,,48200,7.800000190734863,1601437440,3
Agc,1758759843000,27438681532,18,,-1442795033561318400,0.0,10.360421180725098,,,48200,7.800000190734863,1575420032,6
Agc,1758759843000,27438681532,18,,-1442795033561318400,0.0,10.360421180725098,,,48200,7.800000190734863,1600875008,3
Agc,1758759843000,27438681532,18,,-1442795033561318400,0.0,10.360421180725098,,,48200,7.800000190734863,1605374976,3
Agc,1758759843000,27438681532,18,,-1442795033561318400,0.0,10.360421180725098,,,48200,7.800000190734863,1598062464,3
