# 
# Header Description:
# 
# Version: v3.1.1.1 Platform: 16 Manufacturer: Google Model: Pixel 8a GNSS Hardware Model Name: S.LSI,K041,SPOTNAV_4.15.4_3_250220_R2_258342
# 
# Raw,utcTimeMillis,TimeNanos,LeapSecond,TimeUncertaintyNanos,FullBiasNanos,BiasNanos,BiasUncertaintyNanos,DriftNanosPerSecond,DriftUncertaintyNanosPerSecond,HardwareClockDiscontinuityCount,Svid,TimeOffsetNanos,State,ReceivedSvTimeNanos,ReceivedSvTimeUncertaintyNanos,Cn0DbHz,PseudorangeRateMetersPerSecond,PseudorangeRateUncertaintyMetersPerSecond,AccumulatedDeltaRangeState,AccumulatedDeltaRangeMeters,AccumulatedDeltaRangeUncertaintyMeters,CarrierFrequencyHz,CarrierCycles,CarrierPhase,CarrierPhaseUncertainty,MultipathIndicator,SnrInDb,ConstellationType,AgcDb,BasebandCn0DbHz,FullInterSignalBiasNanos,FullInterSignalBiasUncertaintyNanos,SatelliteInterSignalBiasNanos,SatelliteInterSignalBiasUncertaintyNanos,CodeType,ChipsetElapsedRealtimeNanos,IsFullTracking,SvPositionEcefXMeters,SvPositionEcefYMeters,SvPositionEcefZMeters,SvVelocityEcefXMetersPerSecond,SvVelocityEcefYMetersPerSecond,SvVelocityEcefZMetersPerSecond,SvClockBiasMeters,SvClockDriftMetersPerSecond,KlobucharAlpha0,KlobucharAlpha1,KlobucharAlpha2,KlobucharAlpha3,KlobucharBeta0,KlobucharBeta1,KlobucharBeta2,KlobucharBeta3
# 
# UncalAccel,utcTimeMillis,elapsedRealtimeNanos,UncalAccelXMps2,UncalAccelYMps2,UncalAccelZMps2,BiasXMps2,BiasYMps2,BiasZMps2,CalibrationAccuracy
# 
# Accel,utcTimeMillis,elapsedRealtimeNanos,AccelXMps2,AccelYMps2,AccelZMps2,CalibrationAccuracy
# 
# UncalGyro,utcTimeMillis,elapsedRealtimeNanos,UncalGyroXRadPerSec,UncalGyroYRadPerSec,UncalGyroZRadPerSec,DriftXRadPerSec,DriftYRadPerSec,DriftZRadPerSec,CalibrationAccuracy
# 
# Gyro,utcTimeMillis,elapsedRealtimeNanos,GyroXRadPerSec,GyroYRadPerSec,GyroZRadPerSec,CalibrationAccuracy
# 
# UncalMag,utcTimeMillis,elapsedRealtimeNanos,UncalMagXMicroT,UncalMagYMicroT,UncalMagZMicroT,BiasXMicroT,BiasYMicroT,BiasZMicroT,CalibrationAccuracy
# 
# Mag,utcTimeMillis,elapsedRealtimeNanos,MagXMicroT,MagYMicroT,MagZMicroT,CalibrationAccuracy
# 
# Pressure,utcTimeMillis,elapsedRealtimeNanos,PressureHpa,CalibrationAccuracy
# 
# OrientationDeg,utcTimeMillis,elapsedRealtimeNanos,yawDeg,rollDeg,pitchDeg,CalibrationAccuracy
# 
# Fix,Provider,LatitudeDegrees,LongitudeDegrees,AltitudeMeters,SpeedMps,AccuracyMeters,BearingDegrees,UnixTimeMillis,SpeedAccuracyMps,BearingAccuracyDegrees,elapsedRealtimeNanos,VerticalAccuracyMeters,MockLocation,NumberOfUsedSignals,VerticalSpeedAccuracyMps,SolutionType
# 
# Nav,Svid,Type,Status,MessageId,Sub-messageId,Data(Bytes)
# 
# Status,UnixTimeMillis,SignalCount,SignalIndex,ConstellationType,Svid,CarrierFrequencyHz,Cn0DbHz,AzimuthDegrees,ElevationDegrees,UsedInFix,HasAlmanacData,HasEphemerisData,BasebandCn0DbHz
# 
# Agc,utcTimeMillis,TimeNanos,LeapSecond,TimeUncertaintyNanos,FullBiasNanos,BiasNanos,BiasUncertaintyNanos,DriftNanosPerSecond,DriftUncertaintyNanosPerSecond,HardwareClockDiscontinuityCount,AgcDb,CarrierFrequencyHz,ConstellationType
# 
Fix,FLP,40.0422012000,-105.2417864000,1600.199951171875,,23.045,,1758759529352,,,3586335136000000,0.6952754,0,,,
Status,,22,0,1,9,1575420000,47.60,194.2,70.6,1,0,1,44.1
Status,,22,1,1,7,1575420000,46.50,313.0,58.6,1,0,1,43.0
Status,,22,2,1,8,1575420000,39.60,116.0,48.5,1,0,1,36.1
Status,,22,3,1,27,1575420000,41.50,69.9,38.2,1,0,1,38.0
Status,,22,4,1,4,1575420000,37.60,151.6,34.9,1,0,1,34.1
Status,,22,5,1,30,1575420000,33.80,292.6,30.0,1,0,1,30.3
Status,,22,6,1,16,1575420000,37.80,49.1,22.6,1,0,1,34.3
Status,,22,7,1,21,1575420000,39.80,299.5,18.7,1,0,1,36.3
Status,,22,8,1,14,1575420000,40.80,234.0,10.9,1,0,1,37.3
Status,,22,9,3,13,1600875000,40.00,327.9,64.0,1,0,1,36.5
Status,,22,10,3,3,1604812500,45.10,286.9,62.9,1,0,1,41.6
Status,,22,11,3,12,1601437400,39.40,40.7,35.8,1,0,1,35.9
Status,,22,12,3,14,1598062500,26.40,258.7,22.5,0,0,1,22.9
Status,,22,13,3,4,1605375000,30.70,329.6,21.1,0,0,1,27.2
Status,,22,14,3,22,1600312400,39.50,79.8,14.1,1,0,1,36.0
Status,,22,15,3,21,1604250000,35.50,24.2,8.2,1,0,1,32.0
Status,,22,16,6,23,1575420000,41.80,226.4,71.5,1,0,1,38.3
Status,,22,17,6,4,1575420000,40.60,305.0,60.4,1,0,1,37.1
Status,,22,18,6,19,1575420000,37.80,149.2,56.5,0,0,1,34.3
Status,,22,19,6,21,1575420000,32.00,48.4,51.8,0,0,1,28.5
Status,,22,20,6,6,1575420000,39.50,312.3,34.0,1,0,1,36.0
Status,,22,21,6,29,1575420000,36.30,140.7,10.4,0,0,1,32.8
Agc,,1505206305,18,,,,,,,48197,7.800000190734863,1575420032,1
Agc,,1505206305,18,,,,,,,48197,7.800000190734863,1575420032,1
Agc,,1505206305,18,,,,,,,48197,7.800000190734863,1575420032,1
Agc,,1505206305,18,,,,,,,48197,7.800000190734863,1575420032,1
Agc,,1505206305,18,,,,,,,48197,7.800000190734863,1575420032,1
Agc,,1505206305,18,,,,,,,48197,7.800000190734863,1575420032,1
Agc,,1505206305,18,,,,,,,48197,7.800000190734863,1575420032,1
Agc,,1505206305,18,,,,,,,48197,7.800000190734863,1575420032,1
Agc,,1505206305,18,,,,,,,48197,7.800000190734863,1575420032,1
Agc,,1505206305,18,,,,,,,48197,7.800000190734863,1604812544,3
Agc,,1505206305,18,,,,,,,48197,7.800000190734863,1575420032,6
Agc,,1505206305,18,,,,,,,48197,7.800000190734863,1575420032,6
Agc,,1505206305,18,,,,,,,48197,7.800000190734863,1600875008,3
Agc,,1505206305,18,,,,,,,48197,7.800000190734863,1575420032,6
Agc,,1505206305,18,,,,,,,48197,7.800000190734863,1600312448,3
Agc,,1505206305,18,,,,,,,48197,7.800000190734863,1601437440,3
Agc,,1505206305,18,,,,,,,48197,7.800000190734863,1575420032,6
Agc,,1505206305,18,,,,,,,48197,7.800000190734863,1575420032,6
Agc,,1505206305,18,,,,,,,48197,7.800000190734863,1604249984,3
Agc,,1505206305,18,,,,,,,48197,7.800000190734863,1575420032,6
Agc,,1505206305,18,,,,,,,48197,7.800000190734863,1605374976,3
Agc,,1505206305,18,,,,,,,48197,7.800000190734863,1598062464,3
Fix,GPS,40.0419340795,-105.2413346339,1596.0,21.26,12.244898,204.9,1758759531000,0.33,5.9,3586337045972961,12.0,0,,,
Fix,FLP,40.0419341000,-105.2413346000,1600.199951171875,21.26,17.645,204.0,1758759531261,0.33,5.9,3586337045972961,0.72035915,0,,,
Status,1758759531000,23,0,1,9,1575420000,48.10,194.2,70.6,1,0,1,44.6
Status,1758759531000,23,1,1,7,1575420000,45.50,313.0,58.6,1,0,1,42.0
Status,1758759531000,23,2,1,8,1575420000,41.20,116.0,48.5,1,0,1,37.7
Status,1758759531000,23,3,1,27,1575420000,41.80,69.9,38.2,1,0,1,38.3
Status,1758759531000,23,4,1,4,1575420000,38.60,151.6,34.9,1,0,1,35.1
Status,1758759531000,23,5,1,30,1575420000,33.00,292.6,30.0,1,0,1,29.5
Status,1758759531000,23,6,1,16,1575420000,37.60,49.1,22.6,1,0,1,34.1
Status,1758759531000,23,7,1,21,1575420000,38.60,299.5,18.7,1,0,1,35.1
Status,1758759531000,23,8,1,14,1575420000,41.30,234.0,10.9,1,0,1,37.8
Status,1758759531000,23,9,3,13,1600875000,40.50,327.9,64.0,1,0,1,37.0
Status,1758759531000,23,10,3,3,1604812500,47.10,286.9,62.9,1,0,1,43.6
Status,1758759531000,23,11,3,2,1599750000,24.80,182.1,39.5,0,0,1,21.3
Status,1758759531000,23,12,3,12,1601437400,40.40,40.7,35.8,1,0,1,36.9
Status,1758759531000,23,13,3,14,1598062500,28.60,258.7,22.5,1,0,1,25.1
Status,1758759531000,23,14,3,4,1605375000,28.20,329.6,21.1,0,0,1,24.7
Status,1758759531000,23,15,3,22,1600312400,40.90,79.8,14.1,1,0,1,37.4
Status,1758759531000,23,16,3,21,1604250000,32.00,24.2,8.2,1,0,1,28.5
Status,1758759531000,23,17,6,23,1575420000,43.70,226.4,71.5,1,0,1,40.2
Status,1758759531000,23,18,6,4,1575420000,42.60,305.0,60.4,1,0,1,39.1
Status,1758759531000,23,19,6,19,1575420000,39.70,149.2,56.5,1,0,1,36.2
Status,1758759531000,23,20,6,21,1575420000,33.70,48.4,51.8,1,0,1,30.2
Status,1758759531000,23,21,6,6,1575420000,41.80,312.3,34.0,1,0,1,38.3
Status,1758759531000,23,22,6,29,1575420000,39.10,140.7,10.4,1,0,1,35.6
Raw,1758759531000,2814566009,18,,-1442794746185434112,0.0,100.06922149658203,,,48197,9,0.0,16399,346748932759321,10,48.099998474121094,245.7002716064453,0.05027247965335846,17,-4887.179525239175,0.13069450855255127,1575420000,,,,0,,1,7.800000190734863,44.599998474121094,0.46566128730773926,,0.46566128730773926,,C,3586337045972961,0,-7864624.988521233,-22554008.078829296,11433421.839155268,249.69927939535393,-1468.9124961646398,-2708.70669689485,223315.84979469984,0.0011679109302349389,0.000000027939677238464355,0.000000022351741790771484,-0.00000011920928955078125,-0.00000011920928955078125,135168.0,0.0,-196608.0,262144.0
Raw,1758759531000,2814566009,18,,-1442794746185434112,0.0,100.06922149658203,,,48197,7,0.0,16399,346748928438857,10,45.5,-240.4116668701172,0.056689340621232986,17,-6096.045224404916,0.1352318674325943,1575420000,,,,0,,1,7.800000190734863,42.0,-10.710209608078003,,-10.710209608078003,,C,3586337045972961,0,-11539895.470642557,-11365905.335316913,21685947.98038645,2290.1567879819663,-1264.6930201191708,529.5974135395146,-24311.002516222852,0.00010281219510943629,0.000000027939677238464355,0.000000022351741790771484,-0.00000011920928955078125,-0.00000011920928955078125,135168.0,0.0,-196608.0,262144.0
Raw,1758759531000,2814566009,18,,-1442794746185434112,0.0,100.06922149658203,,,48197,27,0.0,16399,346748927329216,10,41.79999923706055,190.9075927734375,0.0681714415550232,17,-5014.958349577151,0.14335086941719055,1575420000,,,,0,,1,7.800000190734863,38.29999923706055,1.862645149230957,,1.862645149230957,,C,3586337045972961,0,12485893.939102408,-15256181.026229385,17258468.025777243,174.80326992547273,2278.7577383419175,1894.7180324751303,-7796.971774168116,-0.00171218750620028,0.000000027939677238464355,0.000000022351741790771484,-0.00000011920928955078125,-0.00000011920928955078125,135168.0,0.0,-196608.0,262144.0
Raw,1758759531000,2814566009,18,,-1442794746185434112,0.0,100.06922149658203,,,48197,14,0.0,16399,346748918205088,10,41.29999923706055,-599.344970703125,0.06998684257268906,17,-7001.8670242985245,0.14463452994823456,1575420000,,,,0,,1,7.800000190734863,37.79999923706055,-7.916241884231567,,-7.916241884231567,,C,3586337045972961,0,-23602129.23443242,-11888647.497065874,-3803808.547548976,-244.63897562265768,-524.8094651256861,3069.2464555310594,209535.8121011882,0.001647566066822037,0.000000027939677238464355,0.000000022351741790771484,-0.00000011920928955078125,-0.00000011920928955078125,135168.0,0.0,-196608.0,262144.0
Raw,1758759531000,2814566009,18,,-1442794746185434112,0.0,100.06922149658203,,,48197,8,0.0,16399,346748929979688,10,41.20000076293945,-221.24525451660156,0.07035861909389496,17,-6056.92060892038,0.14489741623401642,1575420000,,,,0,,1,7.800000190734863,37.70000076293945,4.656612873077393,,4.656612873077393,,C,3586337045972961,0,6611562.9434614815,-23548382.503819387,9598951.569381114,352.66492175485644,1254.3056329739989,2834.4392062276643,159023.41390986388,-0.0014266539947129786,0.000000027939677238464355,0.000000022351741790771484,-0.00000011920928955078125,-0.00000011920928955078125,135168.0,0.0,-196608.0,262144.0
Raw,1758759531000,2814566009,18,,-1442794746185434112,0.0,100.06922149658203,,,48197,4,0.0,16399,346748925680095,11,38.599998474121094,618.4212646484375,0.08116818219423294,17,-3951.840303822224,0.15254086256027222,1575420000,,,,0,,1,7.800000190734863,35.099998474121094,-4.656612873077393,,-4.656612873077393,,C,3586337045972961,0,1785422.2444585883,-26408067.703203462,-4762.608032915002,270.98995371376697,21.436703194535266,-3203.6829290534806,3051.501197756801,0.0006772596393602726,0.000000027939677238464355,0.000000022351741790771484,-0.00000011920928955078125,-0.00000011920928955078125,135168.0,0.0,-196608.0,262144.0
Raw,1758759531000,2814566009,18,,-1442794746185434112,0.0,100.06922149658203,,,48197,21,0.0,16399,346748920766365,11,38.599998474121094,-14.35302448272705,0.08116818219423294,17,-5540.5449818981215,0.15254086256027222,1575420000,,,,0,,1,7.800000190734863,35.099998474121094,-9.313225746154785,,-9.313225746154785,,C,3586337045972961,0,-19880176.08901597,1699371.8797911964,17533055.37806827,-1775.9893056811552,-1352.871972501945,-1881.9243841811592,76266.07467136785,0.005628199083730578,0.000000027939677238464355,0.000000022351741790771484,-0.00000011920928955078125,-0.00000011920928955078125,135168.0,0.0,-196608.0,262144.0
Raw,1758759531000,2814566009,18,,-1442794746185434112,0.0,100.06922149658203,,,48197,16,0.0,16399,346748922610799,11,37.599998474121094,711.8873291015625,0.08599857985973358,17,-3718.98419727118,0.15595643222332,1575420000,,,,0,,1,7.800000190734863,34.099998474121094,-10.710209608078003,,-10.710209608078003,,C,3586337045972961,0,14930613.88292865,-6875051.28830002,20580985.30133789,2113.9408581776806,1663.5661207700787,-918.0164468018565,33273.46569828764,0.0016528797641512938,0.000000027939677238464355,0.000000022351741790771484,-0.00000011920928955078125,-0.00000011920928955078125,135168.0,0.0,-196608.0,262144.0
Raw,1758759531000,2814566009,18,,-1442794746185434112,0.0,100.06922149658203,,,48197,30,0.0,16399,346748923243285,14,33.0,-452.5546569824219,0.11490950733423233,17,-6632.343410795169,0.1763993501663208,1575420000,,,,0,,1,7.800000190734863,29.5,4.190951585769653,,4.190951585769653,,C,3586337045972961,0,-20031182.6107651,-3628908.5969845895,17370862.338373315,1811.5739605522879,-1208.2394734545694,1829.666542323622,-7607.850949385573,0.00409432698324963,0.000000027939677238464355,0.000000022351741790771484,-0.00000011920928955078125,-0.00000011920928955078125,135168.0,0.0,-196608.0,262144.0
Raw,1758759531000,2814566009,18,,-1442794746185434112,0.0,100.06922149658203,,,48197,3,0.0,32867,11930934500993,10,47.099998474121094,-81.48973846435547,0.052605003118515015,17,753019.5611652214,0.1306011974811554,1604812500,,,,0,,3,7.800000190734863,43.599998474121094,4.656612873077392,,4.656612873077392,,C,3586337045972961,0,-12632290.711849857,-13797090.126464795,17347310.586044855,-813.6896523292113,-2230.0949054394273,-2377.755343249315,39046.04880733788,0.0,0.000000027939677238464355,0.000000022351741790771484,-0.00000011920928955078125,-0.00000011920928955078125,135168.0,0.0,-196608.0,262144.0
Raw,1758759531000,2814566009,18,,-1442794746185434112,0.0,100.06922149658203,,,48197,23,0.0,19456,346748921646061,10,43.70000076293945,-148.15939331054688,0.06187965348362923,18,-16826.072745370846,0.13890193402767181,1575420000,,,,0,,6,7.800000190734863,40.20000076293945,-1.57160684466362,,-1.57160684466362,,C,3586337045972961,0,-11833415.90620343,-22933923.776601903,14502835.28119791,1082.3738073442073,973.2227958580172,2421.4030448501703,-3267.572906407192,-0.0003129420447294251,0.000000027939677238464355,0.000000022351741790771484,-0.00000011920928955078125,-0.00000011920928955078125,135168.0,0.0,-196608.0,262144.0
Raw,1758759531000,2814566009,18,,-1442794746185434112,0.0,100.06922149658203,,,48197,4,0.0,19456,346748919950575,10,42.599998474121094,-207.39096069335938,0.06541035324335098,17,-9719.948564206097,0.14139848947525024,1575420000,,,,0,,6,7.800000190734863,39.099998474121094,-7.62520357966423,,-7.62520357966423,,C,3586337045972961,0,-13626698.524906067,-13343446.227105144,22635625.56603067,354.77475046369807,-2242.994432145496,-1107.9674368899414,-104731.5781633978,-0.0031295828375732526,0.000000027939677238464355,0.000000022351741790771484,-0.00000011920928955078125,-0.00000011920928955078125,135168.0,0.0,-196608.0,262144.0
Raw,1758759531000,2814566009,18,,-1442794746185434112,0.0,100.06922149658203,,,48197,6,0.0,19456,346748914601518,10,41.79999923706055,-401.2672424316406,0.0681714415550232,18,-17310.258999592857,0.14335086941719055,1575420000,,,,0,,6,7.800000190734863,38.29999923706055,0.29103830456733704,,0.29103830456733704,,C,3586337045972961,0,-16847124.80140436,-2324813.650684073,24205204.562008735,410.9552575195029,-2396.62270741673,55.480189564841986,-51671.91027708209,-0.0015013506053946912,0.000000027939677238464355,0.000000022351741790771484,-0.00000011920928955078125,-0.00000011920928955078125,135168.0,0.0,-196608.0,262144.0
Raw,1758759531000,2814566009,18,,-1442794746185434112,0.0,100.06922149658203,,,48197,22,0.0,32867,11930922697148,10,40.900001525878906,-385.7244567871094,0.07149188965559006,17,-146731.07302721174,0.14421877264976501,1600312400,,,,0,,3,7.800000190734863,37.400001525878906,4.656612873077392,,4.656612873077392,,C,3586337045972961,0,19598852.45419501,-12287481.445780965,10778293.605743125,-1138.2873512523556,941.5515159313663,3151.7227843343726,26115.702990534784,0.0005453193043649662,0.000000027939677238464355,0.000000022351741790771484,-0.00000011920928955078125,-0.00000011920928955078125,135168.0,0.0,-196608.0,262144.0
Raw,1758759531000,2814566009,18,,-1442794746185434112,0.0,100.06922149658203,,,48197,13,0.0,32867,11930934481132,10,40.5,71.40444946289062,0.07304602116346359,17,-82193.85634630363,0.1452847719192505,1600875000,,,,0,,3,7.800000190734863,37.0,4.656612873077392,,4.656612873077392,,C,3586337045972961,0,-7996024.16474791,-12030193.573011369,21011465.439226817,2803.214668763753,660.0159159898715,1444.2787143456437,-18839.534275241196,0.0,0.000000027939677238464355,0.000000022351741790771484,-0.00000011920928955078125,-0.00000011920928955078125,135168.0,0.0,-196608.0,262144.0
Raw,1758759531000,2814566009,18,,-1442794746185434112,0.0,100.06922149658203,,,48197,12,0.0,32867,11930929057415,10,40.400001525878906,548.4376220703125,0.07344246655702591,17,-17587.072284296293,0.14553222060203552,1601437400,,,,0,,3,7.800000190734863,36.900001525878906,4.656612873077392,,4.656612873077392,,C,3586337045972961,0,9287199.038666928,-8764199.292723978,22108610.45412009,2954.6297836952235,624.0908740592248,-994.0622352605919,17859.313808517225,0.0002726596521824831,0.000000027939677238464355,0.000000022351741790771484,-0.00000011920928955078125,-0.00000011920928955078125,135168.0,0.0,-196608.0,262144.0
Raw,1758759531000,2814566009,18,,-1442794746185434112,0.0,100.06922149658203,,,48197,19,0.0,19456,346748921988791,10,39.70000076293945,342.1981506347656,0.07631023973226547,18,-19691.48739892639,0.14910580217838287,1575420000,,,,0,,6,7.800000190734863,36.20000076293945,-7.159542292356491,,-7.159542292356491,,C,3586337045972961,0,-711930.382355677,-28415891.444078043,8262762.28884827,64.27961689886857,-830.6083806435975,-2850.011300470967,682535.108753638,0.012195879709906876,0.000000027939677238464355,0.000000022351741790771484,-0.00000011920928955078125,-0.00000011920928955078125,135168.0,0.0,-196608.0,262144.0
Raw,1758759531000,2814566009,18,,-1442794746185434112,0.0,100.06922149658203,,,48197,29,0.0,19456,346748907256987,10,39.099998474121094,566.8070068359375,0.07890418916940689,18,-19303.74511750607,0.15093998610973358,1575420000,,,,0,,6,7.800000190734863,35.599998474121094,-8.09086486697197,,-8.09086486697197,,C,3586337045972961,0,10791898.450465726,-26090518.261341475,-8885531.164308453,-195.4652550070962,869.4945575831449,-2794.508866137324,-40578.29447374895,-0.0010462299760547467,0.000000027939677238464355,0.000000022351741790771484,-0.00000011920928955078125,-0.00000011920928955078125,135168.0,0.0,-196608.0,262144.0
Raw,1758759531000,2814566009,18,,-1442794746185434112,0.0,100.06922149658203,,,48197,21,0.0,19456,346748918116250,14,33.70000076293945,361.0714111328125,0.10964430868625641,18,-17694.611933391396,0.17267632484436035,1575420000,,,,0,,6,7.800000190734863,30.200000762939453,-2.270098775625229,,-2.270098775625229,,C,3586337045972961,0,7422146.549202301,-15605645.03889502,24035585.753516983,1840.2971686737803,1555.775647368646,442.02913838869006,-207391.31605460015,-0.0006736053910572082,0.000000027939677238464355,0.000000022351741790771484,-0.00000011920928955078125,-0.00000011920928955078125,135168.0,0.0,-196608.0,262144.0
Raw,1758759531000,2814566009,18,,-1442794746185434112,0.0,100.06922149658203,,,48197,21,0.0,32867,11930920256451,15,32.0,202.59573364257812,0.12311480194330215,16,690641.1394258848,0.18049141764640808,1604250000,,,,0,,3,7.800000190734863,28.5,4.656612873077392,,4.656612873077392,,C,3586337045972961,0,11022667.650345357,3571655.6406957735,22733485.906054795,-2192.0403704517694,2211.7610492013882,711.9115413954195,-71944.84715840871,-0.0010906386087299325,0.000000027939677238464355,0.000000022351741790771484,-0.00000011920928955078125,-0.00000011920928955078125,135168.0,0.0,-196608.0,262144.0
Raw,1758759531000,2814566009,18,,-1442794746185434112,0.0,100.06922149658203,,,48197,14,0.0,32867,11930925343902,19,28.600000381469727,-493.12298583984375,0.15872763097286224,18,-801576.422103789,0.20603503286838531,1598062500,,,,0,,3,7.800000190734863,25.100000381469727,4.656612873077392,,4.656612873077392,,C,3586337045972961,0,,,,,,,,,0.000000027939677238464355,0.000000022351741790771484,-0.00000011920928955078125,-0.00000011920928955078125,135168.0,0.0,-196608.0,262144.0
Raw,1758759531000,2814566009,18,,-1442794746185434112,0.0,100.06922149658203,,,48197,4,0.0,32867,11930925120247,19,28.200000762939453,-665.8815307617188,0.16391023993492126,18,1096295.7501650671,0.20927241444587708,1605375000,,,,0,,3,7.800000190734863,24.700000762939453,4.656612873077392,,4.656612873077392,,C,3586337045972961,0,-10104267.74858437,3318848.8289503804,23207797.557373725,-882.67548325748,-3048.9754580138433,49.70095809666249,93774.58778634536,0.0008179789565474493,0.000000027939677238464355,0.000000022351741790771484,-0.00000011920928955078125,-0.00000011920928955078125,135168.0,0.0,-196608.0,262144.0
Raw,1758759531000,2814566009,18,,-1442794746185434112,0.0,100.06922149658203,,,48197,2,0.0,32867,11930930198894,24,24.799999237060547,695.4865112304688,0.22041483223438263,18,-451860.318642589,0.24955511093139648,1599750000,,,,0,,3,7.800000190734863,21.299999237060547,4.656612873077392,,4.656612873077392,,C,3586337045972961,0,,,,,,,,,0.000000027939677238464355,0.000000022351741790771484,-0.00000011920928955078125,-0.00000011920928955078125,135168.0,0.0,-196608.0,262144.0
Agc,1758759531000,2814566009,18,,-1442794746185434112,0.0,100.06922149658203,,,48197,7.800000190734863,1575420032,1
Agc,1758759531000,2814566009,18,,-1442794746185434112,0.0,100.06922149658203,,,48197,7.800000190734863,1575420032,1
Agc,1758759531000,2814566009,18,,-1442794746185434112,0.0,100.06922149658203,,,48197,7.800000190734863,1575420032,1
Agc,1758759531000,2814566009,18,,-1442794746185434112,0.0,100.06922149658203,,,48197,7.800000190734863,1575420032,1
Agc,1758759531000,2814566009,18,,-1442794746185434112,0.0,100.06922149658203,,,48197,7.800000190734863,1575420032,1
Agc,1758759531000,2814566009,18,,-1442794746185434112,0.0,100.06922149658203,,,48197,7.800000190734863,1575420032,1
Agc,1758759531000,2814566009,18,,-1442794746185434112,0.0,100.06922149658203,,,48197,7.800000190734863,1575420032,1
Agc,1758759531000,2814566009,18,,-1442794746185434112,0.0,100.06922149658203,,,48197,7.800000190734863,1575420032,1
Agc,1758759531000,2814566009,18,,-1442794746185434112,0.0,100.06922149658203,,,48197,7.800000190734863,1575420032,1
Agc,1758759531000,2814566009,18,,-1442794746185434112,0.0,100.06922149658203,,,48197,7.800000190734863,1604812544,3
Agc,1758759531000,2814566009,18,,-1442794746185434112,0.0,100.06922149658203,,,48197,7.800000190734863,1575420032,6
Agc,1758759531000,2814566009,18,,-1442794746185434112,0.0,100.06922149658203,,,48197,7.800000190734863,1575420032,6
Agc,1758759531000,2814566009,18,,-1442794746185434112,0.0,100.06922149658203,,,48197,7.800000190734863,1575420032,6
Agc,1758759531000,2814566009,18,,-1442794746185434112,0.0,100.06922149658203,,,48197,7.800000190734863,1600312448,3
Agc,1758759531000,2814566009,18,,-1442794746185434112,0.0,100.06922149658203,,,48197,7.800000190734863,1600875008,3
Agc,1758759531000,2814566009,18,,-1442794746185434112,0.0,100.06922149658203,,,48197,7.800000190734863,1601437440,3
Agc,1758759531000,2814566009,18,,-1442794746185434112,0.0,100.06922149658203,,,48197,7.800000190734863,1575420032,6
Agc,1758759531000,2814566009,18,,-1442794746185434112,0.0,100.06922149658203,,,48197,7.800000190734863,1575420032,6
Agc,1758759531000,2814566009,18,,-1442794746185434112,0.0,100.06922149658203,,,48197,7.800000190734863,1575420032,6
Agc,1758759531000,2814566009,18,,-1442794746185434112,0.0,100.06922149658203,,,48197,7.800000190734863,1604249984,3
Agc,1758759531000,2814566009,18,,-1442794746185434112,0.0,100.06922149658203,,,48197,7.800000190734863,1598062464,3
Agc,1758759531000,2814566009,18,,-1442794746185434112,0.0,100.06922149658203,,,48197,7.800000190734863,1605374976,3
Agc,1758759531000,2814566009,18,,-1442794746185434112,0.0,100.06922149658203,,,48197,7.800000190734863,1599750016,3
Fix,GPS,40.0417807326,-105.2414396591,1598.0,21.46,5.102041,205.0,1758759532000,0.22,0.2,3586338045973134,5.0,0,,,
Fix,FLP,40.0417807000,-105.2414397000,1600.199951171875,21.46,13.464,205.0,1758759532261,0.22,0.2,3586338045973134,0.66102797,0,,,
Status,1758759532000,22,0,1,9,1575420000,48.30,194.2,70.6,1,0,1,44.8
Status,1758759532000,22,1,1,7,1575420000,45.60,313.0,58.6,1,0,1,42.1
Status,1758759532000,22,2,1,8,1575420000,41.50,116.0,48.5,1,0,1,38.0
Status,1758759532000,22,3,1,27,1575420000,41.90,69.9,38.2,1,0,1,38.4
Status,1758759532000,22,4,1,4,1575420000,39.00,151.6,34.9,1,0,1,35.5
Status,1758759532000,22,5,1,30,1575420000,33.30,292.6,30.0,1,0,1,29.8
Status,1758759532000,22,6,1,16,1575420000,37.70,49.1,22.6,1,0,1,34.2
Status,1758759532000,22,7,1,21,1575420000,38.50,299.5,18.7,1,0,1,35.0
Status,1758759532000,22,8,1,14,1575420000,41.70,234.0,10.9,1,0,1,38.2
Status,1758759532000,22,9,3,13,1600875000,40.50,327.9,64.0,1,0,1,37.0
Status,1758759532000,22,10,3,3,1604812500,47.70,286.9,62.9,1,0,1,44.2
Status,1758759532000,22,11,3,2,1599750000,25.40,182.1,39.5,1,0,1,21.9
Status,1758759532000,22,12,3,12,1601437400,40.70,40.7,35.8,1,0,1,37.2
Status,1758759532000,22,13,3,14,1598062500,29.30,258.7,22.5,1,0,1,25.8
Status,1758759532000,22,14,3,4,1605375000,28.10,329.6,21.1,1,0,1,24.6
Status,1758759532000,22,15,3,22,1600312400,41.10,79.8,14.1,1,0,1,37.6
Status,1758759532000,22,16,6,23,1575420000,44.10,226.4,71.5,1,0,1,40.6
Status,1758759532000,22,17,6,4,1575420000,43.10,305.0,60.4,1,0,1,39.6
Status,1758759532000,22,18,6,19,1575420000,40.40,149.2,56.5,1,0,1,36.9
Status,1758759532000,22,19,6,21,1575420000,34.10,48.4,51.8,1,0,1,30.6
Status,1758759532000,22,20,6,6,1575420000,42.30,312.3,34.0,1,0,1,38.8
Status,1758759532000,22,21,6,29,1575420000,39.20,140.7,10.4,1,0,1,35.7
Raw,1758759532000,3814566131,18,,-1442794746185433856,0.0,100.06922149658203,,,48197,9,0.0,16399,346749932758637,10,48.29999923706055,240.32107543945312,0.04982461780309677,17,-4644.133553985201,0.13037782907485962,1575420000,,,,0,,1,7.800000190734863,44.79999923706055,0.46566128730773926,,0.46566128730773926,,C,3586338045973134,0,-7864375.3330259705,-22555476.826431718,11430713.011589974,249.6120598853309,-1468.5847119151338,-2708.952129661238,223315.85096262392,0.0011679387534968555,0.000000027939677238464355,0.000000022351741790771484,-0.00000011920928955078125,-0.00000011920928955078125,135168.0,0.0,-196608.0,262144.0
Raw,1758759532000,3814566131,18,,-1442794746185433856,0.0,100.06922149658203,,,48197,7,0.0,16399,346749928439792,10,45.599998474121094,-245.67233276367188,0.056420356035232544,17,-6338.9946561731995,0.13504166901111603,1575420000,,,,0,,1,7.800000190734863,42.099998474121094,-10.710209608078003,,-10.710209608078003,,C,3586338045973134,0,-11537605.31867211,-11367170.112527793,21686477.360345706,2290.142860737664,-1264.8590329703748,529.161513090737,-24311.002413448692,0.00010273591396980919,0.000000027939677238464355,0.000000022351741790771484,-0.00000011920928955078125,-0.00000011920928955078125,135168.0,0.0,-196608.0,262144.0
Raw,1758759532000,3814566131,18,,-1442794746185433856,0.0,100.06922149658203,,,48197,27,0.0,16399,346749927328711,10,41.900001525878906,185.75839233398438,0.0678168386220932,17,-4826.600089943124,0.14310011267662048,1575420000,,,,0,,1,7.800000190734863,38.400001525878906,1.862645149230957,,1.862645149230957,,C,3586338045973134,0,12486068.803327683,-15253902.153937925,17260362.551604364,174.92536243850992,2278.9891368565004,1894.3355282493646,-7796.973486345888,-0.001712169757411175,0.000000027939677238464355,0.000000022351741790771484,-0.00000011920928955078125,-0.00000011920928955078125,135168.0,0.0,-196608.0,262144.0
Raw,1758759532000,3814566131,18,,-1442794746185433856,0.0,100.06922149658203,,,48197,14,0.0,16399,346749918207218,10,41.70000076293945,-604.962646484375,0.06852881610393524,17,-7603.966840205983,0.14360356330871582,1575420000,,,,0,,1,7.800000190734863,38.20000076293945,-7.916241884231567,,-7.916241884231567,,C,3586338045973134,0,-23602373.72778555,-11889172.196926095,-3800739.254726425,-244.3466832377669,-524.5880258009328,3069.326103713168,209535.8137487814,0.0016476131859235466,0.000000027939677238464355,0.000000022351741790771484,-0.00000011920928955078125,-0.00000011920928955078125,135168.0,0.0,-196608.0,262144.0
Raw,1758759532000,3814566131,18,,-1442794746185433856,0.0,100.06922149658203,,,48197,8,0.0,16399,346749929980547,10,41.5,-226.4389190673828,0.06925208121538162,17,-6280.7043034389935,0.14411498606204987,1575420000,,,,0,,1,7.800000190734863,38.0,4.656612873077393,,4.656612873077393,,C,3586338045973134,0,6611915.645095101,-23547128.02670565,9601785.90552429,352.7377467553414,1254.646434015468,2834.2282003334576,159023.412483209,-0.0014266533544287086,0.000000027939677238464355,0.000000022351741790771484,-0.00000011920928955078125,-0.00000011920928955078125,135168.0,0.0,-196608.0,262144.0
Raw,1758759532000,3814566131,18,,-1442794746185433856,0.0,100.06922149658203,,,48197,4,0.0,16399,346749925678160,11,39.0,612.9993896484375,0.0793493390083313,17,-3336.0790926552,0.15125474333763123,1575420000,,,,0,,1,7.800000190734863,35.5,-4.656612873077393,,-4.656612873077393,,C,3586338045973134,0,1785693.2210143858,-26408046.072654344,-7966.284700612041,270.96421534368733,21.824479352622898,-3203.682793146399,3051.5018750103245,0.0006772500296392536,0.000000027939677238464355,0.000000022351741790771484,-0.00000011920928955078125,-0.00000011920928955078125,135168.0,0.0,-196608.0,262144.0
Raw,1758759532000,3814566131,18,,-1442794746185433856,0.0,100.06922149658203,,,48197,21,0.0,16399,346749920766557,11,38.5,-19.47974395751953,0.08163265138864517,17,-5557.394809754231,0.15286928415298462,1575420000,,,,0,,1,7.800000190734863,35.0,-9.313225746154785,,-9.313225746154785,,C,3586338045973134,0,-19881952.018756244,1698019.1235134006,17531173.266846087,-1775.8694826311737,-1352.6400629872533,-1882.2973308537494,76266.08029956878,0.005628200626233593,0.000000027939677238464355,0.000000022351741790771484,-0.00000011920928955078125,-0.00000011920928955078125,135168.0,0.0,-196608.0,262144.0
Raw,1758759532000,3814566131,18,,-1442794746185433856,0.0,100.06922149658203,,,48197,16,0.0,16399,346749922608555,11,37.70000076293945,706.6708984375,0.08549638837575912,17,-3009.67309388188,0.15560132265090942,1575420000,,,,0,,1,7.800000190734863,34.20000076293945,-10.710209608078003,,-10.710209608078003,,C,3586338045973134,0,14932727.817230556,-6873387.823376864,20580067.062488094,2113.9372227237245,1663.3711865370192,-918.4653701510681,33273.4673512533,0.0016530589637113735,0.000000027939677238464355,0.000000022351741790771484,-0.00000011920928955078125,-0.00000011920928955078125,135168.0,0.0,-196608.0,262144.0
Raw,1758759532000,3814566131,18,,-1442794746185433856,0.0,100.06922149658203,,,48197,30,0.0,16399,346749923244932,14,33.29999923706055,-457.99407958984375,0.11260754615068436,17,-7087.551528985328,0.17477163672447205,1575420000,,,,0,,1,7.800000190734863,29.799999237060547,4.190951585769653,,4.190951585769653,,C,3586338045973134,0,-20029370.966913808,-3630116.942465827,17372691.827267062,1811.7077648597265,-1208.4475089403263,1829.305212546322,-7607.846855060111,0.004094310448635952,0.000000027939677238464355,0.000000022351741790771484,-0.00000011920928955078125,-0.00000011920928955078125,135168.0,0.0,-196608.0,262144.0
Raw,1758759532000,3814566131,18,,-1442794746185433856,0.0,100.06922149658203,,,48197,3,0.0,32867,11931934501394,10,47.70000076293945,-86.69831085205078,0.05118650197982788,17,752935.5461683266,0.12959817051887512,1604812500,,,,0,,3,7.800000190734863,44.20000076293945,4.656612873077392,,4.656612873077392,,C,3586338045973134,0,-12633104.44642606,-13799320.034011064,17344932.62153957,-813.7788348296303,-2229.718417474959,-2378.1717701603366,39046.04880733788,0.0,0.000000027939677238464355,0.000000022351741790771484,-0.00000011920928955078125,-0.00000011920928955078125,135168.0,0.0,-196608.0,262144.0
Raw,1758759532000,3814566131,18,,-1442794746185433856,0.0,100.06922149658203,,,48197,23,0.0,19456,346749921646679,10,44.099998474121094,-153.09909057617188,0.060666363686323166,25,-16976.592641238385,0.04289718717336655,1575420000,,,,0,,6,7.800000190734863,40.599998474121094,-1.57160684466362,,-1.57160684466362,,C,3586338045973134,0,-11832333.401311371,-22932950.51692541,14505256.574296568,1082.6346384864255,973.2953463157526,2421.180153543461,-3267.573219349951,-0.000312943086555606,0.000000027939677238464355,0.000000022351741790771484,-0.00000011920928955078125,-0.00000011920928955078125,135168.0,0.0,-196608.0,262144.0
Raw,1758759532000,3814566131,18,,-1442794746185433856,0.0,100.06922149658203,,,48197,4,0.0,19456,346749919951383,10,43.099998474121094,-212.5894012451172,0.06376900523900986,25,-9929.803761312556,0.045091062784194946,1575420000,,,,0,,6,7.800000190734863,39.599998474121094,-7.62520357966423,,-7.62520357966423,,C,3586338045973134,0,-13626343.844947435,-13345689.182151843,22634517.423732262,354.5845950823394,-2242.9120282589183,-1108.3153663189228,-104731.58129298246,-0.0031295813823817298,0.000000027939677238464355,0.000000022351741790771484,-0.00000011920928955078125,-0.00000011920928955078125,135168.0,0.0,-196608.0,262144.0
Raw,1758759532000,3814566131,18,,-1442794746185433856,0.0,100.06922149658203,,,48197,6,0.0,19456,346749914602983,10,42.29999923706055,-406.455810546875,0.06642576307058334,25,-17713.97947929355,0.04696965590119362,1575420000,,,,0,,6,7.800000190734863,38.79999923706055,0.29103830456733704,,0.29103830456733704,,C,3586338045973134,0,-16846713.935429897,-2327210.2951481733,24205259.855939135,410.77548600410296,-2396.659190219687,55.10750907726098,-51671.91177843534,-0.0015013515076134354,0.000000027939677238464355,0.000000022351741790771484,-0.00000011920928955078125,-0.00000011920928955078125,135168.0,0.0,-196608.0,262144.0
Raw,1758759532000,3814566131,18,,-1442794746185433856,0.0,100.06922149658203,,,48197,22,0.0,32867,11931922698560,10,41.099998474121094,-390.7439270019531,0.07073336839675903,17,-147119.20523692848,0.14368242025375366,1600312400,,,,0,,3,7.800000190734863,37.599998474121094,4.656612873077392,,4.656612873077392,,C,3586338045973134,0,19597714.050999776,-12286539.695260545,10781445.20367718,-1138.5158121109139,941.9468876473284,3151.4641988229755,26115.703535854856,0.0005453193043649662,0.000000027939677238464355,0.000000022351741790771484,-0.00000011920928955078125,-0.00000011920928955078125,135168.0,0.0,-196608.0,262144.0
Raw,1758759532000,3814566131,18,,-1442794746185433856,0.0,100.06922149658203,,,48197,12,0.0,32867,11931929055710,10,40.70000076293945,543.3392333984375,0.07226268202066422,17,-17041.090889410174,0.14469799399375916,1601437400,,,,0,,3,7.800000190734863,37.20000076293945,4.656612873077392,,4.656612873077392,,C,3586338045973134,0,9290153.6223995,-8763575.336750956,22107616.12885302,2954.547772206242,623.8232103392895,-994.5916927570503,17859.31408117641,0.0002726596521824831,0.000000027939677238464355,0.000000022351741790771484,-0.00000011920928955078125,-0.00000011920928955078125,135168.0,0.0,-196608.0,262144.0
Raw,1758759532000,3814566131,18,,-1442794746185433856,0.0,100.06922149658203,,,48197,19,0.0,19456,346749921987760,10,40.400001525878906,337.3365478515625,0.07344246655702591,25,-19351.5369851821,0.051931168884038925,1575420000,,,,0,,6,7.800000190734863,36.900001525878906,-7.159542292356491,,-7.159542292356491,,C,3586338045973134,0,-711866.1597904889,-28416721.913486008,8259912.216991725,64.1656524805351,-830.3321436275527,-2850.1382823856543,682535.1209495055,0.012195880291983485,0.000000027939677238464355,0.000000022351741790771484,-0.00000011920928955078125,-0.00000011920928955078125,135168.0,0.0,-196608.0,262144.0
Raw,1758759532000,3814566131,18,,-1442794746185433856,0.0,100.06922149658203,,,48197,13,0.0,32867,11931934481035,10,40.5,66.05545043945312,0.07304602116346359,17,-82125.11273939743,0.1452847719192505,1600875000,,,,0,,3,7.800000190734863,37.0,4.656612873077392,,4.656612873077392,,C,3586338045973134,0,-7993220.827401637,-12029533.648968328,21012909.465187438,2803.460585721712,659.8322900250697,1443.7734949797186,-18839.534275241196,0.0,0.000000027939677238464355,0.000000022351741790771484,-0.00000011920928955078125,-0.00000011920928955078125,135168.0,0.0,-196608.0,262144.0
Raw,1758759532000,3814566131,18,,-1442794746185433856,0.0,100.06922149658203,,,48197,29,0.0,19456,346749907255229,10,39.20000076293945,561.5385131835938,0.07846274971961975,17,-18739.678308009847,0.15062785148620605,1575420000,,,,0,,6,7.800000190734863,35.70000076293945,-8.09086486697197,,-8.09086486697197,,C,3586338045973134,0,10791702.994717985,-26089648.622910384,-8888325.599954894,-195.44692023035896,869.7853603619333,-2794.3722448422986,-40578.29551997518,-0.0010462261707289144,0.000000027939677238464355,0.000000022351741790771484,-0.00000011920928955078125,-0.00000011920928955078125,135168.0,0.0,-196608.0,262144.0
Raw,1758759532000,3814566131,18,,-1442794746185433856,0.0,100.06922149658203,,,48197,21,0.0,19456,346749918115168,13,34.099998474121094,357.0218505859375,0.10679652541875839,25,-17335.36574819412,0.07551582157611847,1575420000,,,,0,,6,7.800000190734863,30.600000381469727,-2.270098775625229,,-2.270098775625229,,C,3586338045973134,0,7423986.920546541,-15604089.320754047,24036027.597525306,1840.4494965707477,1555.6639948197046,441.65983326842905,-207391.31672820452,-0.0006736047798767686,0.000000027939677238464355,0.000000022351741790771484,-0.00000011920928955078125,-0.00000011920928955078125,135168.0,0.0,-196608.0,262144.0
Raw,1758759532000,3814566131,18,,-1442794746185433856,0.0,100.06922149658203,,,48197,14,0.0,32867,11931925345668,18,29.299999237060547,-497.7664489746094,0.15023136138916016,16,-802071.6839785442,0.20002731680870056,1598062500,,,,0,,3,7.800000190734863,25.799999237060547,4.656612873077392,,4.656612873077392,,C,3586338045973134,0,,,,,,,,,0.000000027939677238464355,0.000000022351741790771484,-0.00000011920928955078125,-0.00000011920928955078125,135168.0,0.0,-196608.0,262144.0
Raw,1758759532000,3814566131,18,,-1442794746185433856,0.0,100.06922149658203,,,48197,4,0.0,32867,11931925122694,19,28.100000381469727,-669.8271484375,0.16524554789066315,16,1095628.4422347602,0.21021659672260284,1605375000,,,,0,,3,7.800000190734863,24.600000381469727,4.656612873077392,,4.656612873077392,,C,3586338045973134,0,-10105150.554416789,3315799.8795090523,23207846.980473936,-882.9318669892225,-3048.9085196216897,49.145002033922566,93774.58860432632,0.0008179789565474493,0.000000027939677238464355,0.000000022351741790771484,-0.00000011920928955078125,-0.00000011920928955078125,135168.0,0.0,-196608.0,262144.0
Raw,1758759532000,3814566131,18,,-1442794746185433856,0.0,100.06922149658203,,,48197,2,0.0,32867,11931930196729,23,25.399999618530273,693.8550415039062,0.20850275456905365,16,-451166.46350509184,0.24113208055496216,1599750000,,,,0,,3,7.800000190734863,21.899999618530273,4.656612873077392,,4.656612873077392,,C,3586338045973134,0,,,,,,,,,0.000000027939677238464355,0.000000022351741790771484,-0.00000011920928955078125,-0.00000011920928955078125,135168.0,0.0,-196608.0,262144.0
Agc,1758759532000,3814566131,18,,-1442794746185433856,0.0,100.06922149658203,,,48197,7.800000190734863,1575420032,1
Agc,1758759532000,3814566131,18,,-1442794746185433856,0.0,100.06922149658203,,,48197,7.800000190734863,1575420032,1
Agc,1758759532000,3814566131,18,,-1442794746185433856,0.0,100.06922149658203,,,48197,7.800000190734863,1575420032,1
Agc,1758759532000,3814566131,18,,-1442794746185433856,0.0,100.06922149658203,,,48197,7.800000190734863,1575420032,1
Agc,1758759532000,3814566131,18,,-1442794746185433856,0.0,100.06922149658203,,,48197,7.800000190734863,1575420032,1
Agc,1758759532000,3814566131,18,,-1442794746185433856,0.0,100.06922149658203,,,48197,7.800000190734863,1575420032,1
Agc,1758759532000,3814566131,18,,-1442794746185433856,0.0,100.06922149658203,,,48197,7.800000190734863,1575420032,1
Agc,1758759532000,3814566131,18,,-1442794746185433856,0.0,100.06922149658203,,,48197,7.800000190734863,1575420032,1
Agc,1758759532000,3814566131,18,,-1442794746185433856,0.0,100.06922149658203,,,48197,7.800000190734863,1575420032,1
Agc,1758759532000,3814566131,18,,-1442794746185433856,0.0,100.06922149658203,,,48197,7.800000190734863,1604812544,3
Agc,1758759532000,3814566131,18,,-1442794746185433856,0.0,100.06922149658203,,,48197,7.800000190734863,1575420032,6
Agc,1758759532000,3814566131,18,,-1442794746185433856,0.0,100.06922149658203,,,48197,7.800000190734863,1575420032,6
Agc,1758759532000,3814566131,18,,-1442794746185433856,0.0,100.06922149658203,,,48197,7.800000190734863,1575420032,6
Agc,1758759532000,3814566131,18,,-1442794746185433856,0.0,100.06922149658203,,,48197,7.800000190734863,1600312448,3
Agc,1758759532000,3814566131,18,,-1442794746185433856,0.0,100.06922149658203,,,48197,7.800000190734863,1601437440,3
Agc,1758759532000,3814566131,18,,-1442794746185433856,0.0,100.06922149658203,,,48197,7.800000190734863,1575420032,6
Agc,1758759532000,3814566131,18,,-1442794746185433856,0.0,100.06922149658203,,,48197,7.800000190734863,1600875008,3
Agc,1758759532000,3814566131,18,,-1442794746185433856,0.0,100.06922149658203,,,48197,7.800000190734863,1575420032,6
Agc,1758759532000,3814566131,18,,-1442794746185433856,0.0,100.06922149658203,,,48197,7.800000190734863,1575420032,6
Agc,1758759532000,3814566131,18,,-1442794746185433856,0.0,100.06922149658203,,,48197,7.800000190734863,1598062464,3
Agc,1758759532000,3814566131,18,,-1442794746185433856,0.0,100.06922149658203,,,48197,7.800000190734863,1605374976,3
Agc,1758759532000,3814566131,18,,-1442794746185433856,0.0,100.06922149658203,,,48197,7.800000190734863,1599750016,3
Fix,GPS,40.0415862305,-105.2415474504,1599.0,21.82,5.102041,205.0,1758759533000,0.34,0.3,3586339045973213,5.0,0,,,
Fix,FLP,40.0415862000,-105.2415475000,1600.199951171875,21.82,11.373,205.0,1758759533261,0.34,0.3,3586339045973213,0.6596401,0,,,
Status,1758759533000,24,0,1,9,1575420000,48.40,194.2,70.6,1,0,1,44.9
Status,1758759533000,24,1,1,7,1575420000,45.60,313.0,58.6,0,0,1,42.1
Status,1758759533000,24,2,1,8,1575420000,41.70,116.0,48.5,0,0,1,38.2
Status,1758759533000,24,3,1,27,1575420000,42.00,69.9,38.2,1,0,1,38.5
Status,1758759533000,24,4,1,4,1575420000,39.20,151.6,34.9,1,0,1,35.7
Status,1758759533000,24,5,1,30,1575420000,33.30,292.6,30.0,1,0,1,29.8
Status,1758759533000,24,6,1,16,1575420000,37.80,49.1,22.6,1,0,1,34.3
Status,1758759533000,24,7,1,21,1575420000,38.50,299.5,18.7,1,0,1,35.0
Status,1758759533000,24,8,1,14,1575420000,41.70,234.0,10.9,0,0,1,38.2
Status,1758759533000,24,9,3,13,1600875000,40.50,327.9,64.0,1,0,1,37.0
Status,1758759533000,24,10,3,3,1604812500,47.90,286.9,62.9,1,0,1,44.4
Status,1758759533000,24,11,3,2,1599750000,25.40,182.1,39.5,1,0,1,21.9
Status,1758759533000,24,12,3,12,1601437400,40.90,40.7,35.8,1,0,1,37.4
Status,1758759533000,24,13,3,14,1598062500,29.30,258.7,22.5,0,0,1,25.8
Status,1758759533000,24,14,3,4,1605375000,28.00,329.6,21.1,0,0,1,24.5
Status,1758759533000,24,15,3,22,1600312400,41.10,79.8,14.1,0,0,1,37.6
Status,1758759533000,24,16,3,21,1604250000,30.50,24.2,8.2,0,0,1,27.0
Status,1758759533000,24,17,3,23,1603687600,30.30,119.6,4.7,0,1,0,26.8
Status,1758759533000,24,18,6,23,1575420000,44.40,226.4,71.5,0,0,1,40.9
Status,1758759533000,24,19,6,4,1575420000,43.30,305.0,60.4,0,0,1,39.8
Status,1758759533000,24,20,6,19,1575420000,40.60,149.2,56.5,1,0,1,37.1
Status,1758759533000,24,21,6,21,1575420000,34.80,48.4,51.8,1,0,1,31.3
Status,1758759533000,24,22,6,6,1575420000,42.50,312.3,34.0,0,0,1,39.0
Status,1758759533000,24,23,6,29,1575420000,39.20,140.7,10.4,1,0,1,35.7
Raw,1758759533000,4814566192,18,,-1442794746185433856,0.0,10.304329872131348,,,48197,9,0.0,16399,346750932757909,10,48.400001525878906,233.2239227294922,0.0496029257774353,17,-4407.635610936573,0.13022106885910034,1575420000,,,,0,,1,7.800000190734863,44.900001525878906,0.46566128730773926,,0.46566128730773926,,C,3586339045973213,0,-7864125.76473933,-22556945.24616749,11428003.938740458,249.5248840213923,-1468.2568916358873,-2709.1975040632883,223315.85213057575,0.001167966634966433,0.000000027939677238464355,0.000000022351741790771484,-0.00000011920928955078125,-0.00000011920928955078125,135168.0,0.0,-196608.0,262144.0
Raw,1758759533000,4814566192,18,,-1442794746185433856,0.0,10.304329872131348,,,48197,7,0.0,16399,346750928440681,10,45.599998474121094,-252.73004150390625,0.056420356035232544,17,-6588.464499522059,0.13504166901111603,1575420000,,,,0,,1,7.800000190734863,42.099998474121094,-10.710209608078003,,-10.710209608078003,,C,3586339045973213,0,-11535315.180763021,-11368435.055682875,21687006.30437396,2290.1288759749805,-1265.0250245556542,528.725601016235,-24311.002310750842,0.00010265959645039402,0.000000027939677238464355,0.000000022351741790771484,-0.00000011920928955078125,-0.00000011920928955078125,135168.0,0.0,-196608.0,262144.0
Raw,1758759533000,4814566192,18,,-1442794746185433856,0.0,10.304329872131348,,,48197,27,0.0,16399,346750927328163,10,42.0,178.95008850097656,0.06746499985456467,17,-4644.513936173273,0.1428513377904892,1575420000,,,,0,,1,7.800000190734863,38.5,1.862645149230957,,1.862645149230957,,C,3586339045973213,0,12486243.789653432,-15251623.050374199,17262256.69482512,175.04748589935215,2279.2204789845996,1893.9529822718155,-7796.975198505823,-0.001712151980427734,0.000000027939677238464355,0.000000022351741790771484,-0.00000011920928955078125,-0.00000011920928955078125,135168.0,0.0,-196608.0,262144.0
Raw,1758759533000,4814566192,18,,-1442794746185433856,0.0,10.304329872131348,,,48197,8,0.0,16399,346750929981379,10,41.70000076293945,-233.46038818359375,0.06852881610393524,17,-6510.9391371359525,0.14360356330871582,1575420000,,,,0,,1,7.800000190734863,38.20000076293945,4.656612873077393,,4.656612873077393,,C,3586339045973213,0,6612268.419566154,-23545873.208840236,9604620.030553723,352.81061558708893,1254.987203499502,2834.0171321622224,159023.41105655476,-0.0014266526559367776,0.000000027939677238464355,0.000000022351741790771484,-0.00000011920928955078125,-0.00000011920928955078125,135168.0,0.0,-196608.0,262144.0
Raw,1758759533000,4814566192,18,,-1442794746185433856,0.0,10.304329872131348,,,48197,14,0.0,16399,346750918209311,10,41.70000076293945,-612.2703247070312,0.06852881610393524,17,-8212.847011243663,0.14360356330871582,1575420000,,,,0,,1,7.800000190734863,38.20000076293945,-7.916241884231567,,-7.916241884231567,,C,3586339045973213,0,-23602617.92881899,-11889696.675344381,-3797669.8824012903,-244.05435544901826,-524.366621268229,3069.405687483718,209535.81539642156,0.001647660305025056,0.000000027939677238464355,0.000000022351741790771484,-0.00000011920928955078125,-0.00000011920928955078125,135168.0,0.0,-196608.0,262144.0
Raw,1758759533000,4814566192,18,,-1442794746185433856,0.0,10.304329872131348,,,48197,4,0.0,16399,346750925676195,10,39.20000076293945,605.845703125,0.07846274971961975,17,-2726.9281988150615,0.15062785148620605,1575420000,,,,0,,1,7.800000190734863,35.70000076293945,-4.656612873077393,,-4.656612873077393,,C,3586339045973213,0,1785964.1718499388,-26408024.0543287,-11169.961101869447,270.9385291337597,22.21225905877575,-3203.6825883534943,3051.502552254221,0.000677240426739445,0.000000027939677238464355,0.000000022351741790771484,-0.00000011920928955078125,-0.00000011920928955078125,135168.0,0.0,-196608.0,262144.0
Raw,1758759533000,4814566192,18,,-1442794746185433856,0.0,10.304329872131348,,,48197,16,0.0,16399,346750922606274,11,37.79999923706055,699.8486938476562,0.08499860018491745,17,-2306.670267137437,0.15524934232234955,1575420000,,,,0,,1,7.800000190734863,34.29999923706055,-10.710209608078003,,-10.710209608078003,,C,3586339045973213,0,14934841.74778798,-6871724.553462961,20579148.37476115,2113.9335257030066,1663.1762246201351,-918.9142710701376,33273.4690043981,0.001653238185099326,0.000000027939677238464355,0.000000022351741790771484,-0.00000011920928955078125,-0.00000011920928955078125,135168.0,0.0,-196608.0,262144.0
Raw,1758759533000,4814566192,18,,-1442794746185433856,0.0,10.304329872131348,,,48197,21,0.0,16399,346750920766674,11,38.5,-26.78876495361328,0.08163265138864517,17,-5580.870596905239,0.15286928415298462,1575420000,,,,0,,1,7.800000190734863,35.0,-9.313225746154785,,-9.313225746154785,,C,3586339045973213,0,-19883727.82850919,1696666.5992486887,17529290.78283838,-1775.7495974453698,-1352.408149393921,-1882.6702374553536,76266.08592777084,0.005628202139632776,0.000000027939677238464355,0.000000022351741790771484,-0.00000011920928955078125,-0.00000011920928955078125,135168.0,0.0,-196608.0,262144.0
Raw,1758759533000,4814566192,18,,-1442794746185433856,0.0,10.304329872131348,,,48197,30,0.0,16399,346750923246541,14,33.29999923706055,-465.0440368652344,0.11260754615068436,17,-7549.316929316614,0.17477163672447205,1575420000,,,,0,,1,7.800000190734863,29.799999237060547,4.190951585769653,,4.190951585769653,,C,3586339045973213,0,-20027559.18935592,-3631325.4959373595,17374520.954741843,1811.8415109728426,-1208.6555451880056,1828.9438445660592,-7607.842760751347,0.004094293900379853,0.000000027939677238464355,0.000000022351741790771484,-0.00000011920928955078125,-0.00000011920928955078125,135168.0,0.0,-196608.0,262144.0
Raw,1758759533000,4814566192,18,,-1442794746185433856,0.0,10.304329872131348,,,48197,3,0.0,32867,11932934501751,10,47.900001525878906,-93.67535400390625,0.05072639882564545,25,752845.0909316763,0.03586863726377487,1604812500,,,,0,,3,7.800000190734863,44.400001525878906,4.656612873077392,,4.656612873077392,,C,3586339045973213,0,-12633918.270113785,-13801549.564943388,17342554.240740374,-813.8679469101419,-2229.341874537807,-2378.588140371571,39046.04880733788,0.0,0.000000027939677238464355,0.000000022351741790771484,-0.00000011920928955078125,-0.00000011920928955078125,135168.0,0.0,-196608.0,262144.0
Raw,1758759533000,4814566192,18,,-1442794746185433856,0.0,10.304329872131348,,,48197,23,0.0,19456,346750921647268,10,44.400001525878906,-160.6469268798828,0.05977964401245117,25,-17133.895610053492,0.04227018728852272,1575420000,,,,0,,6,7.800000190734863,40.900001525878906,-1.57160684466362,,-1.57160684466362,,C,3586339045973213,0,-11831250.635619756,-22931977.18475047,14507677.644414974,1082.8954693226992,973.3678489547375,2420.9572250346073,-3267.573532293743,-0.0003129441288365342,0.000000027939677238464355,0.000000022351741790771484,-0.00000011920928955078125,-0.00000011920928955078125,135168.0,0.0,-196608.0,262144.0
Raw,1758759533000,4814566192,18,,-1442794746185433856,0.0,10.304329872131348,,,48197,4,0.0,19456,346750919952179,10,43.29999923706055,-219.7184295654297,0.063129723072052,25,-10146.266168839305,0.04463902860879898,1575420000,,,,0,,6,7.800000190734863,39.79999923706055,-7.62520357966423,,-7.62520357966423,,C,3586339045973213,0,-13625989.355144324,-13347932.05474258,22633408.93352596,354.394448154298,-2242.829574102972,-1108.6632786967796,-104731.58442256562,-0.0031295799708459526,0.000000027939677238464355,0.000000022351741790771484,-0.00000011920928955078125,-0.00000011920928955078125,135168.0,0.0,-196608.0,262144.0
Raw,1758759533000,4814566192,18,,-1442794746185433856,0.0,10.304329872131348,,,48197,6,0.0,19456,346750914604399,10,42.5,-413.4465637207031,0.06574621796607971,25,-18124.215747962407,0.04648914933204651,1575420000,,,,0,,6,7.800000190734863,39.0,0.29103830456733704,,0.29103830456733704,,C,3586339045973213,0,-16846303.249252047,-2329606.975952535,24205314.777185384,410.5957050484167,-2396.695622649873,54.7348277486647,-51671.91327978942,-0.001501352402556222,0.000000027939677238464355,0.000000022351741790771484,-0.00000011920928955078125,-0.00000011920928955078125,135168.0,0.0,-196608.0,262144.0
Raw,1758759533000,4814566192,18,,-1442794746185433856,0.0,10.304329872131348,,,48197,12,0.0,32867,11932929053971,10,40.900001525878906,536.4909057617188,0.07149188965559006,25,-16501.436496512382,0.05055191367864609,1601437400,,,,0,,3,7.800000190734863,37.400001525878906,4.656612873077392,,4.656612873077392,,C,3586339045973213,0,9293108.123972965,-8762951.648462309,22106621.274175145,2954.465666637189,623.55554699022,-995.1211264511762,17859.31435383559,0.0002726596521824831,0.000000027939677238464355,0.000000022351741790771484,-0.00000011920928955078125,-0.00000011920928955078125,135168.0,0.0,-196608.0,262144.0
Raw,1758759533000,4814566192,18,,-1442794746185433856,0.0,10.304329872131348,,,48197,22,0.0,32867,11932922699932,10,41.099998474121094,-397.49774169921875,0.07073336839675903,25,-147513.5811495125,0.050015565007925034,1600312400,,,,0,,3,7.800000190734863,37.599998474121094,4.656612873077392,,4.656612873077392,,C,3586339045973213,0,19596575.419428483,-12285597.549397916,10784596.542861333,-1138.744193822646,942.3422749387994,3151.205537848091,26115.70408117491,0.0005453193043649662,0.000000027939677238464355,0.000000022351741790771484,-0.00000011920928955078125,-0.00000011920928955078125,135168.0,0.0,-196608.0,262144.0
Raw,1758759533000,4814566192,18,,-1442794746185433856,0.0,10.304329872131348,,,48197,19,0.0,19456,346750921986723,10,40.599998474121094,329.86383056640625,0.07265277206897736,25,-19018.342660756512,0.051372773945331573,1575420000,,,,0,,6,7.800000190734863,37.099998474121094,-7.159542292356491,,-7.159542292356491,,C,3586339045973213,0,-711802.0511701908,-28417552.106639788,8257062.018192415,64.0517277070122,-830.0558816524751,-2850.265220490658,682535.1331453735,0.012195881106890738,0.000000027939677238464355,0.000000022351741790771484,-0.00000011920928955078125,-0.00000011920928955078125,135168.0,0.0,-196608.0,262144.0
Raw,1758759533000,4814566192,18,,-1442794746185433856,0.0,10.304329872131348,,,48197,13,0.0,32867,11932934480901,10,40.5,59.087852478027344,0.07304602116346359,25,-82062.80630180228,0.051650840789079666,1600875000,,,,0,,3,7.800000190734863,37.0,4.656612873077392,,4.656612873077392,,C,3586339045973213,0,-7990417.244282073,-12028873.90859975,21014352.985857867,2803.7064233996734,659.6486158519965,1443.2682409230788,-18839.534275241196,0.0,0.000000027939677238464355,0.000000022351741790771484,-0.00000011920928955078125,-0.00000011920928955078125,135168.0,0.0,-196608.0,262144.0
Raw,1758759533000,4814566192,18,,-1442794746185433856,0.0,10.304329872131348,,,48197,29,0.0,19456,346750907253421,10,39.20000076293945,553.8838500976562,0.07846274971961975,25,-18182.30496479093,0.05548100918531418,1575420000,,,,0,,6,7.800000190734863,35.70000076293945,-8.09086486697197,,-8.09086486697197,,C,3586339045973213,0,10791507.55733703,-26088778.693726234,-8891119.89881911,-195.42854105493808,870.0761516469745,-2794.235580614881,-40578.29656619756,-0.0010462223654030822,0.000000027939677238464355,0.000000022351741790771484,-0.00000011920928955078125,-0.00000011920928955078125,135168.0,0.0,-196608.0,262144.0
Raw,1758759533000,4814566192,18,,-1442794746185433856,0.0,10.304329872131348,,,48197,21,0.0,19456,346750918114065,13,34.79999923706055,349.5844421386719,0.10207311064004898,25,-16982.59243019572,0.07217589765787125,1575420000,,,,0,,6,7.800000190734863,31.299999237060547,-2.270098775625229,,-2.270098775625229,,C,3586339045973213,0,7425827.444162459,-15602533.714317111,24036469.07221625,1840.6017896945575,1555.5523044273639,441.29052137917785,-207391.31740180822,-0.0006736041395924985,0.000000027939677238464355,0.000000022351741790771484,-0.00000011920928955078125,-0.00000011920928955078125,135168.0,0.0,-196608.0,262144.0
Raw,1758759533000,4814566192,18,,-1442794746185433856,0.0,10.304329872131348,,,48197,23,0.0,17,223932,17,30.299999237060547,-674.89306640625,0.13922923803329468,18,1875594.410967876,0.19191871583461761,1603687600,,,,0,,3,7.800000190734863,26.799999237060547,4.656612873077392,,4.656612873077392,,C,3586339045973213,0,,,,,,,,,0.000000027939677238464355,0.000000022351741790771484,-0.00000011920928955078125,-0.00000011920928955078125,135168.0,0.0,-196608.0,262144.0
Raw,1758759533000,4814566192,18,,-1442794746185433856,0.0,10.304329872131348,,,48197,21,0.0,32867,11932920254895,17,30.5,228.42579650878906,0.13717420399188995,18,2476597.4735680656,0.1904328316450119,1604250000,,,,0,,3,7.800000190734863,27.0,4.656612873077392,,4.656612873077392,,C,3586339045973213,0,11018283.80671538,3576079.6652749497,22734908.637181215,-2191.8066389057553,2212.266959270977,710.8206879354129,-71944.84933968422,-0.0010906386087299325,0.000000027939677238464355,0.000000022351741790771484,-0.00000011920928955078125,-0.00000011920928955078125,135168.0,0.0,-196608.0,262144.0
Raw,1758759533000,4814566192,18,,-1442794746185433856,0.0,10.304329872131348,,,48197,14,0.0,32867,11932925347380,18,29.299999237060547,-505.2039489746094,0.15023136138916016,16,-802573.5739140552,0.20002731680870056,1598062500,,,,0,,3,7.800000190734863,25.799999237060547,4.656612873077392,,4.656612873077392,,C,3586339045973213,0,,,,,,,,,0.000000027939677238464355,0.000000022351741790771484,-0.00000011920928955078125,-0.00000011920928955078125,135168.0,0.0,-196608.0,262144.0
Raw,1758759533000,4814566192,18,,-1442794746185433856,0.0,10.304329872131348,,,48197,4,0.0,32867,11932925124982,19,28.0,-674.7579956054688,0.16659724712371826,16,1094956.1675972939,0.21117238700389862,1605375000,,,,0,,3,7.800000190734863,24.5,4.656612873077392,,4.656612873077392,,C,3586339045973213,0,-10106033.616479918,3312750.997538418,23207895.84760833,-883.1882244072741,-3048.8414870566576,48.58904476334985,93774.58942230715,0.0008179789565474493,0.000000027939677238464355,0.000000022351741790771484,-0.00000011920928955078125,-0.00000011920928955078125,135168.0,0.0,-196608.0,262144.0
Raw,1758759533000,4814566192,18,,-1442794746185433856,0.0,10.304329872131348,,,48197,2,0.0,32867,11932930194426,23,25.399999618530273,686.73779296875,0.20850275456905365,16,-450477.35325640044,0.24113208055496216,1599750000,,,,0,,3,7.800000190734863,21.899999618530273,4.656612873077392,,4.656612873077392,,C,3586339045973213,0,,,,,,,,,0.000000027939677238464355,0.000000022351741790771484,-0.00000011920928955078125,-0.00000011920928955078125,135168.0,0.0,-196608.0,262144.0
Agc,1758759533000,4814566192,18,,-1442794746185433856,0.0,10.304329872131348,,,48197,7.800000190734863,1575420032,1
Agc,1758759533000,4814566192,18,,-1442794746185433856,0.0,10.304329872131348,,,48197,7.800000190734863,1575420032,1
Agc,1758759533000,4814566192,18,,-1442794746185433856,0.0,10.304329872131348,,,48197,7.800000190734863,1575420032,1
Agc,1758759533000,4814566192,18,,-1442794746185433856,0.0,10.304329872131348,,,48197,7.800000190734863,1575420032,1
Agc,1758759533000,4814566192,18,,-1442794746185433856,0.0,10.304329872131348,,,48197,7.800000190734863,1575420032,1
Agc,1758759533000,4814566192,18,,-1442794746185433856,0.0,10.304329872131348,,,48197,7.800000190734863,1575420032,1
Agc,1758759533000,4814566192,18,,-1442794746185433856,0.0,10.304329872131348,,,48197,7.800000190734863,1575420032,1
Agc,1758759533000,4814566192,18,,-1442794746185433856,0.0,10.304329872131348,,,48197,7.800000190734863,1575420032,1
Agc,1758759533000,4814566192,18,,-1442794746185433856,0.0,10.304329872131348,,,48197,7.800000190734863,1575420032,1
Agc,1758759533000,4814566192,18,,-1442794746185433856,0.0,10.304329872131348,,,48197,7.800000190734863,1604812544,3
Agc,1758759533000,4814566192,18,,-1442794746185433856,0.0,10.304329872131348,,,48197,7.800000190734863,1575420032,6
Agc,1758759533000,4814566192,18,,-1442794746185433856,0.0,10.304329872131348,,,48197,7.800000190734863,1575420032,6
Agc,1758759533000,4814566192,18,,-1442794746185433856,0.0,10.304329872131348,,,48197,7.800000190734863,1575420032,6
Agc,1758759533000,4814566192,18,,-1442794746185433856,0.0,10.304329872131348,,,48197,7.800000190734863,1601437440,3
Agc,1758759533000,4814566192,18,,-1442794746185433856,0.0,10.304329872131348,,,48197,7.800000190734863,1600312448,3
