# 
# Header Description:
# 
# Version: v3.1.1.1 Platform: 16 Manufacturer: Google Model: Pixel 8a GNSS Hardware Model Name: S.LSI,K041,SPOTNAV_4.15.4_3_250220_R2_258342
# 
# Raw,utcTimeMillis,TimeNanos,LeapSecond,TimeUncertaintyNanos,FullBiasNanos,BiasNanos,BiasUncertaintyNanos,DriftNanosPerSecond,DriftUncertaintyNanosPerSecond,HardwareClockDiscontinuityCount,Svid,TimeOffsetNanos,State,ReceivedSvTimeNanos,ReceivedSvTimeUncertaintyNanos,Cn0DbHz,PseudorangeRateMetersPerSecond,PseudorangeRateUncertaintyMetersPerSecond,AccumulatedDeltaRangeState,AccumulatedDeltaRangeMeters,AccumulatedDeltaRangeUncertaintyMeters,CarrierFrequencyHz,CarrierCycles,CarrierPhase,CarrierPhaseUncertainty,MultipathIndicator,SnrInDb,ConstellationType,AgcDb,BasebandCn0DbHz,FullInterSignalBiasNanos,FullInterSignalBiasUncertaintyNanos,SatelliteInterSignalBiasNanos,SatelliteInterSignalBiasUncertaintyNanos,CodeType,ChipsetElapsedRealtimeNanos,IsFullTracking,SvPositionEcefXMeters,SvPositionEcefYMeters,SvPositionEcefZMeters,SvVelocityEcefXMetersPerSecond,SvVelocityEcefYMetersPerSecond,SvVelocityEcefZMetersPerSecond,SvClockBiasMeters,SvClockDriftMetersPerSecond,KlobucharAlpha0,KlobucharAlpha1,KlobucharAlpha2,KlobucharAlpha3,KlobucharBeta0,KlobucharBeta1,KlobucharBeta2,KlobucharBeta3
# 
# UncalAccel,utcTimeMillis,elapsedRealtimeNanos,UncalAccelXMps2,UncalAccelYMps2,UncalAccelZMps2,BiasXMps2,BiasYMps2,BiasZMps2,CalibrationAccuracy
# 
# Accel,utcTimeMillis,elapsedRealtimeNanos,AccelXMps2,AccelYMps2,AccelZMps2,CalibrationAccuracy
# 
# UncalGyro,utcTimeMillis,elapsedRealtimeNanos,UncalGyroXRadPerSec,UncalGyroYRadPerSec,UncalGyroZRadPerSec,DriftXRadPerSec,DriftYRadPerSec,DriftZRadPerSec,CalibrationAccuracy
# 
# Gyro,utcTimeMillis,elapsedRealtimeNanos,GyroXRadPerSec,GyroYRadPerSec,GyroZRadPerSec,CalibrationAccuracy
# 
# UncalMag,utcTimeMillis,elapsedRealtimeNanos,UncalMagXMicroT,UncalMagYMicroT,UncalMagZMicroT,BiasXMicroT,BiasYMicroT,BiasZMicroT,CalibrationAccuracy
# 
# Mag,utcTimeMillis,elapsedRealtimeNanos,MagXMicroT,MagYMicroT,MagZMicroT,CalibrationAccuracy
# 
# Pressure,utcTimeMillis,elapsedRealtimeNanos,PressureHpa,CalibrationAccuracy
# 
# OrientationDeg,utcTimeMillis,elapsedRealtimeNanos,yawDeg,rollDeg,pitchDeg,CalibrationAccuracy
# 
# Fix,Provider,LatitudeDegrees,LongitudeDegrees,AltitudeMeters,SpeedMps,AccuracyMeters,BearingDegrees,UnixTimeMillis,SpeedAccuracyMps,BearingAccuracyDegrees,elapsedRealtimeNanos,VerticalAccuracyMeters,MockLocation,NumberOfUsedSignals,VerticalSpeedAccuracyMps,SolutionType
# 
# Nav,Svid,Type,Status,MessageId,Sub-messageId,Data(Bytes)
# 
# Status,UnixTimeMillis,SignalCount,SignalIndex,ConstellationType,Svid,CarrierFrequencyHz,Cn0DbHz,AzimuthDegrees,ElevationDegrees,UsedInFix,HasAlmanacData,HasEphemerisData,BasebandCn0DbHz
# 
# Agc,utcTimeMillis,TimeNanos,LeapSecond,TimeUncertaintyNanos,FullBiasNanos,BiasNanos,BiasUncertaintyNanos,DriftNanosPerSecond,DriftUncertaintyNanosPerSecond,HardwareClockDiscontinuityCount,AgcDb,CarrierFrequencyHz,ConstellationType
# 
Fix,FLP,40.0364006000,-105.2818538000,1642.9000244140625,0.16,8.695,262.0,1758759910269,0.39,14.4,3586716053284419,0.88395256,0,,,
Status,,25,0,1,9,1575420000,45.50,190.6,67.7,1,0,1,42.0
Status,,25,1,1,7,1575420000,37.70,316.4,60.5,1,0,1,34.2
Status,,25,2,1,8,1575420000,43.60,111.8,49.9,1,0,1,40.1
Status,,25,3,1,27,1575420000,40.50,66.5,37.4,1,0,1,37.0
Status,,25,4,1,4,1575420000,42.60,152.5,32.2,1,0,1,39.1
Status,,25,5,1,30,1575420000,38.30,294.4,32.1,1,0,1,34.8
Status,,25,6,1,16,1575420000,38.70,49.6,20.2,1,0,1,35.2
Status,,25,7,1,21,1575420000,42.20,296.8,18.8,1,0,1,38.7
Status,,25,8,1,14,1575420000,41.90,235.4,13.1,1,0,1,38.4
Status,,25,9,3,3,1604812500,42.10,278.9,63.5,1,0,1,38.6
Status,,25,10,3,13,1600875000,38.50,335.8,63.5,1,0,1,35.0
Status,,25,11,3,2,1599750000,46.80,182.2,36.0,1,0,1,43.3
Status,,25,12,3,12,1601437400,41.90,43.1,33.3,1,0,1,38.4
Status,,25,13,3,14,1598062500,37.90,261.5,24.5,1,0,1,34.4
Status,,25,14,3,4,1605375000,39.30,328.4,23.8,1,0,1,35.8
Status,,25,15,3,22,1600312400,32.80,76.9,15.6,0,0,1,29.3
Status,,25,16,3,21,1604250000,30.50,21.5,7.4,1,0,1,27.0
Status,,25,17,3,23,1603687600,29.30,117.5,7.1,0,1,0,25.8
Status,,25,18,6,23,1575420000,42.50,230.6,73.7,1,0,1,39.0
Status,,25,19,6,4,1575420000,32.60,302.6,62.3,1,0,1,29.1
Status,,25,20,6,19,1575420000,33.30,150.9,54.1,1,0,1,29.8
Status,,25,21,6,21,1575420000,33.00,48.1,49.6,1,0,1,29.5
Status,,25,22,6,6,1575420000,38.90,311.9,35.9,1,0,1,35.4
Status,,25,23,6,31,1575420000,43.70,228.8,21.5,1,0,1,40.2
Status,,25,24,6,29,1575420000,28.70,141.7,8.4,0,0,1,25.2
Raw,1758759909999,54136300935,18,,-1442795073863698944,0.0,10.330373764038086,,,48201,9,0.0,16399,347127932444557,10,45.5,543.1287231445312,0.056689340621232986,25,18859.640363514343,0.04008503258228302,1575420000,,,,0,,1,7.800000190734863,42.0,0.46566128730773926,,0.46566128730773926,,C,3586716053284419,0,-7775853.2788193915,-23086868.238032095,10389727.490352483,219.82691936204768,-1342.207924686747,-2797.4998768218647,223316.29448801788,0.0011789071140810847,0.000000027939677238464355,0.000000022351741790771484,-0.00000011920928955078125,-0.00000011920928955078125,135168.0,0.0,-196608.0,262144.0
Raw,1758759909999,54136300935,18,,-1442795073863698944,0.0,10.330373764038086,,,48201,8,0.0,16399,347127930253474,10,43.599998474121094,73.337646484375,0.06218867376446724,25,-4076.141582504264,0.04397360980510712,1575420000,,,,0,,1,7.800000190734863,40.099998474121094,4.656612873077393,,4.656612873077393,,C,3586716053284419,0,6750844.496935317,-23048819.40920954,10657491.546715293,383.35187989202586,1381.098684013918,2750.051041159189,159022.87346947615,-0.0014247012441046536,0.000000027939677238464355,0.000000022351741790771484,-0.00000011920928955078125,-0.00000011920928955078125,135168.0,0.0,-196608.0,262144.0
Raw,1758759909999,54136300935,18,,-1442795073863698944,0.0,10.330373764038086,,,48201,21,0.0,16399,347127920799112,10,42.20000076293945,273.3753356933594,0.06676948815584183,25,1978.5308884046162,0.04721270501613617,1575420000,,,,0,,1,7.800000190734863,38.70000076293945,-9.313225746154785,,-9.313225746154785,,C,3586716053284419,0,-20544110.01390826,1203315.386255594,16793389.3343814,-1726.139114709164,-1264.7996131821951,-2020.3321886267609,76268.2078674138,0.005628768645692617,0.000000027939677238464355,0.000000022351741790771484,-0.00000011920928955078125,-0.00000011920928955078125,135168.0,0.0,-196608.0,262144.0
Raw,1758759909999,54136300935,18,,-1442795073863698944,0.0,10.330373764038086,,,48201,14,0.0,16399,347127918974905,10,41.900001525878906,-324.7987976074219,0.0678168386220932,25,-28209.052914200234,0.0479532852768898,1575420000,,,,0,,1,7.800000190734863,38.400001525878906,-7.916241884231567,,-7.916241884231567,,C,3586716053284419,0,-23673543.099983364,-12071968.298301991,-2635424.6424502884,-131.41033016772354,-443.4510711345926,3094.80741397453,209536.43981410135,0.0016646284493617713,0.000000027939677238464355,0.000000022351741790771484,-0.00000011920928955078125,-0.00000011920928955078125,135168.0,0.0,-196608.0,262144.0
Raw,1758759909999,54136300935,18,,-1442795073863698944,0.0,10.330373764038086,,,48201,4,0.0,16399,347127924897955,10,42.599998474121094,898.64599609375,0.06541035324335098,25,38415.6369535214,0.04625166207551956,1575420000,,,,0,,1,7.800000190734863,39.099998474121094,-4.656612873077393,,-4.656612873077393,,C,3586716053284419,0,1886750.685964204,-26372072.753841747,-1218323.6911690235,264.9773547873253,168.53255421526208,-3198.698039300607,3051.757255646595,0.0006741506044818379,0.000000027939677238464355,0.000000022351741790771484,-0.00000011920928955078125,-0.00000011920928955078125,135168.0,0.0,-196608.0,262144.0
Raw,1758759909999,54136300935,18,,-1442795073863698944,0.0,10.330373764038086,,,48201,27,0.0,16399,347127927092455,10,40.5,476.2348937988281,0.07304602116346359,25,17714.61486689211,0.051650840789079666,1575420000,,,,0,,1,7.800000190734863,37.0,1.862645149230957,,1.862645149230957,,C,3586716053284419,0,12561184.170123357,-14376429.932985594,17948724.217414618,223.20179471268366,2362.3437424564227,1746.837710601136,-7797.619144075817,-0.0017032896976161283,0.000000027939677238464355,0.000000022351741790771484,-0.00000011920928955078125,-0.00000011920928955078125,135168.0,0.0,-196608.0,262144.0
Raw,1758759909999,54136300935,18,,-1442795073863698944,0.0,10.330373764038086,,,48201,16,0.0,16399,347127921749771,11,38.70000076293945,948.13916015625,0.08070763945579529,25,43274.06157848976,0.057068370282649994,1575420000,,,,0,,1,7.800000190734863,35.20000076293945,-10.710209608078003,,-10.710209608078003,,C,3586716053284419,0,15730975.49483394,-6258800.961528875,20201026.879414737,2108.125376021083,1587.815844947469,-1086.4653297784168,33274.105160809995,0.00172199442749843,0.000000027939677238464355,0.000000022351741790771484,-0.00000011920928955078125,-0.00000011920928955078125,135168.0,0.0,-196608.0,262144.0
Raw,1758759909999,54136300935,18,,-1442795073863698944,0.0,10.330373764038086,,,48201,7,0.0,16399,347127928774456,11,37.70000076293945,13.79850959777832,0.08549638837575912,25,-9660.870160952327,0.06045449525117874,1575420000,,,,0,,1,7.800000190734863,34.20000076293945,-10.710209608078003,,-10.710209608078003,,C,3586716053284419,0,-10673442.35480023,-11856945.927266305,21855260.710637856,2280.790469009582,-1325.9887036368766,363.6310181147184,-24310.969370051218,0.00007120096051949076,0.000000027939677238464355,0.000000022351741790771484,-0.00000011920928955078125,-0.00000011920928955078125,135168.0,0.0,-196608.0,262144.0
Raw,1758759909999,54136300935,18,,-1442795073863698944,0.0,10.330373764038086,,,48201,30,0.0,16399,347127923850439,11,38.29999923706055,-200.00018310546875,0.08257365971803665,25,-19687.745478749355,0.05838783457875252,1575420000,,,,0,,1,7.800000190734863,34.79999923706055,4.190951585769653,,4.190951585769653,,C,3586716053284419,0,-19335512.506499924,-4101770.2554456303,18038017.02741356,1858.1016408886285,-1287.03389076208,1690.0514837241699,-7606.300525984269,0.004086939588887617,0.000000027939677238464355,0.000000022351741790771484,-0.00000011920928955078125,-0.00000011920928955078125,135168.0,0.0,-196608.0,262144.0
Raw,1758759909999,54136300935,18,,-1442795073863698944,0.0,10.330373764038086,,,48201,2,0.0,32995,12309929309864,10,46.79999923706055,992.7111206054688,0.05333646386861801,25,-89178.31566638651,0.037714213132858276,1599750000,,,,0,,3,7.800000190734863,43.29999923706055,4.656612873077394,,4.656612873077394,,C,3586716053284419,0,-7352054.910753266,-24360334.02771398,-1042229.4536091398,-144.0088462297233,202.54762777729894,-3591.9216034565898,-6905.2605622038245,0.0,0.000000027939677238464355,0.000000022351741790771484,-0.00000011920928955078125,-0.00000011920928955078125,135168.0,0.0,-196608.0,262144.0
Raw,1758759909999,54136300935,18,,-1442795073863698944,0.0,10.330373764038086,,,48201,31,0.0,19464,347127911017999,10,43.70000076293945,-213.02841186523438,0.06187965348362923,25,-25667.294606439966,0.04375510290265083,1575420000,,,,0,,6,7.800000190734863,40.20000076293945,2.499536577715983,,2.499536577715983,,C,3586716053284419,0,-24025830.687193587,-17152476.873329394,-2132502.2699267133,-206.81781800631663,-85.12460019594886,3000.8086199939517,-26831.881478602085,-0.0006533293781103566,0.000000027939677238464355,0.000000022351741790771484,-0.00000011920928955078125,-0.00000011920928955078125,135168.0,0.0,-196608.0,262144.0
Raw,1758759909999,54136300935,18,,-1442795073863698944,0.0,10.330373764038086,,,48201,23,0.0,19464,347127921843776,10,42.5,129.1467742919922,0.06574621796607971,25,-5238.197303009417,0.04648914933204651,1575420000,,,,0,,6,7.800000190734863,39.0,-0.061600502476582886,,-0.061600502476582886,,C,3586716053284419,0,-11404473.809804138,-22560294.14077498,15404206.07178561,1181.1209695832208,997.2897014564192,2334.2932186905405,-3267.6922563278877,-0.00031328898285210016,0.000000027939677238464355,0.000000022351741790771484,-0.00000011920928955078125,-0.00000011920928955078125,135168.0,0.0,-196608.0,262144.0
Raw,1758759909999,54136300935,18,,-1442795073863698944,0.0,10.330373764038086,,,48201,3,0.0,32995,12309934597549,10,42.099998474121094,230.59713745117188,0.0671159029006958,25,641547.0291690448,0.047457654029130936,1604812500,,,,0,,3,7.800000190734863,38.599998474121094,4.656612873077394,,4.656612873077394,,C,3586716053284419,0,-12946439.896009918,-14614774.57565628,16416753.8519403,-842.3615690327014,-2083.62388443726,-2531.431161646244,39046.04880733788,0.0,0.000000027939677238464355,0.000000022351741790771484,-0.00000011920928955078125,-0.00000011920928955078125,135168.0,0.0,-196608.0,262144.0
Raw,1758759909999,54136300935,18,,-1442795073863698944,0.0,10.330373764038086,,,48201,12,0.0,32995,12309928402951,10,41.900001525878906,786.3767700195312,0.0678168386220932,25,27385.075208540165,0.0479532852768898,1601437400,,,,0,,3,7.800000190734863,38.400001525878906,4.656612873077394,,4.656612873077394,,C,3586716053284419,0,10400263.041852761,-8546873.793471832,21694061.346188672,2916.8259678611994,522.8404962204563,-1192.9096351605372,17859.417146346954,0.0002726596521824831,0.000000027939677238464355,0.000000022351741790771484,-0.00000011920928955078125,-0.00000011920928955078125,135168.0,0.0,-196608.0,262144.0
Raw,1758759909999,54136300935,18,,-1442795073863698944,0.0,10.330373764038086,,,48201,4,0.0,32995,12309925989357,10,39.29999923706055,-397.72406005859375,0.07802503556013107,25,650370.6261324568,0.05517150089144707,1605375000,,,,0,,3,7.800000190734863,35.79999923706055,4.656612873077394,,4.656612873077394,,C,3586716053284419,0,-10456963.042829193,2168938.633140544,23186704.7164455,-977.7971590583975,-3016.908611631464,-160.9796826933333,93774.89780108082,0.0008179789565474493,0.000000027939677238464355,0.000000022351741790771484,-0.00000011920928955078125,-0.00000011920928955078125,135168.0,0.0,-196608.0,262144.0
Raw,1758759909999,54136300935,18,,-1442795073863698944,0.0,10.330373764038086,,,48201,6,0.0,19464,347127915143339,11,38.900001525878906,-145.81796264648438,0.07979825884103775,25,-20232.47708140799,0.05642534792423248,1575420000,,,,0,,6,7.800000190734863,35.400001525878906,1.8010446467543741,,1.8010446467543741,,C,3586716053284419,0,-16704361.383240879,-3235298.5507546067,24199462.543411847,342.22765403798235,-2406.827428307044,-85.7755165460638,-51672.485458284944,-0.001505889042164199,0.000000027939677238464355,0.000000022351741790771484,-0.00000011920928955078125,-0.00000011920928955078125,135168.0,0.0,-196608.0,262144.0
Raw,1758759909999,54136300935,18,,-1442795073863698944,0.0,10.330373764038086,,,48201,13,0.0,32995,12309934411837,11,38.5,341.0809326171875,0.08163265138864517,25,-39546.33345980081,0.05772244930267334,1600875000,,,,0,,3,7.800000190734863,35.0,4.656612873077394,,4.656612873077394,,C,3586716053284419,0,-6916670.189980383,-11793658.51244151,21522258.585305527,2890.6373447086753,587.1051201342683,1250.424450824754,-18839.534275241196,0.0,0.000000027939677238464355,0.000000022351741790771484,-0.00000011920928955078125,-0.00000011920928955078125,135168.0,0.0,-196608.0,262144.0
Raw,1758759909999,54136300935,18,,-1442795073863698944,0.0,10.330373764038086,,,48201,14,0.0,32995,12309925981363,11,37.900001525878906,-215.35191345214844,0.08450513333082199,25,-282418.1673143839,0.059753578156232834,1598062500,,,,0,,3,7.800000190734863,34.400001525878906,4.656612873077394,,4.656612873077394,,C,3586716053284419,0,,,,,,,,,0.000000027939677238464355,0.000000022351741790771484,-0.00000011920928955078125,-0.00000011920928955078125,135168.0,0.0,-196608.0,262144.0
Raw,1758759909999,54136300935,18,,-1442795073863698944,0.0,10.330373764038086,,,48201,19,0.0,19464,347127921561174,14,33.29999923706055,619.1519165039062,0.11260754615068436,25,21433.995725388093,0.07962479442358017,1575420000,,,,0,,6,7.800000190734863,29.799999237060547,-5.649535950169454,,-5.649535950169454,,C,3586716053284419,0,-695391.1101222546,-28710633.953023553,7173886.865293387,23.968517360964718,-724.2044489216773,-2894.982363816368,682539.7708609063,0.012200384982861578,0.000000027939677238464355,0.000000022351741790771484,-0.00000011920928955078125,-0.00000011920928955078125,135168.0,0.0,-196608.0,262144.0
Raw,1758759909999,54136300935,18,,-1442795073863698944,0.0,10.330373764038086,,,48201,4,0.0,19464,347127920235000,15,32.599998474121094,61.263671875,0.11809024214744568,25,-9003.934258861547,0.08350160717964172,1575420000,,,,0,,6,7.800000190734863,29.100000381469727,-6.115197237477194,,-6.115197237477194,,C,3586716053284419,0,-13505811.62824331,-14187170.987854362,22190875.75068738,283.3940634351683,-2208.182567963079,-1238.5636869857296,-104732.73114541525,-0.003124777344055474,0.000000027939677238464355,0.000000022351741790771484,-0.00000011920928955078125,-0.00000011920928955078125,135168.0,0.0,-196608.0,262144.0
Raw,1758759909999,54136300935,18,,-1442795073863698944,0.0,10.330373764038086,,,48201,21,0.0,19456,347127917688916,14,33.0,611.4343872070312,0.11490950733423233,25,17409.92619450359,0.08125251531600952,1575420000,,,,0,,6,7.800000190734863,29.5,-0.7600924334381918,,-0.7600924334381918,,C,3586716053284419,0,8130238.497594753,-15024362.33268897,24176534.54657254,1895.4764590100922,1510.8053630978734,301.62820591871883,-207391.57130862947,-0.0006733860936947167,0.000000027939677238464355,0.000000022351741790771484,-0.00000011920928955078125,-0.00000011920928955078125,135168.0,0.0,-196608.0,262144.0
Raw,1758759909999,54136300935,18,,-1442795073863698944,0.0,10.330373764038086,,,48201,22,0.0,32995,12309923193476,15,32.79999923706055,-110.18315887451172,0.11648360639810562,16,-105431.597984766,0.1760324090719223,1600312400,,,,0,,3,7.800000190734863,29.299999237060547,4.656612873077394,,4.656612873077394,,C,3586716053284419,0,19151753.24694377,-11902112.366566887,11953549.700892989,-1219.150408744756,1092.3431547756884,3048.3705728552695,26115.909666821797,0.0005453193043649662,0.000000027939677238464355,0.000000022351741790771484,-0.00000011920928955078125,-0.00000011920928955078125,135168.0,0.0,-196608.0,262144.0
Raw,1758759909999,54136300935,18,,-1442795073863698944,0.0,10.330373764038086,,,48201,29,0.0,19456,347127906550550,19,28.700000762939453,828.0067749023438,0.15747039020061493,25,-786843.8148619385,0.11134731024503708,1575420000,,,,0,,6,7.800000190734863,25.200000762939453,-6.580858524784933,,-6.580858524784933,,C,3586716053284419,0,10719533.613800002,-25740206.56708652,-9934449.622668268,-185.35424931192398,978.8022930242787,-2739.6732141195885,-40578.72945755867,-0.0010448002867633477,0.000000027939677238464355,0.000000022351741790771484,-0.00000011920928955078125,-0.00000011920928955078125,135168.0,0.0,-196608.0,262144.0
Raw,1758759909999,54136300935,18,,-1442795073863698944,0.0,10.330373764038086,,,48201,23,0.0,51,80983,18,29.299999237060547,-415.6639709472656,0.15023136138916016,16,3616973.975199,0.1996983289718628,1603687600,,,,0,,3,7.800000190734863,25.799999237060547,4.656612873077394,,4.656612873077394,,C,3586716053284419,0,,,,,,,,,0.000000027939677238464355,0.000000022351741790771484,-0.00000011920928955078125,-0.00000011920928955078125,135168.0,0.0,-196608.0,262144.0
Raw,1758759909999,54136300935,18,,-1442795073863698944,0.0,10.330373764038086,,,48201,21,0.0,32867,12309919969280,17,30.5,520.3668823242188,0.13717420399188995,16,616041.5220131199,0.1904328316450119,1604250000,,,,0,,3,7.800000190734863,27.0,4.656612873077394,,4.656612873077394,,C,3586716053284419,0,10200968.647622975,4427540.857464425,22963983.242490347,-2142.2947455766607,2303.318431042443,504.0803174992757,-71945.26051012822,-0.0010906386087299325,0.000000027939677238464355,0.000000022351741790771484,-0.00000011920928955078125,-0.00000011920928955078125,135168.0,0.0,-196608.0,262144.0
Agc,1758759909999,54136300935,18,,-1442795073863698944,0.0,10.330373764038086,,,48201,7.800000190734863,1575420032,1
Agc,1758759909999,54136300935,18,,-1442795073863698944,0.0,10.330373764038086,,,48201,7.800000190734863,1575420032,1
Agc,1758759909999,54136300935,18,,-1442795073863698944,0.0,10.330373764038086,,,48201,7.800000190734863,1575420032,1
Agc,1758759909999,54136300935,18,,-1442795073863698944,0.0,10.330373764038086,,,48201,7.800000190734863,1575420032,1
Agc,1758759909999,54136300935,18,,-1442795073863698944,0.0,10.330373764038086,,,48201,7.800000190734863,1575420032,1
Agc,1758759909999,54136300935,18,,-1442795073863698944,0.0,10.330373764038086,,,48201,7.800000190734863,1575420032,1
Agc,1758759909999,54136300935,18,,-1442795073863698944,0.0,10.330373764038086,,,48201,7.800000190734863,1575420032,1
Agc,1758759909999,54136300935,18,,-1442795073863698944,0.0,10.330373764038086,,,48201,7.800000190734863,1575420032,1
Agc,1758759909999,54136300935,18,,-1442795073863698944,0.0,10.330373764038086,,,48201,7.800000190734863,1575420032,1
Agc,1758759909999,54136300935,18,,-1442795073863698944,0.0,10.330373764038086,,,48201,7.800000190734863,1599750016,3
Agc,1758759909999,54136300935,18,,-1442795073863698944,0.0,10.330373764038086,,,48201,7.800000190734863,1575420032,6
Agc,1758759909999,54136300935,18,,-1442795073863698944,0.0,10.330373764038086,,,48201,7.800000190734863,1575420032,6
Agc,1758759909999,54136300935,18,,-1442795073863698944,0.0,10.330373764038086,,,48201,7.800000190734863,1604812544,3
Agc,1758759909999,54136300935,18,,-1442795073863698944,0.0,10.330373764038086,,,48201,7.800000190734863,1601437440,3
Agc,1758759909999,54136300935,18,,-1442795073863698944,0.0,10.330373764038086,,,48201,7.800000190734863,1605374976,3
Agc,1758759909999,54136300935,18,,-1442795073863698944,0.0,10.330373764038086,,,48201,7.800000190734863,1575420032,6
Agc,1758759909999,54136300935,18,,-1442795073863698944,0.0,10.330373764038086,,,48201,7.800000190734863,1600875008,3
Agc,1758759909999,54136300935,18,,-1442795073863698944,0.0,10.330373764038086,,,48201,7.800000190734863,1598062464,3
Agc,1758759909999,54136300935,18,,-1442795073863698944,0.0,10.330373764038086,,,48201,7.800000190734863,1575420032,6
Agc,1758759909999,54136300935,18,,-1442795073863698944,0.0,10.330373764038086,,,48201,7.800000190734863,1575420032,6
Agc,1758759909999,54136300935,18,,-1442795073863698944,0.0,10.330373764038086,,,48201,7.800000190734863,1575420032,6
Agc,1758759909999,54136300935,18,,-1442795073863698944,0.0,10.330373764038086,,,48201,7.800000190734863,1600312448,3
Agc,1758759909999,54136300935,18,,-1442795073863698944,0.0,10.330373764038086,,,48201,7.800000190734863,1575420032,6
Agc,1758759909999,54136300935,18,,-1442795073863698944,0.0,10.330373764038086,,,48201,7.800000190734863,1603687552,3
Agc,1758759909999,54136300935,18,,-1442795073863698944,0.0,10.330373764038086,,,48201,7.800000190734863,1604249984,3
Fix,GPS,40.0364006404,-105.2818539273,1644.0,0.0,3.0612245,,1758759911000,0.02,,3586717053285323,2.0,0,,,
Fix,FLP,40.0364006000,-105.2818539000,1642.9000244140625,0.0,8.78,,1758759911269,0.02,,3586717053285323,0.87593144,0,,,
Status,1758759911000,25,0,1,9,1575420000,45.70,190.6,67.7,1,0,1,42.2
Status,1758759911000,25,1,1,7,1575420000,37.60,316.4,60.5,1,0,1,34.1
Status,1758759911000,25,2,1,8,1575420000,43.60,111.8,49.9,1,0,1,40.1
Status,1758759911000,25,3,1,27,1575420000,40.60,66.5,37.4,1,0,1,37.1
Status,1758759911000,25,4,1,4,1575420000,42.50,152.5,32.2,1,0,1,39.0
Status,1758759911000,25,5,1,30,1575420000,38.10,294.4,32.1,1,0,1,34.6
Status,1758759911000,25,6,1,16,1575420000,39.00,49.6,20.2,1,0,1,35.5
Status,1758759911000,25,7,1,21,1575420000,42.30,296.8,18.8,1,0,1,38.8
Status,1758759911000,25,8,1,14,1575420000,41.90,235.4,13.1,1,0,1,38.4
Status,1758759911000,25,9,3,3,1604812500,42.10,278.7,63.5,1,0,1,38.6
Status,1758759911000,25,10,3,13,1600875000,38.40,336.0,63.4,1,0,1,34.9
Status,1758759911000,25,11,3,2,1599750000,47.00,182.2,35.9,1,0,1,43.5
Status,1758759911000,25,12,3,12,1601437400,41.80,43.1,33.3,1,0,1,38.3
Status,1758759911000,25,13,3,14,1598062500,37.90,261.6,24.6,1,0,1,34.4
Status,1758759911000,25,14,3,4,1605375000,39.40,328.4,23.9,1,0,1,35.9
Status,1758759911000,25,15,3,22,1600312400,32.50,76.8,15.7,0,0,1,29.0
Status,1758759911000,25,16,3,21,1604250000,30.30,21.4,7.3,1,0,1,26.8
Status,1758759911000,25,17,3,23,1603687600,29.20,117.5,7.2,0,1,0,25.7
Status,1758759911000,25,18,6,23,1575420000,42.50,230.6,73.7,1,0,1,39.0
Status,1758759911000,25,19,6,4,1575420000,32.60,302.6,62.3,1,0,1,29.1
Status,1758759911000,25,20,6,19,1575420000,33.40,150.9,54.1,1,0,1,29.9
Status,1758759911000,25,21,6,21,1575420000,32.90,48.1,49.6,1,0,1,29.4
Status,1758759911000,25,22,6,6,1575420000,38.70,311.9,35.9,1,0,1,35.2
Status,1758759911000,25,23,6,31,1575420000,43.90,228.8,21.5,1,0,1,40.4
Status,1758759911000,25,24,6,29,1575420000,28.70,141.7,8.4,1,0,1,25.2
Raw,1758759911000,55136301851,18,,-1442795073863698176,0.0,10.330373764038086,,,48201,9,0.0,16399,347128932443658,10,45.70000076293945,544.1380615234375,0.056153275072574615,25,19402.919655249374,0.03970598056912422,1575420000,,,,0,,1,7.800000190734863,42.20000076293945,0.46566128730773926,,0.46566128730773926,,C,3586717053285323,0,-7775633.487214199,-23088210.27445992,10386929.881508492,219.75669375786052,-1341.867338677558,-2797.722831264331,223316.29566693906,0.0011789373238570988,0.000000027939677238464355,0.000000022351741790771484,-0.00000011920928955078125,-0.00000011920928955078125,135168.0,0.0,-196608.0,262144.0
Raw,1758759911000,55136301851,18,,-1442795073863698176,0.0,10.330373764038086,,,48201,8,0.0,16399,347128930254145,10,43.599998474121094,74.47810363769531,0.06218867376446724,25,-4002.535745885805,0.04397360980510712,1575420000,,,,0,,1,7.800000190734863,40.099998474121094,4.656612873077393,,4.656612873077393,,C,3586717053285323,0,6751227.893572126,-23047438.145612285,10660241.482479658,383.440886072243,1381.4266507824523,2749.8167870771367,159022.8720447788,-0.0014246915525291115,0.000000027939677238464355,0.000000022351741790771484,-0.00000011920928955078125,-0.00000011920928955078125,135168.0,0.0,-196608.0,262144.0
Raw,1758759911000,55136301851,18,,-1442795073863698176,0.0,10.330373764038086,,,48201,21,0.0,16399,347128920799124,10,42.29999923706055,274.25018310546875,0.06642576307058334,25,2251.92546439512,0.04696965590119362,1575420000,,,,0,,1,7.800000190734863,38.79999923706055,-9.313225746154785,,-9.313225746154785,,C,3586717053285323,0,-20545836.081420675,1202050.7029019538,16791368.823559925,-1725.9958585286054,-1264.56706386614,-2020.6893987279361,76268.21349618328,0.005628770144539885,0.000000027939677238464355,0.000000022351741790771484,-0.00000011920928955078125,-0.00000011920928955078125,135168.0,0.0,-196608.0,262144.0
Raw,1758759911000,55136301851,18,,-1442795073863698176,0.0,10.330373764038086,,,48201,14,0.0,16399,347128918976902,10,41.900001525878906,-323.96484375,0.0678168386220932,25,-28533.842012510635,0.0479532852768898,1575420000,,,,0,,1,7.800000190734863,38.400001525878906,-7.916241884231567,,-7.916241884231567,,C,3586717053285323,0,-23673674.35806893,-12072411.64642527,-2632329.801278355,-131.10531138187412,-443.24341112768315,3094.8625583658763,209536.4414787546,0.001664671377511695,0.000000027939677238464355,0.000000022351741790771484,-0.00000011920928955078125,-0.00000011920928955078125,135168.0,0.0,-196608.0,262144.0
Raw,1758759911000,55136301851,18,,-1442795073863698176,0.0,10.330373764038086,,,48201,4,0.0,16399,347128924895868,10,42.5,899.6814575195312,0.06574621796607971,25,39314.4830159063,0.04648914933204651,1575420000,,,,0,,1,7.800000190734863,39.0,-4.656612873077393,,-4.656612873077393,,C,3586717053285323,0,1887015.659797337,-26371904.02757946,-1221522.3694222064,264.9714261294666,168.92067433222826,-3198.671806927817,3051.7579297924,0.0006741438191966154,0.000000027939677238464355,0.000000022351741790771484,-0.00000011920928955078125,-0.00000011920928955078125,135168.0,0.0,-196608.0,262144.0
Raw,1758759911000,55136301851,18,,-1442795073863698176,0.0,10.330373764038086,,,48201,27,0.0,16399,347128927091774,10,40.599998474121094,477.41357421875,0.07265277206897736,25,18191.153397458722,0.051372773945331573,1575420000,,,,0,,1,7.800000190734863,37.099998474121094,1.862645149230957,,1.862645149230957,,C,3586717053285323,0,12561407.438308716,-14374067.486129403,17950470.85509385,223.33488462988169,2362.5531776720286,1746.440020378008,-7797.620847349747,-0.0017032604737323709,0.000000027939677238464355,0.000000022351741790771484,-0.00000011920928955078125,-0.00000011920928955078125,135168.0,0.0,-196608.0,262144.0
Raw,1758759911000,55136301851,18,,-1442795073863698176,0.0,10.330373764038086,,,48201,16,0.0,16399,347128921747518,11,39.0,949.1331787109375,0.0793493390083313,25,44222.39525906454,0.05610791593790054,1575420000,,,,0,,1,7.800000190734863,35.5,-10.710209608078003,,-10.710209608078003,,C,3586717053285323,0,15733083.601874596,-6257213.251521839,20199940.196664292,2108.098194047058,1587.6113195841453,-1086.905063381211,33274.10688289326,0.0017221798698301427,0.000000027939677238464355,0.000000022351741790771484,-0.00000011920928955078125,-0.00000011920928955078125,135168.0,0.0,-196608.0,262144.0
Raw,1758759911000,55136301851,18,,-1442795073863698176,0.0,10.330373764038086,,,48201,7,0.0,16399,347128928775335,11,37.599998474121094,14.754533767700195,0.08599857985973358,16,-9646.951684547123,0.15595643222332,1575420000,,,,0,,1,7.800000190734863,34.099998474121094,-10.710209608078003,,-10.710209608078003,,C,3586717053285323,0,-10671161.58005429,-11858271.995716933,21855624.12211401,2280.755003913457,-1326.1458621525476,363.19129390330033,-24310.969298895463,0.00007111041850293986,0.000000027939677238464355,0.000000022351741790771484,-0.00000011920928955078125,-0.00000011920928955078125,135168.0,0.0,-196608.0,262144.0
Raw,1758759911000,55136301851,18,,-1442795073863698176,0.0,10.330373764038086,,,48201,30,0.0,16399,347128923852045,11,38.099998474121094,-199.1959228515625,0.08353102952241898,25,-19887.749364650655,0.05906479060649872,1575420000,,,,0,,1,7.800000190734863,34.599998474121094,4.190951585769653,,4.190951585769653,,C,3586717053285323,0,-19333654.34605541,-4103057.395144726,18039706.89397229,1858.2132699947906,-1287.2413725339354,1689.6762000467554,-7606.296439049344,0.004086917129825451,0.000000027939677238464355,0.000000022351741790771484,-0.00000011920928955078125,-0.00000011920928955078125,135168.0,0.0,-196608.0,262144.0
Raw,1758759911000,55136301851,18,,-1442795073863698176,0.0,10.330373764038086,,,48201,2,0.0,32995,12310929307469,10,47.0,993.689697265625,0.05284713953733444,25,-88185.4674056631,0.03736821189522743,1599750000,,,,0,,3,7.800000190734863,43.5,5.550682544708255,,5.550682544708255,,C,3586717053285323,0,-7352198.8353036875,-24360131.240870323,-1045821.3540068635,-143.8409239369737,203.02702277563384,-3591.8964015038514,-6905.2605622038245,0.0,0.000000027939677238464355,0.000000022351741790771484,-0.00000011920928955078125,-0.00000011920928955078125,135168.0,0.0,-196608.0,262144.0
Raw,1758759911000,55136301851,18,,-1442795073863698176,0.0,10.330373764038086,,,48201,31,0.0,19464,347128911019634,10,43.900001525878906,-212.24366760253906,0.06126849725842476,25,-25880.3442682308,0.04332295432686806,1575420000,,,,0,,6,7.800000190734863,40.400001525878906,2.499534357269905,,2.499534357269905,,C,3586717053285323,0,-24026037.390733283,-17152561.896736138,-2129501.4400128443,-206.58858016494742,-84.92194075083454,3000.8413873478144,-26831.882131931077,-0.0006533264604513533,0.000000027939677238464355,0.000000022351741790771484,-0.00000011920928955078125,-0.00000011920928955078125,135168.0,0.0,-196608.0,262144.0
Raw,1758759911000,55136301851,18,,-1442795073863698176,0.0,10.330373764038086,,,48201,23,0.0,19464,347128921844267,10,42.5,130.05445861816406,0.06574621796607971,25,-5108.969525383051,0.04648914933204651,1575420000,,,,0,,6,7.800000190734863,39.0,-0.061602722922661,,-0.061602722922661,,C,3586717053285323,0,-11403292.558239125,-22559296.823381864,15406540.247781925,1181.3809998689715,997.3440973920576,2334.056475797297,-3267.6925696175617,-0.000313290058329585,0.000000027939677238464355,0.000000022351741790771484,-0.00000011920928955078125,-0.00000011920928955078125,135168.0,0.0,-196608.0,262144.0
Raw,1758759911000,55136301851,18,,-1442795073863698176,0.0,10.330373764038086,,,48201,3,0.0,32995,12310934597691,10,42.099998474121094,231.64334106445312,0.0671159029006958,25,641777.7747289094,0.047457654029130936,1604812500,,,,0,,3,7.800000190734863,38.599998474121094,5.550682544708255,,5.550682544708255,,C,3586717053285323,0,-12947282.288621353,-14616858.001794592,16414222.223303571,-842.4234020452932,-2083.227808957312,-2531.8253946062896,39046.04880733788,0.0,0.000000027939677238464355,0.000000022351741790771484,-0.00000011920928955078125,-0.00000011920928955078125,135168.0,0.0,-196608.0,262144.0
Raw,1758759911000,55136301851,18,,-1442795073863698176,0.0,10.330373764038086,,,48201,12,0.0,32995,12310928401230,10,41.79999923706055,787.391357421875,0.0681714415550232,25,28171.65787137693,0.048204027116298676,1601437400,,,,0,,3,7.800000190734863,38.29999923706055,5.550682544708255,,5.550682544708255,,C,3586717053285323,0,10403179.804040642,-8546351.086973058,21692868.17883533,2916.7084506097954,522.5743076551674,-1193.429178245329,17859.41741900614,0.0002726596521824831,0.000000027939677238464355,0.000000022351741790771484,-0.00000011920928955078125,-0.00000011920928955078125,135168.0,0.0,-196608.0,262144.0
Raw,1758759911000,55136301851,18,,-1442795073863698176,0.0,10.330373764038086,,,48201,4,0.0,32995,12310925991594,10,39.400001525878906,-396.7733459472656,0.0775909498333931,25,649973.0000170113,0.054864559322595596,1605375000,,,,0,,3,7.800000190734863,35.900001525878906,5.550682544708255,,5.550682544708255,,C,3586717053285323,0,-10457940.9647304,2165921.768898082,23186543.458653327,-978.0422691252265,-3016.806379673377,-161.53517880781513,93774.8986190616,0.0008179789565474493,0.000000027939677238464355,0.000000022351741790771484,-0.00000011920928955078125,-0.00000011920928955078125,135168.0,0.0,-196608.0,262144.0
Raw,1758759911000,55136301851,18,,-1442795073863698176,0.0,10.330373764038086,,,48201,13,0.0,32995,12310934411640,11,38.400001525878906,342.04827880859375,0.08210112154483795,25,-39205.12763890275,0.05805370211601257,1600875000,,,,0,,3,7.800000190734863,34.900001525878906,5.550682544708255,,5.550682544708255,,C,3586717053285323,0,-6913779.445670902,-11793071.507834585,21523508.750760596,2890.8524181063203,586.9043175432596,1249.9069547843599,-18839.534275241196,0.0,0.000000027939677238464355,0.000000022351741790771484,-0.00000011920928955078125,-0.00000011920928955078125,135168.0,0.0,-196608.0,262144.0
Raw,1758759911000,55136301851,18,,-1442795073863698176,0.0,10.330373764038086,,,48201,14,0.0,32995,12310925983025,11,37.900001525878906,-214.5889129638672,0.08450513333082199,25,-282633.5655614631,0.059753578156232834,1598062500,,,,0,,3,7.800000190734863,34.400001525878906,5.550682544708255,,5.550682544708255,,C,3586717053285323,0,,,,,,,,,0.000000027939677238464355,0.000000022351741790771484,-0.00000011920928955078125,-0.00000011920928955078125,135168.0,0.0,-196608.0,262144.0
Raw,1758759911000,55136301851,18,,-1442795073863698176,0.0,10.330373764038086,,,48201,6,0.0,19464,347128915144751,11,38.70000076293945,-144.96578979492188,0.08070763945579529,25,-20378.262686044873,0.057068370282649994,1575420000,,,,0,,6,7.800000190734863,35.20000076293945,1.801042426308296,,1.801042426308296,,C,3586717053285323,0,-16704019.24645037,-3237705.3902276037,24199376.581476558,342.044959779628,-2406.844712228457,-86.14811105940458,-51672.4869641764,-0.0015058896315167658,0.000000027939677238464355,0.000000022351741790771484,-0.00000011920928955078125,-0.00000011920928955078125,135168.0,0.0,-196608.0,262144.0
Raw,1758759911000,55136301851,18,,-1442795073863698176,0.0,10.330373764038086,,,48201,19,0.0,19464,347128921559993,14,33.400001525878906,620.1713256835938,0.11185558140277863,25,22053.333501475667,0.0790930837392807,1575420000,,,,0,,6,7.800000190734863,29.899999618530273,-5.649538170615532,,-5.649538170615532,,C,3586717053285323,0,-695367.1909424025,-28711358.01408132,7170991.831222699,23.869905840535594,-723.9193733062575,-2895.0926084824764,682539.7830612775,0.01220038568135351,0.000000027939677238464355,0.000000022351741790771484,-0.00000011920928955078125,-0.00000011920928955078125,135168.0,0.0,-196608.0,262144.0
Raw,1758759911000,55136301851,18,,-1442795073863698176,0.0,10.330373764038086,,,48201,4,0.0,19464,347128920235698,15,32.599998474121094,62.31268310546875,0.11809024214744568,16,-8942.502693413953,0.178648442029953,1575420000,,,,0,,6,7.800000190734863,29.100000381469727,-6.115199457923271,,-6.115199457923271,,C,3586717053285323,0,-13505528.327130154,-14189379.121321788,22189637.015590094,283.2077693756165,-2208.081276070673,-1238.9047751060366,-104732.73427019407,-0.003124775903415866,0.000000027939677238464355,0.000000022351741790771484,-0.00000011920928955078125,-0.00000011920928955078125,135168.0,0.0,-196608.0,262144.0
Raw,1758759911000,55136301851,18,,-1442795073863698176,0.0,10.330373764038086,,,48201,21,0.0,19456,347128917687794,14,32.900001525878906,612.4342041015625,0.11569254100322723,16,18021.5466091809,0.1769530326128006,1575420000,,,,0,,6,7.800000190734863,29.399999618530273,-0.7600946538842699,,-0.7600946538842699,,C,3586717053285323,0,8132134.041258455,-15022851.591787813,24176835.9887074,1895.6151156821552,1510.6798233719605,301.2567394759823,-207391.57198201455,-0.0006733855698257685,0.000000027939677238464355,0.000000022351741790771484,-0.00000011920928955078125,-0.00000011920928955078125,135168.0,0.0,-196608.0,262144.0
Raw,1758759911000,55136301851,18,,-1442795073863698176,0.0,10.330373764038086,,,48201,22,0.0,32995,12310923194848,15,32.5,-108.7201919555664,0.11890606582164764,16,-105541.34683002916,0.17774532735347748,1600312400,,,,0,,3,7.800000190734863,29.0,5.550682544708255,,5.550682544708255,,C,3586717053285323,0,19150533.99583537,-11901019.821961166,11956597.932283418,-1219.3484493744977,1092.7430720288953,3048.083847940191,26115.91021214185,0.0005453193043649662,0.000000027939677238464355,0.000000022351741790771484,-0.00000011920928955078125,-0.00000011920928955078125,135168.0,0.0,-196608.0,262144.0
Raw,1758759911000,55136301851,18,,-1442795073863698176,0.0,10.330373764038086,,,48201,29,0.0,19456,347128906548718,19,28.700000762939453,829.2939453125,0.15747039020061493,16,-786015.4347562343,0.20649415254592896,1575420000,,,,0,,6,7.800000190734863,25.200000762939453,-6.580860745231011,,-6.580860745231011,,C,3586717053285323,0,10719348.277392907,-25739227.623694282,-9937189.214498008,-185.31923657482986,979.0880758410606,-2739.5204762192743,-40578.730502355145,-0.0010447964741615579,0.000000027939677238464355,0.000000022351741790771484,-0.00000011920928955078125,-0.00000011920928955078125,135168.0,0.0,-196608.0,262144.0
Raw,1758759911000,55136301851,18,,-1442795073863698176,0.0,10.330373764038086,,,48201,23,0.0,51,83226,18,29.200000762939453,-415.26641845703125,0.15140274167060852,16,3616558.591757395,0.20052659511566162,1603687600,,,,0,,3,7.800000190734863,25.700000762939453,5.550682544708255,,5.550682544708255,,C,3586717053285323,0,,,,,,,,,0.000000027939677238464355,0.000000022351741790771484,-0.00000011920928955078125,-0.00000011920928955078125,135168.0,0.0,-196608.0,262144.0
Raw,1758759911000,55136301851,18,,-1442795073863698176,0.0,10.330373764038086,,,48201,21,0.0,32867,12310919968531,17,30.299999237060547,521.1047973632812,0.13922923803329468,16,616561.7311435933,0.19188594818115234,1604250000,,,,0,,3,7.800000190734863,26.799999237060547,5.550682544708255,,5.550682544708255,,C,3586717053285323,0,10198826.427224904,4429844.289034537,22964487.04692089,-2142.1492592646564,2303.54816487767,503.52930041406404,-71945.26160076601,-0.0010906386087299325,0.000000027939677238464355,0.000000022351741790771484,-0.00000011920928955078125,-0.00000011920928955078125,135168.0,0.0,-196608.0,262144.0
Agc,1758759911000,55136301851,18,,-1442795073863698176,0.0,10.330373764038086,,,48201,7.800000190734863,1575420032,1
Agc,1758759911000,55136301851,18,,-1442795073863698176,0.0,10.330373764038086,,,48201,7.800000190734863,1575420032,1
Agc,1758759911000,55136301851,18,,-1442795073863698176,0.0,10.330373764038086,,,48201,7.800000190734863,1575420032,1
Agc,1758759911000,55136301851,18,,-1442795073863698176,0.0,10.330373764038086,,,48201,7.800000190734863,1575420032,1
Agc,1758759911000,55136301851,18,,-1442795073863698176,0.0,10.330373764038086,,,48201,7.800000190734863,1575420032,1
Agc,1758759911000,55136301851,18,,-1442795073863698176,0.0,10.330373764038086,,,48201,7.800000190734863,1575420032,1
Agc,1758759911000,55136301851,18,,-1442795073863698176,0.0,10.330373764038086,,,48201,7.800000190734863,1575420032,1
Agc,1758759911000,55136301851,18,,-1442795073863698176,0.0,10.330373764038086,,,48201,7.800000190734863,1575420032,1
Agc,1758759911000,55136301851,18,,-1442795073863698176,0.0,10.330373764038086,,,48201,7.800000190734863,1575420032,1
Agc,1758759911000,55136301851,18,,-1442795073863698176,0.0,10.330373764038086,,,48201,7.800000190734863,1599750016,3
Agc,1758759911000,55136301851,18,,-1442795073863698176,0.0,10.330373764038086,,,48201,7.800000190734863,1575420032,6
Agc,1758759911000,55136301851,18,,-1442795073863698176,0.0,10.330373764038086,,,48201,7.800000190734863,1575420032,6
Agc,1758759911000,55136301851,18,,-1442795073863698176,0.0,10.330373764038086,,,48201,7.800000190734863,1604812544,3
Agc,1758759911000,55136301851,18,,-1442795073863698176,0.0,10.330373764038086,,,48201,7.800000190734863,1601437440,3
Agc,1758759911000,55136301851,18,,-1442795073863698176,0.0,10.330373764038086,,,48201,7.800000190734863,1605374976,3
Agc,1758759911000,55136301851,18,,-1442795073863698176,0.0,10.330373764038086,,,48201,7.800000190734863,1600875008,3
Agc,1758759911000,55136301851,18,,-1442795073863698176,0.0,10.330373764038086,,,48201,7.800000190734863,1598062464,3
Agc,1758759911000,55136301851,18,,-1442795073863698176,0.0,10.330373764038086,,,48201,7.800000190734863,1575420032,6
Agc,1758759911000,55136301851,18,,-1442795073863698176,0.0,10.330373764038086,,,48201,7.800000190734863,1575420032,6
Agc,1758759911000,55136301851,18,,-1442795073863698176,0.0,10.330373764038086,,,48201,7.800000190734863,1575420032,6
Agc,1758759911000,55136301851,18,,-1442795073863698176,0.0,10.330373764038086,,,48201,7.800000190734863,1575420032,6
Agc,1758759911000,55136301851,18,,-1442795073863698176,0.0,10.330373764038086,,,48201,7.800000190734863,1600312448,3
Agc,1758759911000,55136301851,18,,-1442795073863698176,0.0,10.330373764038086,,,48201,7.800000190734863,1575420032,6
Agc,1758759911000,55136301851,18,,-1442795073863698176,0.0,10.330373764038086,,,48201,7.800000190734863,1603687552,3
Agc,1758759911000,55136301851,18,,-1442795073863698176,0.0,10.330373764038086,,,48201,7.800000190734863,1604249984,3
Fix,GPS,40.0364005566,-105.2818519995,1644.0,0.0,0.5102041,,1758759912000,0.02,,3586718053286281,1.0,0,,,
Fix,FLP,40.0364006000,-105.2818520000,1642.9000244140625,0.0,8.44,,1758759912269,0.02,,3586718053286281,0.9781238,0,,,
Status,1758759912000,25,0,1,9,1575420000,45.70,190.6,67.7,1,0,1,42.2
Status,1758759912000,25,1,1,7,1575420000,37.50,316.4,60.5,1,0,1,34.0
Status,1758759912000,25,2,1,8,1575420000,43.60,111.8,49.9,1,0,1,40.1
Status,1758759912000,25,3,1,27,1575420000,40.80,66.5,37.4,1,0,1,37.3
Status,1758759912000,25,4,1,4,1575420000,42.40,152.5,32.2,1,0,1,38.9
Status,1758759912000,25,5,1,30,1575420000,37.90,294.4,32.1,1,0,1,34.4
Status,1758759912000,25,6,1,16,1575420000,39.30,49.6,20.2,1,0,1,35.8
Status,1758759912000,25,7,1,21,1575420000,42.40,296.8,18.8,1,0,1,38.9
Status,1758759912000,25,8,1,14,1575420000,41.90,235.4,13.1,1,0,1,38.4
Status,1758759912000,25,9,3,3,1604812500,42.10,278.7,63.5,1,0,1,38.6
Status,1758759912000,25,10,3,13,1600875000,38.40,336.0,63.4,1,0,1,34.9
Status,1758759912000,25,11,3,2,1599750000,47.00,182.2,35.9,1,0,1,43.5
Status,1758759912000,25,12,3,12,1601437400,41.70,43.1,33.3,1,0,1,38.2
Status,1758759912000,25,13,3,14,1598062500,37.90,261.6,24.6,1,0,1,34.4
Status,1758759912000,25,14,3,4,1605375000,39.40,328.4,23.9,1,0,1,35.9
Status,1758759912000,25,15,3,22,1600312400,32.20,76.8,15.7,0,0,1,28.7
Status,1758759912000,25,16,3,21,1604250000,30.00,21.4,7.3,0,0,1,26.5
Status,1758759912000,25,17,3,23,1603687600,29.10,117.5,7.2,0,1,0,25.6
Status,1758759912000,25,18,6,23,1575420000,42.40,230.6,73.7,1,0,1,38.9
Status,1758759912000,25,19,6,4,1575420000,32.90,302.6,62.3,1,0,1,29.4
Status,1758759912000,25,20,6,19,1575420000,33.40,150.9,54.1,1,0,1,29.9
Status,1758759912000,25,21,6,21,1575420000,32.70,48.1,49.6,0,0,1,29.2
Status,1758759912000,25,22,6,6,1575420000,38.40,311.9,35.9,1,0,1,34.9
Status,1758759912000,25,23,6,31,1575420000,44.30,228.8,21.5,1,0,1,40.8
Status,1758759912000,25,24,6,29,1575420000,29.00,141.7,8.4,1,0,1,25.5
Raw,1758759912000,56136302767,18,,-1442795073863697152,0.0,10.330373764038086,,,48201,9,0.0,16399,347129932442764,10,45.70000076293945,543.1766967773438,0.056153275072574615,25,19946.13086798267,0.03970598056912422,1575420000,,,,0,,1,7.800000190734863,42.20000076293945,0.46566128730773926,,0.46566128730773926,,C,3586718053286281,0,-7775413.765810558,-23089551.970292993,10384132.049726373,219.6865141352696,-1341.52672120147,-2797.945725469309,223316.29684589035,0.001178967475425452,0.000000027939677238464355,0.000000022351741790771484,-0.00000011920928955078125,-0.00000011920928955078125,135168.0,0.0,-196608.0,262144.0
Raw,1758759912000,56136302767,18,,-1442795073863697152,0.0,10.330373764038086,,,48201,8,0.0,16399,347129930254814,10,43.599998474121094,73.48311614990234,0.06218867376446724,25,-3929.011676079943,0.04397360980510712,1575420000,,,,0,,1,7.800000190734863,40.099998474121094,4.656612873077393,,4.656612873077393,,C,3586718053286281,0,6751611.379235157,-23046056.55406889,10662991.183954112,383.52993374272233,1381.7545813964643,2749.582472636717,159022.87062009118,-0.001424681831849739,0.000000027939677238464355,0.000000022351741790771484,-0.00000011920928955078125,-0.00000011920928955078125,135168.0,0.0,-196608.0,262144.0
Raw,1758759912000,56136302767,18,,-1442795073863697152,0.0,10.330373764038086,,,48201,21,0.0,16399,347129920799126,10,42.400001525878906,273.28143310546875,0.06608467549085617,25,2525.2447864623164,0.0467284731566906,1575420000,,,,0,,1,7.800000190734863,38.900001525878906,-9.313225746154785,,-9.313225746154785,,C,3586718053286281,0,-20547562.005628936,1200786.2521098815,16789347.95557006,-1725.8525409063927,-1264.334515278852,-2021.0465658396604,76268.21912495416,0.0056287716288352385,0.000000027939677238464355,0.000000022351741790771484,-0.00000011920928955078125,-0.00000011920928955078125,135168.0,0.0,-196608.0,262144.0
Raw,1758759912000,56136302767,18,,-1442795073863697152,0.0,10.330373764038086,,,48201,14,0.0,16399,347129918978898,10,41.900001525878906,-325.0649719238281,0.0678168386220932,25,-28858.815234235255,0.0479532852768898,1575420000,,,,0,,1,7.800000190734863,38.400001525878906,-7.916241884231567,,-7.916241884231567,,C,3586718053286281,0,-23673805.31111905,-12072854.786906764,-2629234.9049974256,-130.80026090298975,-443.03578901053555,3094.917637888086,209536.44314345074,0.0016647142183501273,0.000000027939677238464355,0.000000022351741790771484,-0.00000011920928955078125,-0.00000011920928955078125,135168.0,0.0,-196608.0,262144.0
Raw,1758759912000,56136302767,18,,-1442795073863697152,0.0,10.330373764038086,,,48201,4,0.0,16399,347129924893797,10,42.400001525878906,898.653076171875,0.06608467549085617,25,40213.20098953426,0.0467284731566906,1575420000,,,,0,,1,7.800000190734863,38.900001525878906,-4.656612873077393,,-4.656612873077393,,C,3586718053286281,0,1887280.6277321652,-26371734.913196035,-1224721.021459854,264.9655497800976,169.30879269516288,-3198.64550576506,3051.758603931434,0.0006741370430063398,0.000000027939677238464355,0.000000022351741790771484,-0.00000011920928955078125,-0.00000011920928955078125,135168.0,0.0,-196608.0,262144.0
Raw,1758759912000,56136302767,18,,-1442795073863697152,0.0,10.330373764038086,,,48201,27,0.0,16399,347129927091096,10,40.79999923706055,476.4239196777344,0.07187574356794357,25,18667.615814621444,0.05082333832979202,1575420000,,,,0,,1,7.800000190734863,37.29999923706055,1.862645149230957,,1.862645149230957,,C,3586718053286281,0,12561630.83959812,-14371704.829860756,17952217.095069196,223.46800157806652,2362.762553418745,1746.042291816599,-7797.622550594444,-0.001703231220744783,0.000000027939677238464355,0.000000022351741790771484,-0.00000011920928955078125,-0.00000011920928955078125,135168.0,0.0,-196608.0,262144.0
Raw,1758759912000,56136302767,18,,-1442795073863697152,0.0,10.330373764038086,,,48201,16,0.0,16399,347129921745270,10,39.29999923706055,948.1077270507812,0.07802503556013107,25,45170.5789021843,0.05517150089144707,1575420000,,,,0,,1,7.800000190734863,35.79999923706055,-10.710209608078003,,-10.710209608078003,,C,3586718053286281,0,15735191.68171257,-6255625.7460432295,20198853.074188836,2108.070949450075,1587.4067713302904,-1087.344770913898,33274.10860516198,0.001722365319437813,0.000000027939677238464355,0.000000022351741790771484,-0.00000011920928955078125,-0.00000011920928955078125,135168.0,0.0,-196608.0,262144.0
Raw,1758759912000,56136302767,18,,-1442795073863697152,0.0,10.330373764038086,,,48201,30,0.0,16399,347129923853625,11,37.900001525878906,-200.2579803466797,0.08450513333082199,25,-20087.922768601646,0.059753578156232834,1575420000,,,,0,,1,7.800000190734863,34.400001525878906,4.190951585769653,,4.190951585769653,,C,3586718053286281,0,-19331796.074059308,-4104344.742290565,18041396.38518513,1858.3248403277223,-1287.4488505909749,1689.3008809852602,-7606.29235213699,0.004086894658939855,0.000000027939677238464355,0.000000022351741790771484,-0.00000011920928955078125,-0.00000011920928955078125,135168.0,0.0,-196608.0,262144.0
Raw,1758759912000,56136302767,18,,-1442795073863697152,0.0,10.330373764038086,,,48201,7,0.0,16399,347129928776193,11,37.5,13.576550483703613,0.08650518953800201,25,-9633.261150553823,0.061167821288108826,1575420000,,,,0,,1,7.800000190734863,34.0,-10.710209608078003,,-10.710209608078003,,C,3586718053286281,0,-10668880.8408494,-11859598.22128565,21855987.093853693,2280.719482739573,-1326.3029952064214,362.7515611829318,-24310.96922783026,0.00007101984738255851,0.000000027939677238464355,0.000000022351741790771484,-0.00000011920928955078125,-0.00000011920928955078125,135168.0,0.0,-196608.0,262144.0
Raw,1758759912000,56136302767,18,,-1442795073863697152,0.0,10.330373764038086,,,48201,2,0.0,32995,12311929305074,10,47.0,992.6976318359375,0.05284713953733444,25,-87192.71897547087,0.03736821189522743,1599750000,,,,0,,3,7.800000190734863,43.5,5.550682544708255,,5.550682544708255,,C,3586718053286281,0,-7352342.591895883,-24359927.974646796,-1049413.2291592713,-143.67292891644274,203.50638981308379,-3591.8711128273135,-6905.2605622038245,0.0,0.000000027939677238464355,0.000000022351741790771484,-0.00000011920928955078125,-0.00000011920928955078125,135168.0,0.0,-196608.0,262144.0
Raw,1758759912000,56136302767,18,,-1442795073863697152,0.0,10.330373764038086,,,48201,31,0.0,19464,347129911021258,10,44.29999923706055,-213.24851989746094,0.06007305160164833,25,-26093.526635583803,0.04247765615582466,1575420000,,,,0,,6,7.800000190734863,40.79999923706055,2.499532136823824,,2.499532136823824,,C,3586718053286281,0,-24026243.86501668,-17152646.71749849,-2126500.577387657,-206.35931072972807,-84.71931391352504,3000.874108552586,-26831.882785257134,-0.0006533235355163924,0.000000027939677238464355,0.000000022351741790771484,-0.00000011920928955078125,-0.00000011920928955078125,135168.0,0.0,-196608.0,262144.0
Raw,1758759912000,56136302767,18,,-1442795073863697152,0.0,10.330373764038086,,,48201,23,0.0,19464,347129921844767,10,42.400001525878906,129.0537109375,0.06608467549085617,25,-4979.857713770901,0.0467284731566906,1575420000,,,,0,,6,7.800000190734863,38.900001525878906,-0.06160494336874178,,-0.06160494336874178,,C,3586718053286281,0,-11402111.04663496,-22558299.451607805,15408874.187038304,1181.6410262188888,997.3984453871694,2333.8196970317736,-3267.692882908315,-0.00031329113471656456,0.000000027939677238464355,0.000000022351741790771484,-0.00000011920928955078125,-0.00000011920928955078125,135168.0,0.0,-196608.0,262144.0
Raw,1758759912000,56136302767,18,,-1442795073863697152,0.0,10.330373764038086,,,48201,3,0.0,32995,12311934597827,10,42.099998474121094,230.6930389404297,0.0671159029006958,25,642008.4854189748,0.047457654029130936,1604812500,,,,0,,3,7.800000190734863,38.599998474121094,5.550682544708255,,5.550682544708255,,C,3586718053286281,0,-12948124.74302384,-14618941.031820664,16411690.200479258,-842.4851612340484,-2082.8316851772443,-2532.2195671503746,39046.04880733788,0.0,0.000000027939677238464355,0.000000022351741790771484,-0.00000011920928955078125,-0.00000011920928955078125,135168.0,0.0,-196608.0,262144.0
Raw,1758759912000,56136302767,18,,-1442795073863697152,0.0,10.330373764038086,,,48201,12,0.0,32995,12311928399538,10,41.70000076293945,786.3541870117188,0.06852881610393524,25,28958.088689593107,0.04845672473311424,1601437400,,,,0,,3,7.800000190734863,38.20000076293945,5.550682544708255,,5.550682544708255,,C,3586718053286281,0,10406096.448749408,-8545828.64664355,21691674.49191945,2916.590840181256,522.3081265133491,-1193.948692813016,17859.41769166533,0.0002726596521824831,0.000000027939677238464355,0.000000022351741790771484,-0.00000011920928955078125,-0.00000011920928955078125,135168.0,0.0,-196608.0,262144.0
Raw,1758759912000,56136302767,18,,-1442795073863697152,0.0,10.330373764038086,,,48201,4,0.0,32995,12311925993843,10,39.400001525878906,-397.83599853515625,0.0775909498333931,25,649575.2337446244,0.054864559322595596,1605375000,,,,0,,3,7.800000190734863,35.900001525878906,5.550682544708255,,5.550682544708255,,C,3586718053286281,0,-10458919.13173735,2162905.0068976344,23186381.645363703,-978.2873459918924,-3016.7040557627142,-162.09067119335833,93774.89943704239,0.0008179789565474493,0.000000027939677238464355,0.000000022351741790771484,-0.00000011920928955078125,-0.00000011920928955078125,135168.0,0.0,-196608.0,262144.0
Raw,1758759912000,56136302767,18,,-1442795073863697152,0.0,10.330373764038086,,,48201,13,0.0,32995,12311934411413,11,38.400001525878906,340.9846496582031,0.08210112154483795,25,-38864.06904971262,0.05805370211601257,1600875000,,,,0,,3,7.800000190734863,34.900001525878906,5.550682544708255,,5.550682544708255,,C,3586718053286281,0,-6910888.4864165615,-11792484.70406899,21524758.39866719,2891.0674080853687,586.7034726054338,1249.3894287149653,-18839.534275241196,0.0,0.000000027939677238464355,0.000000022351741790771484,-0.00000011920928955078125,-0.00000011920928955078125,135168.0,0.0,-196608.0,262144.0
Raw,1758759912000,56136302767,18,,-1442795073863697152,0.0,10.330373764038086,,,48201,14,0.0,32995,12311925984643,11,37.900001525878906,-215.5427703857422,0.08450513333082199,25,-282849.0602865792,0.059753578156232834,1598062500,,,,0,,3,7.800000190734863,34.400001525878906,5.550682544708255,,5.550682544708255,,C,3586718053286281,0,,,,,,,,,0.000000027939677238464355,0.000000022351741790771484,-0.00000011920928955078125,-0.00000011920928955078125,135168.0,0.0,-196608.0,262144.0
Raw,1758759912000,56136302767,18,,-1442795073863697152,0.0,10.330373764038086,,,48201,6,0.0,19464,347129915146172,11,38.400001525878906,-145.9993438720703,0.08210112154483795,25,-20524.190877368404,0.05805370211601257,1575420000,,,,0,,6,7.800000190734863,34.900001525878906,1.8010402058622152,,1.8010402058622152,,C,3586718053286281,0,-16703677.292354286,-3240112.2469807393,24199290.24694611,341.8622595610332,-2406.861945249993,-86.5207042575375,-51672.48847006847,-0.001505890213593375,0.000000027939677238464355,0.000000022351741790771484,-0.00000011920928955078125,-0.00000011920928955078125,135168.0,0.0,-196608.0,262144.0
Raw,1758759912000,56136302767,18,,-1442795073863697152,0.0,10.330373764038086,,,48201,19,0.0,19464,347129921558836,14,33.400001525878906,619.1435546875,0.11185558140277863,25,22672.542166721112,0.0790930837392807,1575420000,,,,0,,6,7.800000190734863,29.899999618530273,-5.649540391061613,,-5.649540391061613,,C,3586718053286281,0,-695343.3703527334,-28712081.790070362,7168096.686860221,23.77133565566602,-723.6342760326859,-2895.2028086514315,682539.7952616493,0.01220038637984544,0.000000027939677238464355,0.000000022351741790771484,-0.00000011920928955078125,-0.00000011920928955078125,135168.0,0.0,-196608.0,262144.0
Raw,1758759912000,56136302767,18,,-1442795073863697152,0.0,10.330373764038086,,,48201,4,0.0,19464,347129920236411,14,32.900001525878906,61.55897521972656,0.11569254100322723,17,-8881.081296552089,0.1769530326128006,1575420000,,,,0,,6,7.800000190734863,29.399999618530273,-6.115201678369353,,-6.115201678369353,,C,3586718053286281,0,-13505245.21230099,-14191587.153505692,22188397.939395394,283.02148723672667,-2207.979934820425,-1239.2458441780332,-104732.73739497147,-0.0031247744482243434,0.000000027939677238464355,0.000000022351741790771484,-0.00000011920928955078125,-0.00000011920928955078125,135168.0,0.0,-196608.0,262144.0
Raw,1758759912000,56136302767,18,,-1442795073863697152,0.0,10.330373764038086,,,48201,21,0.0,19456,347129917686599,15,32.70000076293945,611.3678588867188,0.11728279292583466,17,18632.903865966946,0.17807748913764954,1575420000,,,,0,,6,7.800000190734863,29.200000762939453,-0.7600968743303507,,-0.7600968743303507,,C,3586718053286281,0,8134029.723421585,-15021340.976554228,24177137.059351966,1895.7537349948195,1510.5542482566866,300.8852684394041,-207391.57265539904,-0.0006733849877491593,0.000000027939677238464355,0.000000022351741790771484,-0.00000011920928955078125,-0.00000011920928955078125,135168.0,0.0,-196608.0,262144.0
Raw,1758759912000,56136302767,18,,-1442795073863697152,0.0,10.330373764038086,,,48201,29,0.0,19456,347129906546900,18,29.0,828.1360473632812,0.15378700196743011,17,-785187.311980794,0.2038896232843399,1575420000,,,,0,,6,7.800000190734863,25.5,-6.580862965677092,,-6.580862965677092,,C,3586718053286281,0,10719162.97601781,-25738248.39451349,-9939928.653607445,-185.2841802718472,979.3738436522956,-2739.3676962257746,-40578.731547147814,-0.001044792661559768,0.000000027939677238464355,0.000000022351741790771484,-0.00000011920928955078125,-0.00000011920928955078125,135168.0,0.0,-196608.0,262144.0
Raw,1758759912000,56136302767,18,,-1442795073863697152,0.0,10.330373764038086,,,48201,22,0.0,32995,12311923196132,15,32.20000076293945,-110.27342224121094,0.12140488624572754,16,-105651.44546243083,0.17951224744319916,1600312400,,,,0,,3,7.800000190734863,28.700000762939453,5.550682544708255,,5.550682544708255,,C,3586718053286281,0,19149314.546834033,-11899926.8775297,11959645.876643812,-1219.5464086928514,1093.1429975987548,3047.7970500799815,26115.910757461854,0.0005453193043649662,0.000000027939677238464355,0.000000022351741790771484,-0.00000011920928955078125,-0.00000011920928955078125,135168.0,0.0,-196608.0,262144.0
Raw,1758759912000,56136302767,18,,-1442795073863697152,0.0,10.330373764038086,,,48201,23,0.0,51,85557,18,29.100000381469727,-416.16680908203125,0.1525878757238388,16,3616143.1048110765,0.20136460661888123,1603687600,,,,0,,3,7.800000190734863,25.600000381469727,5.550682544708255,,5.550682544708255,,C,3586718053286281,0,,,,,,,,,0.000000027939677238464355,0.000000022351741790771484,-0.00000011920928955078125,-0.00000011920928955078125,135168.0,0.0,-196608.0,262144.0
Raw,1758759912000,56136302767,18,,-1442795073863697152,0.0,10.330373764038086,,,48201,21,0.0,32867,12311919967536,17,30.0,520.5686645507812,0.14239943027496338,16,617082.1802679936,0.19412758946418762,1604250000,,,,0,,3,7.800000190734863,26.5,5.550682544708255,,5.550682544708255,,C,3586718053286281,0,10196684.352876708,4432147.949739402,22964990.3002049,-2142.003699575125,2303.7778343834443,502.97827118993223,-71945.26269140354,-0.0010906386087299325,0.000000027939677238464355,0.000000022351741790771484,-0.00000011920928955078125,-0.00000011920928955078125,135168.0,0.0,-196608.0,262144.0
Agc,1758759912000,56136302767,18,,-1442795073863697152,0.0,10.330373764038086,,,48201,7.800000190734863,1575420032,1
