# 
# Header Description:
# 
# Version: v3.1.1.1 Platform: 16 Manufacturer: Google Model: Pixel 8a GNSS Hardware Model Name: S.LSI,K041,SPOTNAV_4.15.4_3_250220_R2_258342
# 
# Raw,utcTimeMillis,TimeNanos,LeapSecond,TimeUncertaintyNanos,FullBiasNanos,BiasNanos,BiasUncertaintyNanos,DriftNanosPerSecond,DriftUncertaintyNanosPerSecond,HardwareClockDiscontinuityCount,Svid,TimeOffsetNanos,State,ReceivedSvTimeNanos,ReceivedSvTimeUncertaintyNanos,Cn0DbHz,PseudorangeRateMetersPerSecond,PseudorangeRateUncertaintyMetersPerSecond,AccumulatedDeltaRangeState,AccumulatedDeltaRangeMeters,AccumulatedDeltaRangeUncertaintyMeters,CarrierFrequencyHz,CarrierCycles,CarrierPhase,CarrierPhaseUncertainty,MultipathIndicator,SnrInDb,ConstellationType,AgcDb,BasebandCn0DbHz,FullInterSignalBiasNanos,FullInterSignalBiasUncertaintyNanos,SatelliteInterSignalBiasNanos,SatelliteInterSignalBiasUncertaintyNanos,CodeType,ChipsetElapsedRealtimeNanos,IsFullTracking,SvPositionEcefXMeters,SvPositionEcefYMeters,SvPositionEcefZMeters,SvVelocityEcefXMetersPerSecond,SvVelocityEcefYMetersPerSecond,SvVelocityEcefZMetersPerSecond,SvClockBiasMeters,SvClockDriftMetersPerSecond,KlobucharAlpha0,KlobucharAlpha1,KlobucharAlpha2,KlobucharAlpha3,KlobucharBeta0,KlobucharBeta1,KlobucharBeta2,KlobucharBeta3
# 
# UncalAccel,utcTimeMillis,elapsedRealtimeNanos,UncalAccelXMps2,UncalAccelYMps2,UncalAccelZMps2,BiasXMps2,BiasYMps2,BiasZMps2,CalibrationAccuracy
# 
# Accel,utcTimeMillis,elapsedRealtimeNanos,AccelXMps2,AccelYMps2,AccelZMps2,CalibrationAccuracy
# 
# UncalGyro,utcTimeMillis,elapsedRealtimeNanos,UncalGyroXRadPerSec,UncalGyroYRadPerSec,UncalGyroZRadPerSec,DriftXRadPerSec,DriftYRadPerSec,DriftZRadPerSec,CalibrationAccuracy
# 
# Gyro,utcTimeMillis,elapsedRealtimeNanos,GyroXRadPerSec,GyroYRadPerSec,GyroZRadPerSec,CalibrationAccuracy
# 
# UncalMag,utcTimeMillis,elapsedRealtimeNanos,UncalMagXMicroT,UncalMagYMicroT,UncalMagZMicroT,BiasXMicroT,BiasYMicroT,BiasZMicroT,CalibrationAccuracy
# 
# Mag,utcTimeMillis,elapsedRealtimeNanos,MagXMicroT,MagYMicroT,MagZMicroT,CalibrationAccuracy
# 
# Pressure,utcTimeMillis,elapsedRealtimeNanos,PressureHpa,CalibrationAccuracy
# 
# OrientationDeg,utcTimeMillis,elapsedRealtimeNanos,yawDeg,rollDeg,pitchDeg,CalibrationAccuracy
# 
# Fix,Provider,LatitudeDegrees,LongitudeDegrees,AltitudeMeters,SpeedMps,AccuracyMeters,BearingDegrees,UnixTimeMillis,SpeedAccuracyMps,BearingAccuracyDegrees,elapsedRealtimeNanos,VerticalAccuracyMeters,MockLocation,NumberOfUsedSignals,VerticalSpeedAccuracyMps,SolutionType
# 
# Nav,Svid,Type,Status,MessageId,Sub-messageId,Data(Bytes)
# 
# Status,UnixTimeMillis,SignalCount,SignalIndex,ConstellationType,Svid,CarrierFrequencyHz,Cn0DbHz,AzimuthDegrees,ElevationDegrees,UsedInFix,HasAlmanacData,HasEphemerisData,BasebandCn0DbHz
# 
# Agc,utcTimeMillis,TimeNanos,LeapSecond,TimeUncertaintyNanos,FullBiasNanos,BiasNanos,BiasUncertaintyNanos,DriftNanosPerSecond,DriftUncertaintyNanosPerSecond,HardwareClockDiscontinuityCount,AgcDb,CarrierFrequencyHz,ConstellationType
# 
Fix,FLP,40.1410545000,-105.1312600000,1510.9872087054573,0.0,2.456,,1758239183249,0.01,,3065978805301882,0.6257002,0,,,
Fix,GPS,40.1410544850,-105.1312597934,1515.0,0.0,0.5102041,,1758239184000,0.01,,3065979805301476,1.0,0,,,
Fix,FLP,40.1410545000,-105.1312598000,1510.5849790117597,0.0,2.456,,1758239184249,0.01,,3065979805301476,0.628728,0,,,
Status,1758239184000,24,0,1,9,1575420000,46.80,301.2,73.1,1,0,1,43.3
Status,1758239184000,24,1,1,4,1575420000,37.10,136.1,62.4,1,0,1,33.6
Status,1758239184000,24,2,1,16,1575420000,42.30,51.4,47.3,1,0,1,38.8
Status,1758239184000,24,3,1,7,1575420000,44.30,287.3,40.5,1,0,1,40.8
Status,1758239184000,24,4,1,27,1575420000,44.60,104.4,34.9,1,0,1,41.1
Status,1758239184000,24,5,1,8,1575420000,37.20,142.8,28.6,1,0,1,33.7
Status,1758239184000,24,6,1,30,1575420000,33.20,275.8,11.6,0,0,1,29.7
Status,1758239184000,24,7,1,21,1575420000,37.30,321.6,10.7,1,0,1,33.8
Status,1758239184000,24,8,1,26,1575420000,40.70,49.5,10.7,0,0,1,37.2
Status,1758239184000,24,9,1,3,1575420000,29.00,189.5,9.9,0,0,1,25.5
Status,1758239184000,24,10,3,4,1605375000,33.10,184.1,74.0,1,0,1,29.6
Status,1758239184000,24,11,3,14,1598062500,48.10,15.6,61.0,1,0,1,44.6
Status,1758239184000,24,12,3,15,1602000000,39.00,256.4,51.5,1,0,1,35.5
Status,1758239184000,24,13,3,5,1602562600,45.10,323.1,47.6,1,0,1,41.6
Status,1758239184000,24,14,3,3,1604812500,36.90,158.5,24.0,1,0,1,33.4
Status,1758239184000,24,15,3,13,1600875000,36.60,46.3,7.7,0,0,1,33.1
Status,1758239184000,24,16,3,23,1603687600,38.90,48.4,6.2,0,0,1,35.4
Status,1758239184000,24,17,6,27,1575420000,37.30,185.5,70.9,1,0,1,33.8
Status,1758239184000,24,18,6,29,1575420000,34.30,313.0,63.2,1,0,1,30.8
Status,1758239184000,24,19,6,7,1575420000,48.00,126.1,58.7,1,0,1,44.5
Status,1758239184000,24,20,6,30,1575420000,41.00,52.8,49.4,1,0,1,37.5
Status,1758239184000,24,21,6,21,1575420000,36.50,213.9,19.6,1,0,1,33.0
Status,1758239184000,24,22,6,19,1575420000,36.60,310.8,15.8,1,0,1,33.1
Status,1758239184000,24,23,6,8,1575420000,29.40,129.1,7.8,0,0,1,25.9
Raw,1758239184000,21261100128,18,,-1442274380738899968,0.0,10.220216751098633,,,48107,9,0.0,16399,431201933009652,10,46.79999923706055,-308.7216796875,0.05333646386861801,25,-28393.040806626144,0.037714213132858276,1575420000,,,,0,,1,7.800000190734863,43.29999923706055,0.46566128730773926,,0.46566128730773926,,C,3065979805301476,0,-9493562.596158445,-15878736.478247533,18927839.729059182,746.9838515890137,-2313.5609629445216,-1564.6983436545734,222543.74049648212,0.0011836893972940743,0.000000020489096641540527,0.000000014901161193847656,-0.00000011920928955078125,-0.00000011920928955078125,124928.0,16384.0,-262144.0,262144.0
Raw,1758239184000,21261100128,18,,-1442274380738899968,0.0,10.220216751098633,,,48107,27,0.0,16399,431201926432630,10,44.599998474121094,-439.0193176269531,0.05919927731156349,25,-31013.026747999247,0.041859809309244156,1575420000,,,,0,,1,7.800000190734863,41.099998474121094,1.862645149230957,,1.862645149230957,,C,3065979805301476,0,12337320.97760225,-21394179.20353625,8842837.02727505,-6.370881591531429,1224.9522032858229,2907.8690550259007,-7628.2864375307,-0.0015257573531926027,0.000000020489096641540527,0.000000014901161193847656,-0.00000011920928955078125,-0.00000011920928955078125,124928.0,16384.0,-262144.0,262144.0
Raw,1758239184000,21261100128,18,,-1442274380738899968,0.0,10.220216751098633,,,48107,7,0.0,16399,431201924889394,10,44.29999923706055,-484.881103515625,0.06007305160164833,25,-29011.31694453041,0.04247765615582466,1575420000,,,,0,,1,7.800000190734863,40.79999923706055,-10.710209608078003,,-10.710209608078003,,C,3065979805301476,0,-19046132.243195415,-8095063.951482967,17460306.4318602,1993.9379018204081,-649.5892819781473,1897.6986981359087,-23382.677076210966,0.00010224525249213912,0.000000020489096641540527,0.000000014901161193847656,-0.00000011920928955078125,-0.00000011920928955078125,124928.0,16384.0,-262144.0,262144.0
Raw,1758239184000,21261100128,18,,-1442274380738899968,0.0,10.220216751098633,,,48107,16,0.0,16399,431201929446073,10,42.29999923706055,335.4996643066406,0.06642576307058334,25,-12503.491328407894,0.04696965590119362,1575420000,,,,0,,1,7.800000190734863,38.79999923706055,-10.710209608078003,,-10.710209608078003,,C,3065979805301476,0,7978506.258758418,-13538890.612768501,20980184.551629487,1803.1325192251315,2089.42039631074,694.0454793347877,31983.348960114257,0.0011668361548800021,0.000000020489096641540527,0.000000014901161193847656,-0.00000011920928955078125,-0.00000011920928955078125,124928.0,16384.0,-262144.0,262144.0
Raw,1758239184000,21261100128,18,,-1442274380738899968,0.0,10.220216751098633,,,48107,26,0.0,16399,431201917693072,10,40.70000076293945,553.616943359375,0.07226268202066422,25,-6228.355475399084,0.05109694227576256,1575420000,,,,0,,1,7.800000190734863,37.20000076293945,6.51925802230835,,6.51925802230835,,C,3065979805301476,0,18216043.090842173,-3086693.9882285427,19004907.609863374,1764.354117060548,1716.1432975273128,-1357.263433129449,-78846.46275688607,-0.0007845523214200512,0.000000020489096641540527,0.000000014901161193847656,-0.00000011920928955078125,-0.00000011920928955078125,124928.0,16384.0,-262144.0,262144.0
Raw,1758239184000,21261100128,18,,-1442274380738899968,0.0,10.220216751098633,,,48107,21,0.0,16399,431201918089955,11,37.29999923706055,-548.224609375,0.08753195405006409,25,-33186.26737149857,0.06189384311437607,1575420000,,,,0,,1,7.800000190734863,33.79999923706055,-9.313225746154785,,-9.313225746154785,,C,3065979805301476,0,-13519342.881810203,7586662.225313079,21565312.784518465,-1829.3841951367197,-2038.5033379247895,-429.1512306835668,73280.99272337748,0.005859372191480361,0.000000020489096641540527,0.000000014901161193847656,-0.00000011920928955078125,-0.00000011920928955078125,124928.0,16384.0,-262144.0,262144.0
Raw,1758239184000,21261100128,18,,-1442274380738899968,0.0,10.220216751098633,,,48107,4,0.0,16399,431201931038999,12,37.099998474121094,173.81430053710938,0.08857710659503937,25,-15741.866830101062,0.06263287365436554,1575420000,,,,0,,1,7.800000190734863,33.599998474121094,-4.656612873077393,,-4.656612873077393,,C,3065979805301476,0,310228.43667748757,-24281851.189688124,10581113.492067117,644.3310433120967,-1204.115811949051,-2803.5724810051397,2511.277266754553,0.0007893194506323198,0.000000020489096641540527,0.000000014901161193847656,-0.00000011920928955078125,-0.00000011920928955078125,124928.0,16384.0,-262144.0,262144.0
Raw,1758239184000,21261100128,18,,-1442274380738899968,0.0,10.220216751098633,,,48107,8,0.0,16399,431201925041326,11,37.20000076293945,-712.83984375,0.0880521908402443,25,-33609.11105376546,0.06226170435547829,1575420000,,,,0,,1,7.800000190734863,33.70000076293945,4.656612873077393,,4.656612873077393,,C,3065979805301476,0,5477890.17236968,-25716753.445627876,-956527.2432790684,384.3673625770409,-15.30692274278907,3168.39250385049,159182.97339001077,-0.001219781639520079,0.000000020489096641540527,0.000000014901161193847656,-0.00000011920928955078125,-0.00000011920928955078125,124928.0,16384.0,-262144.0,262144.0
Raw,1758239184000,21261100128,18,,-1442274380738899968,0.0,10.220216751098633,,,48107,3,0.0,16399,431201917817585,18,29.0,573.4153442382812,0.15378700196743011,16,-16361.595650088915,0.2038896232843399,1575420000,,,,0,,1,7.800000190734863,25.5,1.3969838619232178,,1.3969838619232178,,C,3065979805301476,0,-10095896.66637147,-21797447.125218205,-11636934.955957415,1093.7929178615989,947.5622114017169,-2759.503492793875,201948.8932331737,-0.0009390205086674541,0.000000020489096641540527,0.000000014901161193847656,-0.00000011920928955078125,-0.00000011920928955078125,124928.0,16384.0,-262144.0,262144.0
Raw,1758239184000,21261100128,18,,-1442274380738899968,0.0,10.220216751098633,,,48107,30,0.0,16399,431201917525222,14,33.20000076293945,-640.6050415039062,0.11336711049079895,16,-35077.10673731577,0.1753087192773819,1575420000,,,,0,,1,7.800000190734863,29.700000762939453,4.190951585769653,,4.190951585769653,,C,3065979805301476,0,-25094387.447600994,-604632.2871326115,9249798.858258031,1035.7352416494418,-574.3169432842978,2801.204938317659,-9338.19612103433,0.004023739293188555,0.000000020489096641540527,0.000000014901161193847656,-0.00000011920928955078125,-0.00000011920928955078125,124928.0,16384.0,-262144.0,262144.0
Raw,1758239184000,21261100128,18,,-1442274380738899968,0.0,10.220216751098633,,,48107,7,0.0,19456,431201919836285,10,48.0,123.99910736083984,0.05049867555499077,25,-82785.14870909372,0.035707615315914154,1575420000,,,,0,,6,7.800000190734863,44.5,3.2528957305540986,,3.2528957305540986,,C,3065979805301476,0,3110495.9136514086,-27022293.71586352,11687972.511143444,417.07424436154474,-1097.633748516619,-2646.279532321095,-61961.61077348779,-0.0005856989082531072,0.000000020489096641540527,0.000000014901161193847656,-0.00000011920928955078125,-0.00000011920928955078125,124928.0,16384.0,-262144.0,262144.0
Raw,1758239184000,21261100128,18,,-1442274380738899968,0.0,10.220216751098633,,,48107,14,0.0,32867,9983934079548,10,48.099998474121094,191.97756958007812,0.05027247965335846,25,-3095825.862696003,0.03554766997694969,1598062500,,,,0,,3,7.800000190734863,44.599998474121094,13.038516044616697,,13.038516044616697,,C,3065979805301476,0,,,,,,,,,0.000000020489096641540527,0.000000014901161193847656,-0.00000011920928955078125,-0.00000011920928955078125,124928.0,16384.0,-262144.0,262144.0
Raw,1758239184000,21261100128,18,,-1442274380738899968,0.0,10.220216751098633,,,48107,5,0.0,32867,9983931966573,10,45.099998474121094,-647.261962890625,0.05778476968407631,25,1218367.8817332769,0.040859609842300415,1602562600,,,,0,,3,7.800000190734863,41.599998474121094,13.038516044616697,,13.038516044616697,,C,3065979805301476,0,,,,,,,,,0.000000020489096641540527,0.000000014901161193847656,-0.00000011920928955078125,-0.00000011920928955078125,124928.0,16384.0,-262144.0,262144.0
Raw,1758239184000,21261100128,18,,-1442274380738899968,0.0,10.220216751098633,,,48107,30,0.0,19456,431201918168973,10,41.0,176.1975555419922,0.07111111283302307,25,-81912.77493921961,0.05028266832232475,1575420000,,,,0,,6,7.800000190734863,37.5,-0.47239456790781553,,-0.47239456790781553,,C,3065979805301476,0,8866882.294150788,-15756129.873087265,23429507.000233393,1359.4468225973346,1917.9422313703476,776.0228409335583,-62893.260248421095,-0.012377040315186605,0.000000020489096641540527,0.000000014901161193847656,-0.00000011920928955078125,-0.00000011920928955078125,124928.0,16384.0,-262144.0,262144.0
Raw,1758239184000,21261100128,18,,-1442274380738899968,0.0,10.220216751098633,,,48107,15,0.0,32867,9983932608720,11,39.0,-456.8919677734375,0.0793493390083313,25,730838.7638031964,0.05610791593790054,1602000000,,,,0,,3,7.800000190734863,35.5,13.038516044616697,,13.038516044616697,,C,3065979805301476,0,,,,,,,,,0.000000020489096641540527,0.000000014901161193847656,-0.00000011920928955078125,-0.00000011920928955078125,124928.0,16384.0,-262144.0,262144.0
Raw,1758239184000,21261100128,18,,-1442274380738899968,0.0,10.220216751098633,,,48107,23,0.0,32867,9983919676128,11,38.900001525878906,-417.62353515625,0.07979825884103775,25,2202146.6269798907,0.05642534792423248,1603687600,,,,0,,3,7.800000190734863,35.400001525878906,13.038516044616697,,13.038516044616697,,C,3065979805301476,0,,,,,,,,,0.000000020489096641540527,0.000000014901161193847656,-0.00000011920928955078125,-0.00000011920928955078125,124928.0,16384.0,-262144.0,262144.0
Raw,1758239184000,21261100128,18,,-1442274380738899968,0.0,10.220216751098633,,,48107,3,0.0,32867,9983926129637,12,36.900001525878906,634.4569091796875,0.08964107185602188,25,3198636.9131446052,0.06338520348072052,1604812500,,,,0,,3,7.800000190734863,33.400001525878906,13.038516044616697,,13.038516044616697,,C,3065979805301476,0,,,,,,,,,0.000000020489096641540527,0.000000014901161193847656,-0.00000011920928955078125,-0.00000011920928955078125,124928.0,16384.0,-262144.0,262144.0
Raw,1758239184000,21261100128,18,,-1442274380738899968,0.0,10.220216751098633,,,48107,21,0.0,19456,431201909825494,12,36.5,-679.921142578125,0.09182736277580261,25,-96123.31208128293,0.06493113189935684,1575420000,,,,0,,6,7.800000190734863,33.0,-0.47239456790781553,,-0.47239456790781553,,C,3065979805301476,0,-20207365.87558371,-20743254.531115156,-6121802.041179963,-407.7184557944411,-463.59011051676504,2914.562115676743,-207041.57197809752,-0.0006860272260382771,0.000000020489096641540527,0.000000014901161193847656,-0.00000011920928955078125,-0.00000011920928955078125,124928.0,16384.0,-262144.0,262144.0
Raw,1758239184000,21261100128,18,,-1442274380738899968,0.0,10.220216751098633,,,48107,19,0.0,19456,431201911425588,12,36.599998474121094,-635.2250366210938,0.09127336740493774,25,-316866.40122239577,0.06453939527273178,1575420000,,,,0,,6,7.800000190734863,33.099998474121094,-5.129007440985208,,-5.129007440985208,,C,3065979805301476,0,-19019556.3532482,5628848.536704998,21968769.885882482,940.1723034884475,-1994.056677207329,1325.146682925529,676174.1681455537,0.012250913656316698,0.000000020489096641540527,0.000000014901161193847656,-0.00000011920928955078125,-0.00000011920928955078125,124928.0,16384.0,-262144.0,262144.0
Raw,1758239184000,21261100128,18,,-1442274380738899968,0.0,10.220216751098633,,,48107,13,0.0,32867,9983920322565,12,36.599998474121094,556.3740844726562,0.09127336740493774,25,-627273.5061082805,0.06453939527273178,1600875000,,,,0,,3,7.800000190734863,33.099998474121094,13.038516044616697,,13.038516044616697,,C,3065979805301476,0,,,,,,,,,0.000000020489096641540527,0.000000014901161193847656,-0.00000011920928955078125,-0.00000011920928955078125,124928.0,16384.0,-262144.0,262144.0
Raw,1758239184000,21261100128,18,,-1442274380738899968,0.0,10.220216751098633,,,48107,27,0.0,19456,431201920845445,11,37.29999923706055,-333.78521728515625,0.08753195405006409,25,-90384.29013735647,0.06189384311437607,1575420000,,,,0,,6,7.800000190734863,33.79999923706055,0.458928006707663,,0.458928006707663,,C,3065979805301476,0,-7706454.765243063,-25662123.88723956,12574974.23846036,694.833704646705,1053.3256287141285,2577.1314604412305,-232059.284032988,-0.003107525990344584,0.000000020489096641540527,0.000000014901161193847656,-0.00000011920928955078125,-0.00000011920928955078125,124928.0,16384.0,-262144.0,262144.0
Raw,1758239184000,21261100128,18,,-1442274380738899968,0.0,10.220216751098633,,,48107,4,0.0,32867,9983935865500,14,33.099998474121094,97.2076644897461,0.11413440108299255,25,3678811.684579201,0.08070443570613861,1605375000,,,,0,,3,7.800000190734863,29.600000381469727,13.038516044616697,,13.038516044616697,,C,3065979805301476,0,,,,,,,,,0.000000020489096641540527,0.000000014901161193847656,-0.00000011920928955078125,-0.00000011920928955078125,124928.0,16384.0,-262144.0,262144.0
Raw,1758239184000,21261100128,18,,-1442274380738899968,0.0,10.220216751098633,,,48107,8,0.0,19456,431201905892872,18,29.399999618530273,373.05291748046875,0.1490735113620758,16,-78650.44194438498,0.20055672526359558,1575420000,,,,0,,6,7.800000190734863,25.899999618530273,-5.594668728292947,,-5.594668728292947,,C,3065979805301476,0,15828972.876053514,-24068083.672447003,-6853751.119868355,-357.0180179852583,592.2642865887486,-2907.271555759002,-161057.3558680105,-0.001958261156687513,0.000000020489096641540527,0.000000014901161193847656,-0.00000011920928955078125,-0.00000011920928955078125,124928.0,16384.0,-262144.0,262144.0
Raw,1758239184000,21261100128,18,,-1442274380738899968,0.0,10.220216751098633,,,48107,29,0.0,19456,431201920581837,13,34.29999923706055,-375.1675109863281,0.10541407018899918,16,-91048.53685487181,0.16968512535095215,1575420000,,,,0,,6,7.800000190734863,30.799999237060547,-3.7320235790619902,,-3.7320235790619902,,C,3065979805301476,0,-11825860.303827893,-13780034.338899996,23364019.55902897,939.5675082067031,-2148.670418770438,-791.8087641574725,-40036.779506225495,-0.001076479755283799,0.000000020489096641540527,0.000000014901161193847656,-0.00000011920928955078125,-0.00000011920928955078125,124928.0,16384.0,-262144.0,262144.0
Agc,1758239184000,21261100128,18,,-1442274380738899968,0.0,10.220216751098633,,,48107,7.800000190734863,1575420032,1
Agc,1758239184000,21261100128,18,,-1442274380738899968,0.0,10.220216751098633,,,48107,7.800000190734863,1575420032,1
Agc,1758239184000,21261100128,18,,-1442274380738899968,0.0,10.220216751098633,,,48107,7.800000190734863,1575420032,1
Agc,1758239184000,21261100128,18,,-1442274380738899968,0.0,10.220216751098633,,,48107,7.800000190734863,1575420032,1
Agc,1758239184000,21261100128,18,,-1442274380738899968,0.0,10.220216751098633,,,48107,7.800000190734863,1575420032,1
Agc,1758239184000,21261100128,18,,-1442274380738899968,0.0,10.220216751098633,,,48107,7.800000190734863,1575420032,1
Agc,1758239184000,21261100128,18,,-1442274380738899968,0.0,10.220216751098633,,,48107,7.800000190734863,1575420032,1
Agc,1758239184000,21261100128,18,,-1442274380738899968,0.0,10.220216751098633,,,48107,7.800000190734863,1575420032,1
Agc,1758239184000,21261100128,18,,-1442274380738899968,0.0,10.220216751098633,,,48107,7.800000190734863,1575420032,1
Agc,1758239184000,21261100128,18,,-1442274380738899968,0.0,10.220216751098633,,,48107,7.800000190734863,1575420032,1
Agc,1758239184000,21261100128,18,,-1442274380738899968,0.0,10.220216751098633,,,48107,7.800000190734863,1575420032,6
Agc,1758239184000,21261100128,18,,-1442274380738899968,0.0,10.220216751098633,,,48107,7.800000190734863,1598062464,3
Agc,1758239184000,21261100128,18,,-1442274380738899968,0.0,10.220216751098633,,,48107,7.800000190734863,1602562560,3
Agc,1758239184000,21261100128,18,,-1442274380738899968,0.0,10.220216751098633,,,48107,7.800000190734863,1575420032,6
Agc,1758239184000,21261100128,18,,-1442274380738899968,0.0,10.220216751098633,,,48107,7.800000190734863,1602000000,3
Agc,1758239184000,21261100128,18,,-1442274380738899968,0.0,10.220216751098633,,,48107,7.800000190734863,1603687552,3
Agc,1758239184000,21261100128,18,,-1442274380738899968,0.0,10.220216751098633,,,48107,7.800000190734863,1604812544,3
Agc,1758239184000,21261100128,18,,-1442274380738899968,0.0,10.220216751098633,,,48107,7.800000190734863,1575420032,6
Agc,1758239184000,21261100128,18,,-1442274380738899968,0.0,10.220216751098633,,,48107,7.800000190734863,1575420032,6
Agc,1758239184000,21261100128,18,,-1442274380738899968,0.0,10.220216751098633,,,48107,7.800000190734863,1600875008,3
Agc,1758239184000,21261100128,18,,-1442274380738899968,0.0,10.220216751098633,,,48107,7.800000190734863,1575420032,6
Agc,1758239184000,21261100128,18,,-1442274380738899968,0.0,10.220216751098633,,,48107,7.800000190734863,1605374976,3
Agc,1758239184000,21261100128,18,,-1442274380738899968,0.0,10.220216751098633,,,48107,7.800000190734863,1575420032,6
Agc,1758239184000,21261100128,18,,-1442274380738899968,0.0,10.220216751098633,,,48107,7.800000190734863,1575420032,6
Fix,GPS,40.1410544850,-105.1312597934,1515.0,0.0,0.5102041,,1758239185000,0.02,,3065980805301033,1.0,0,,,
Fix,FLP,40.1410545000,-105.1312598000,1509.9883967893436,0.0,2.383,,1758239185249,0.02,,3065980805301033,0.6232611,0,,,
Status,1758239185000,24,0,1,9,1575420000,47.10,301.2,73.1,1,0,1,43.6
Status,1758239185000,24,1,1,4,1575420000,37.30,136.1,62.4,1,0,1,33.8
Status,1758239185000,24,2,1,16,1575420000,42.30,51.4,47.3,1,0,1,38.8
Status,1758239185000,24,3,1,7,1575420000,44.20,287.3,40.5,1,0,1,40.7
Status,1758239185000,24,4,1,27,1575420000,44.70,104.4,34.9,1,0,1,41.2
Status,1758239185000,24,5,1,8,1575420000,37.10,142.8,28.6,1,0,1,33.6
Status,1758239185000,24,6,1,30,1575420000,32.40,275.8,11.6,0,0,1,28.9
Status,1758239185000,24,7,1,21,1575420000,37.40,321.6,10.7,1,0,1,33.9
Status,1758239185000,24,8,1,26,1575420000,40.90,49.5,10.7,0,0,1,37.4
Status,1758239185000,24,9,1,3,1575420000,28.60,189.5,9.9,1,0,1,25.1
Status,1758239185000,24,10,3,4,1605375000,33.20,184.1,74.0,1,0,1,29.7
Status,1758239185000,24,11,3,14,1598062500,48.00,15.6,61.0,1,0,1,44.5
Status,1758239185000,24,12,3,15,1602000000,39.30,256.4,51.5,1,0,1,35.8
Status,1758239185000,24,13,3,5,1602562600,45.50,323.1,47.6,1,0,1,42.0
Status,1758239185000,24,14,3,3,1604812500,37.20,158.5,24.0,1,0,1,33.7
Status,1758239185000,24,15,3,13,1600875000,36.60,46.3,7.7,0,0,1,33.1
Status,1758239185000,24,16,3,23,1603687600,38.80,48.4,6.2,0,0,1,35.3
Status,1758239185000,24,17,6,27,1575420000,37.10,185.5,70.9,1,0,1,33.6
Status,1758239185000,24,18,6,29,1575420000,33.50,313.0,63.2,1,0,1,30.0
Status,1758239185000,24,19,6,7,1575420000,48.10,126.1,58.7,1,0,1,44.6
Status,1758239185000,24,20,6,30,1575420000,41.00,52.8,49.4,1,0,1,37.5
Status,1758239185000,24,21,6,21,1575420000,36.70,213.9,19.6,1,0,1,33.2
Status,1758239185000,24,22,6,19,1575420000,36.60,310.8,15.8,1,0,1,33.1
Status,1758239185000,24,23,6,8,1575420000,29.60,129.1,7.8,0,0,1,26.1
Raw,1758239184999,22261099701,18,,-1442274380738900224,0.0,10.220216751098633,,,48107,9,0.0,16399,431202933010261,10,47.099998474121094,-310.6920166015625,0.052605003118515015,25,-28702.546852614752,0.03719699755311012,1575420000,,,,0,,1,7.800000190734863,43.599998474121094,0.46566128730773926,,0.46566128730773926,,C,3065980805301033,0,-9492815.703767598,-15881049.96663874,18926274.8263015,746.8000219564836,-2313.41299095726,-1565.1052600736753,222543.74168017416,0.0011836931807920337,0.000000020489096641540527,0.000000014901161193847656,-0.00000011920928955078125,-0.00000011920928955078125,124928.0,16384.0,-262144.0,262144.0
Raw,1758239184999,22261099701,18,,-1442274380738900224,0.0,10.220216751098633,,,48107,27,0.0,16399,431202926433668,10,44.70000076293945,-440.9801330566406,0.058912243694067,25,-31452.923408857372,0.041656848043203354,1575420000,,,,0,,1,7.800000190734863,41.20000076293945,1.862645149230957,,1.862645149230957,,C,3065980805301033,0,12337314.592627686,-21392954.070253607,8845744.801678145,-6.399045767040022,1225.3118159911496,2907.6737038209317,-7628.28796333162,-0.001525841313195997,0.000000020489096641540527,0.000000014901161193847656,-0.00000011920928955078125,-0.00000011920928955078125,124928.0,16384.0,-262144.0,262144.0
Raw,1758239184999,22261099701,18,,-1442274380738900224,0.0,10.220216751098633,,,48107,7,0.0,16399,431202924890583,10,44.20000076293945,-486.9435119628906,0.060368604958057404,25,-29497.125603840454,0.042686641216278076,1575420000,,,,0,,1,7.800000190734863,40.70000076293945,-10.710209608078003,,-10.710209608078003,,C,3065980805301033,0,-19044138.209742222,-8095713.627197428,17462203.957496546,1994.1242536192165,-649.7606050427904,1897.3480559797056,-23382.676973937672,0.00010230108819087036,0.000000020489096641540527,0.000000014901161193847656,-0.00000011920928955078125,-0.00000011920928955078125,124928.0,16384.0,-262144.0,262144.0
Raw,1758239184999,22261099701,18,,-1442274380738900224,0.0,10.220216751098633,,,48107,16,0.0,16399,431202929444527,10,42.29999923706055,333.4940490722656,0.06642576307058334,25,-12168.798598803543,0.04696965590119362,1575420000,,,,0,,1,7.800000190734863,38.79999923706055,-10.710209608078003,,-10.710209608078003,,C,3065980805301033,0,7980309.473796938,-13536801.213318218,20980878.363890246,1803.3031274839007,2089.3849545312455,693.5811851172713,31983.35012699735,0.0011669336490740534,0.000000020489096641540527,0.000000014901161193847656,-0.00000011920928955078125,-0.00000011920928955078125,124928.0,16384.0,-262144.0,262144.0
Raw,1758239184999,22261099701,18,,-1442274380738900224,0.0,10.220216751098633,,,48107,26,0.0,16399,431202917690807,10,40.900001525878906,551.5560302734375,0.07149188965559006,25,-5675.756365235429,0.05055191367864609,1575420000,,,,0,,1,7.800000190734863,37.400001525878906,6.51925802230835,,6.51925802230835,,C,3065980805301033,0,18217807.419593353,-3084977.952655322,19003550.14609199,1764.3113682390735,1715.9356190478404,-1357.6702538171119,-78846.4635413619,-0.0007844028878025711,0.000000020489096641540527,0.000000014901161193847656,-0.00000011920928955078125,-0.00000011920928955078125,124928.0,16384.0,-262144.0,262144.0
Raw,1758239184999,22261099701,18,,-1442274380738900224,0.0,10.220216751098633,,,48107,21,0.0,16399,431202918091350,11,37.400001525878906,-550.2373657226562,0.08701629191637039,25,-33735.30632436039,0.06152921915054321,1575420000,,,,0,,1,7.800000190734863,33.900001525878906,-9.313225746154785,,-9.313225746154785,,C,3065980805301033,0,-13521172.309357746,7584623.792021943,21564883.403283663,-1829.4657875119578,-2038.3575497795516,-429.6100394450345,73280.99858275868,0.005859373864950612,0.000000020489096641540527,0.000000014901161193847656,-0.00000011920928955078125,-0.00000011920928955078125,124928.0,16384.0,-262144.0,262144.0
Raw,1758239184999,22261099701,18,,-1442274380738900224,0.0,10.220216751098633,,,48107,4,0.0,16399,431202931037995,11,37.29999923706055,171.80604553222656,0.08753195405006409,25,-15568.95965215296,0.06189384311437607,1575420000,,,,0,,1,7.800000190734863,33.79999923706055,-4.656612873077393,,-4.656612873077393,,C,3065980805301033,0,310872.6767728077,-24283055.15545027,10578309.808926173,644.1504465194223,-1203.8181222084163,-2803.79942071528,2511.278056056882,0.0007892867938608106,0.000000020489096641540527,0.000000014901161193847656,-0.00000011920928955078125,-0.00000011920928955078125,124928.0,16384.0,-262144.0,262144.0
Raw,1758239184999,22261099701,18,,-1442274380738900224,0.0,10.220216751098633,,,48107,8,0.0,16399,431202925043274,12,37.099998474121094,-714.917724609375,0.08857710659503937,25,-34322.89781078143,0.06263287365436554,1575420000,,,,0,,1,7.800000190734863,33.599998474121094,4.656612873077393,,4.656612873077393,,C,3065980805301033,0,5478274.493995007,-25716768.56756368,-953358.8341461646,384.27439889134337,-14.936887378408144,3168.413406280202,159182.97217018798,-0.0012198592303320765,0.000000020489096641540527,0.000000014901161193847656,-0.00000011920928955078125,-0.00000011920928955078125,124928.0,16384.0,-262144.0,262144.0
Raw,1758239184999,22261099701,18,,-1442274380738900224,0.0,10.220216751098633,,,48107,3,0.0,16399,431202917815226,19,28.600000381469727,571.916015625,0.15872763097286224,16,-15789.147773944132,0.2073831409215927,1575420000,,,,0,,1,7.800000190734863,25.100000381469727,1.3969838619232178,,1.3969838619232178,,C,3065980805301033,0,-10094802.727974234,-21796499.474531718,-11639694.330955207,1094.0890394084227,947.7436227332048,-2759.2595119650064,201948.89229418457,-0.0009389622136950493,0.000000020489096641540527,0.000000014901161193847656,-0.00000011920928955078125,-0.00000011920928955078125,124928.0,16384.0,-262144.0,262144.0
Raw,1758239184999,22261099701,18,,-1442274380738900224,0.0,10.220216751098633,,,48107,30,0.0,16399,431202917527047,15,32.400001525878906,-643.9633178710938,0.1197303757071495,16,-35719.500918732316,0.17980818450450897,1575420000,,,,0,,1,7.800000190734863,28.899999618530273,4.190951585769653,,4.190951585769653,,C,3065980805301033,0,-25093351.55783187,-605206.6759683499,9252599.971986076,1036.0405094185521,-574.4586376811102,2801.012284118314,-9338.19209726911,0.004023776456961059,0.000000020489096641540527,0.000000014901161193847656,-0.00000011920928955078125,-0.00000011920928955078125,124928.0,16384.0,-262144.0,262144.0
Raw,1758239184999,22261099701,18,,-1442274380738900224,0.0,10.220216751098633,,,48107,7,0.0,19456,431202919835457,10,48.099998474121094,121.98320770263672,0.05027247965335846,25,-82662.05184949443,0.03554766997694969,1575420000,,,,0,,6,7.800000190734863,44.599998474121094,3.252904168249282,,3.252904168249282,,C,3065980805301033,0,3110912.8918948313,-27023391.243407466,11685326.144023731,416.8829372725121,-1097.4231504233421,-2646.459082704418,-61961.6113591848,-0.0005856960851815529,0.000000020489096641540527,0.000000014901161193847656,-0.00000011920928955078125,-0.00000011920928955078125,124928.0,16384.0,-262144.0,262144.0
Raw,1758239184999,22261099701,18,,-1442274380738900224,0.0,10.220216751098633,,,48107,14,0.0,32867,9984934078490,10,48.0,189.97776794433594,0.05049867555499077,25,-3095634.7808265807,0.035707615315914154,1598062500,,,,0,,3,7.800000190734863,44.5,13.038516044616697,,13.038516044616697,,C,3065980805301033,0,,,,,,,,,0.000000020489096641540527,0.000000014901161193847656,-0.00000011920928955078125,-0.00000011920928955078125,124928.0,16384.0,-262144.0,262144.0
Raw,1758239184999,22261099701,18,,-1442274380738900224,0.0,10.220216751098633,,,48107,5,0.0,32867,9984931968308,10,45.5,-649.2085571289062,0.056689340621232986,25,1217719.75561052,0.04008503258228302,1602562600,,,,0,,3,7.800000190734863,42.0,13.038516044616697,,13.038516044616697,,C,3065980805301033,0,,,,,,,,,0.000000020489096641540527,0.000000014901161193847656,-0.00000011920928955078125,-0.00000011920928955078125,124928.0,16384.0,-262144.0,262144.0
Raw,1758239184999,22261099701,18,,-1442274380738900224,0.0,10.220216751098633,,,48107,30,0.0,19456,431202918167967,10,41.0,174.1873321533203,0.07111111283302307,25,-81737.47856462657,0.05028266832232475,1575420000,,,,0,,6,7.800000190734863,37.5,-0.472386130212632,,-0.472386130212632,,C,3065980805301033,0,8868241.834867667,-15754211.952682529,23430282.842135523,1359.6373433459444,1917.9024290425216,775.6625222693252,-62893.27262544804,-0.012377038474369328,0.000000020489096641540527,0.000000014901161193847656,-0.00000011920928955078125,-0.00000011920928955078125,124928.0,16384.0,-262144.0,262144.0
Raw,1758239184999,22261099701,18,,-1442274380738900224,0.0,10.220216751098633,,,48107,15,0.0,32867,9984932609824,10,39.29999923706055,-458.87860107421875,0.07802503556013107,25,730380.9815723575,0.05517150089144707,1602000000,,,,0,,3,7.800000190734863,35.79999923706055,13.038516044616697,,13.038516044616697,,C,3065980805301033,0,,,,,,,,,0.000000020489096641540527,0.000000014901161193847656,-0.00000011920928955078125,-0.00000011920928955078125,124928.0,16384.0,-262144.0,262144.0
Raw,1758239184999,22261099701,18,,-1442274380738900224,0.0,10.220216751098633,,,48107,23,0.0,32867,9984919677096,11,38.79999923706055,-419.55987548828125,0.08025103062391281,25,2201728.1431507985,0.0567455030977726,1603687600,,,,0,,3,7.800000190734863,35.29999923706055,13.038516044616697,,13.038516044616697,,C,3065980805301033,0,,,,,,,,,0.000000020489096641540527,0.000000014901161193847656,-0.00000011920928955078125,-0.00000011920928955078125,124928.0,16384.0,-262144.0,262144.0
Raw,1758239184999,22261099701,18,,-1442274380738900224,0.0,10.220216751098633,,,48107,3,0.0,32867,9984926127096,11,37.20000076293945,632.4088134765625,0.0880521908402443,25,3199270.440842789,0.06226170435547829,1604812500,,,,0,,3,7.800000190734863,33.70000076293945,13.038516044616697,,13.038516044616697,,C,3065980805301033,0,,,,,,,,,0.000000020489096641540527,0.000000014901161193847656,-0.00000011920928955078125,-0.00000011920928955078125,124928.0,16384.0,-262144.0,262144.0
Raw,1758239184999,22261099701,18,,-1442274380738900224,0.0,10.220216751098633,,,48107,21,0.0,19456,431202909827325,12,36.70000076293945,-681.958251953125,0.09072434157133102,25,-96804.14642666353,0.06415118277072906,1575420000,,,,0,,6,7.800000190734863,33.20000076293945,-0.472386130212632,,-0.472386130212632,,C,3065980805301033,0,-20207773.526995007,-20743717.98805993,-6118887.426674599,-407.5828665800251,-463.3220845764489,2914.6562142772377,-207041.5726641254,-0.0006860260618850589,0.000000020489096641540527,0.000000014901161193847656,-0.00000011920928955078125,-0.00000011920928955078125,124928.0,16384.0,-262144.0,262144.0
Raw,1758239184999,22261099701,18,,-1442274380738900224,0.0,10.220216751098633,,,48107,19,0.0,19456,431202911427272,12,36.599998474121094,-637.27392578125,0.09127336740493774,25,-317502.53709799965,0.06453939527273178,1575420000,,,,0,,6,7.800000190734863,33.099998474121094,-5.128999003290025,,-5.128999003290025,,C,3065980805301033,0,-19018616.229179025,5626854.3798252735,21970094.865933087,940.0726623204494,-1994.2503603700445,1324.8089524799204,676174.1803964883,0.012250914354808629,0.000000020489096641540527,0.000000014901161193847656,-0.00000011920928955078125,-0.00000011920928955078125,124928.0,16384.0,-262144.0,262144.0
Raw,1758239184999,22261099701,18,,-1442274380738900224,0.0,10.220216751098633,,,48107,13,0.0,32867,9984920320310,12,36.599998474121094,554.3080444335938,0.09127336740493774,25,-626718.0541934564,0.06453939527273178,1600875000,,,,0,,3,7.800000190734863,33.099998474121094,13.038516044616697,,13.038516044616697,,C,3065980805301033,0,,,,,,,,,0.000000020489096641540527,0.000000014901161193847656,-0.00000011920928955078125,-0.00000011920928955078125,124928.0,16384.0,-262144.0,262144.0
Raw,1758239184999,22261099701,18,,-1442274380738900224,0.0,10.220216751098633,,,48107,27,0.0,19456,431202920846136,12,37.099998474121094,-335.8355407714844,0.08857710659503937,25,-90719.00668029723,0.06263287365436554,1575420000,,,,0,,6,7.800000190734863,33.599998474121094,0.45893644440284653,,0.45893644440284653,,C,3065980805301033,0,-7705759.815501993,-25661070.48254376,12577551.275026508,695.0648197001467,1053.482299657817,2576.938103736728,-232059.2871405149,-0.003107523574726656,0.000000020489096641540527,0.000000014901161193847656,-0.00000011920928955078125,-0.00000011920928955078125,124928.0,16384.0,-262144.0,262144.0
Raw,1758239184999,22261099701,18,,-1442274380738900224,0.0,10.220216751098633,,,48107,4,0.0,32867,9984935864737,14,33.20000076293945,95.29113006591797,0.11336711049079895,25,3678908.0353725017,0.08016188442707062,1605375000,,,,0,,3,7.800000190734863,29.700000762939453,13.038516044616697,,13.038516044616697,,C,3065980805301033,0,,,,,,,,,0.000000020489096641540527,0.000000014901161193847656,-0.00000011920928955078125,-0.00000011920928955078125,124928.0,16384.0,-262144.0,262144.0
Raw,1758239184999,22261099701,18,,-1442274380738900224,0.0,10.220216751098633,,,48107,8,0.0,19456,431202905891183,18,29.600000381469727,370.7114562988281,0.14679761230945587,25,-78278.5222223427,0.10380059480667114,1575420000,,,,0,,6,7.800000190734863,26.100000381469727,-5.594660290597764,,-5.594660290597764,,C,3065980805301033,0,15828615.822406994,-24067491.262352288,-6856658.333884495,-357.0904732837122,592.5579048337927,-2907.166289638796,-161057.35782626725,-0.0019582589447963983,0.000000020489096641540527,0.000000014901161193847656,-0.00000011920928955078125,-0.00000011920928955078125,124928.0,16384.0,-262144.0,262144.0
Raw,1758239184999,22261099701,18,,-1442274380738900224,0.0,10.220216751098633,,,48107,29,0.0,19456,431202920582628,14,33.5,-375.54443359375,0.1111111119389534,16,-91423.49746077586,0.17371350526809692,1575420000,,,,0,,6,7.800000190734863,30.0,-3.732015141366807,,-3.732015141366807,,C,3065980805301033,0,-11824920.832755536,-13782183.010182263,23363227.569926083,939.3731487669313,-2148.668738247335,-792.1681866437891,-40036.78058270632,-0.0010764801772893406,0.000000020489096641540527,0.000000014901161193847656,-0.00000011920928955078125,-0.00000011920928955078125,124928.0,16384.0,-262144.0,262144.0
Agc,1758239184999,22261099701,18,,-1442274380738900224,0.0,10.220216751098633,,,48107,7.800000190734863,1575420032,1
Agc,1758239184999,22261099701,18,,-1442274380738900224,0.0,10.220216751098633,,,48107,7.800000190734863,1575420032,1
Agc,1758239184999,22261099701,18,,-1442274380738900224,0.0,10.220216751098633,,,48107,7.800000190734863,1575420032,1
Agc,1758239184999,22261099701,18,,-1442274380738900224,0.0,10.220216751098633,,,48107,7.800000190734863,1575420032,1
Agc,1758239184999,22261099701,18,,-1442274380738900224,0.0,10.220216751098633,,,48107,7.800000190734863,1575420032,1
Agc,1758239184999,22261099701,18,,-1442274380738900224,0.0,10.220216751098633,,,48107,7.800000190734863,1575420032,1
Agc,1758239184999,22261099701,18,,-1442274380738900224,0.0,10.220216751098633,,,48107,7.800000190734863,1575420032,1
Agc,1758239184999,22261099701,18,,-1442274380738900224,0.0,10.220216751098633,,,48107,7.800000190734863,1575420032,1
Agc,1758239184999,22261099701,18,,-1442274380738900224,0.0,10.220216751098633,,,48107,7.800000190734863,1575420032,1
Agc,1758239184999,22261099701,18,,-1442274380738900224,0.0,10.220216751098633,,,48107,7.800000190734863,1575420032,1
Agc,1758239184999,22261099701,18,,-1442274380738900224,0.0,10.220216751098633,,,48107,7.800000190734863,1575420032,6
Agc,1758239184999,22261099701,18,,-1442274380738900224,0.0,10.220216751098633,,,48107,7.800000190734863,1598062464,3
Agc,1758239184999,22261099701,18,,-1442274380738900224,0.0,10.220216751098633,,,48107,7.800000190734863,1602562560,3
Agc,1758239184999,22261099701,18,,-1442274380738900224,0.0,10.220216751098633,,,48107,7.800000190734863,1575420032,6
Agc,1758239184999,22261099701,18,,-1442274380738900224,0.0,10.220216751098633,,,48107,7.800000190734863,1602000000,3
Agc,1758239184999,22261099701,18,,-1442274380738900224,0.0,10.220216751098633,,,48107,7.800000190734863,1603687552,3
Agc,1758239184999,22261099701,18,,-1442274380738900224,0.0,10.220216751098633,,,48107,7.800000190734863,1604812544,3
Agc,1758239184999,22261099701,18,,-1442274380738900224,0.0,10.220216751098633,,,48107,7.800000190734863,1575420032,6
Agc,1758239184999,22261099701,18,,-1442274380738900224,0.0,10.220216751098633,,,48107,7.800000190734863,1575420032,6
Agc,1758239184999,22261099701,18,,-1442274380738900224,0.0,10.220216751098633,,,48107,7.800000190734863,1600875008,3
Agc,1758239184999,22261099701,18,,-1442274380738900224,0.0,10.220216751098633,,,48107,7.800000190734863,1575420032,6
Agc,1758239184999,22261099701,18,,-1442274380738900224,0.0,10.220216751098633,,,48107,7.800000190734863,1605374976,3
Agc,1758239184999,22261099701,18,,-1442274380738900224,0.0,10.220216751098633,,,48107,7.800000190734863,1575420032,6
Agc,1758239184999,22261099701,18,,-1442274380738900224,0.0,10.220216751098633,,,48107,7.800000190734863,1575420032,6
Fix,GPS,40.1410544431,-105.1312597096,1515.0,0.0,0.5102041,,1758239186000,0.02,,3065981805300565,1.0,0,,,
Fix,FLP,40.1410544000,-105.1312597000,1510.4074861963013,0.0,2.311,,1758239186249,0.02,,3065981805300565,0.6501333,0,,,
Status,1758239186000,24,0,1,9,1575420000,47.40,301.2,73.1,1,0,1,43.9
Status,1758239186000,24,1,1,4,1575420000,37.50,136.1,62.4,1,0,1,34.0
Status,1758239186000,24,2,1,16,1575420000,42.30,51.4,47.3,1,0,1,38.8
Status,1758239186000,24,3,1,7,1575420000,44.20,287.3,40.5,1,0,1,40.7
Status,1758239186000,24,4,1,27,1575420000,44.80,104.4,34.9,1,0,1,41.3
Status,1758239186000,24,5,1,8,1575420000,37.00,142.8,28.6,1,0,1,33.5
Status,1758239186000,24,6,1,30,1575420000,31.60,275.8,11.6,1,0,1,28.1
Status,1758239186000,24,7,1,21,1575420000,37.40,321.6,10.7,0,0,1,33.9
Status,1758239186000,24,8,1,26,1575420000,41.00,49.5,10.7,0,0,1,37.5
Status,1758239186000,24,9,1,3,1575420000,28.30,189.5,9.9,1,0,1,24.8
Status,1758239186000,24,10,3,4,1605375000,33.20,184.1,74.0,1,0,1,29.7
Status,1758239186000,24,11,3,14,1598062500,48.00,15.6,61.0,1,0,1,44.5
Status,1758239186000,24,12,3,15,1602000000,39.70,256.4,51.5,1,0,1,36.2
Status,1758239186000,24,13,3,5,1602562600,45.90,323.1,47.6,1,0,1,42.4
Status,1758239186000,24,14,3,3,1604812500,37.40,158.5,24.0,1,0,1,33.9
Status,1758239186000,24,15,3,13,1600875000,36.50,46.3,7.7,0,0,1,33.0
Status,1758239186000,24,16,3,23,1603687600,38.80,48.4,6.2,0,0,1,35.3
Status,1758239186000,24,17,6,27,1575420000,37.00,185.5,70.9,1,0,1,33.5
Status,1758239186000,24,18,6,29,1575420000,32.90,313.0,63.2,1,0,1,29.4
Status,1758239186000,24,19,6,7,1575420000,48.20,126.1,58.7,1,0,1,44.7
Status,1758239186000,24,20,6,30,1575420000,41.10,52.8,49.4,1,0,1,37.6
Status,1758239186000,24,21,6,21,1575420000,36.80,213.9,19.6,1,0,1,33.3
Status,1758239186000,24,22,6,19,1575420000,36.60,310.8,15.8,1,0,1,33.1
Status,1758239186000,24,23,6,8,1575420000,29.90,129.1,7.8,0,0,1,26.4
Raw,1758239185999,23261099212,18,,-1442274380738900736,0.0,10.220216751098633,,,48107,9,0.0,16399,431203933010819,10,47.400001525878906,-316.5863037109375,0.05188848078250885,25,-29016.804684737195,0.03669034317135811,1575420000,,,,0,,1,7.800000190734863,43.900001525878906,0.46566128730773926,,0.46566128730773926,,C,3065981805300565,0,-9492068.99523987,-15883363.30690777,18924709.516723823,746.6162018211471,-2313.2649547710007,-1565.5121427900194,222543.74286386988,0.001183696964289993,0.000000020489096641540527,0.000000014901161193847656,-0.00000011920928955078125,-0.00000011920928955078125,124928.0,16384.0,-262144.0,262144.0
Raw,1758239185999,23261099212,18,,-1442274380738900736,0.0,10.220216751098633,,,48107,27,0.0,16399,431203926434661,10,44.79999923706055,-446.8756408691406,0.058627303689718246,25,-31897.472577117558,0.04145536571741104,1575420000,,,,0,,1,7.800000190734863,41.29999923706055,1.862645149230957,,1.862645149230957,,C,3065981805300565,0,12337308.179515012,-21391728.577420756,8848652.380566647,-6.427158057413962,1225.6714134002996,2907.4782879211066,-7628.289489216419,-0.00152592524591455,0.000000020489096641540527,0.000000014901161193847656,-0.00000011920928955078125,-0.00000011920928955078125,124928.0,16384.0,-262144.0,262144.0
Raw,1758239185999,23261099212,18,,-1442274380738900736,0.0,10.220216751098633,,,48107,7,0.0,16399,431203924891727,10,44.20000076293945,-492.9192810058594,0.060368604958057404,25,-29987.674510175188,0.042686641216278076,1575420000,,,,0,,1,7.800000190734863,40.70000076293945,-10.710209608078003,,-10.710209608078003,,C,3065981805300565,0,-19042143.99005425,-8096363.47421492,17464101.1323862,1994.3105503236131,-649.9319459662815,1896.9973763489202,-23382.67687160857,0.00010235688023385592,0.000000020489096641540527,0.000000014901161193847656,-0.00000011920928955078125,-0.00000011920928955078125,124928.0,16384.0,-262144.0,262144.0
Raw,1758239185999,23261099212,18,,-1442274380738900736,0.0,10.220216751098633,,,48107,16,0.0,16399,431203929442951,10,42.29999923706055,327.5984802246094,0.06642576307058334,25,-11838.867199633874,0.04696965590119362,1575420000,,,,0,,1,7.800000190734863,38.79999923706055,-10.710209608078003,,-10.710209608078003,,C,3065981805300565,0,7982112.859371875,-13534711.84940276,20981571.711829703,1803.473700766454,2089.349451887205,693.1168769103492,31983.351293977914,0.0011670311687339563,0.000000020489096641540527,0.000000014901161193847656,-0.00000011920928955078125,-0.00000011920928955078125,124928.0,16384.0,-262144.0,262144.0
Raw,1758239185999,23261099212,18,,-1442274380738900736,0.0,10.220216751098633,,,48107,26,0.0,16399,431203917688484,10,41.0,545.5731811523438,0.07111111283302307,25,-5127.809663749649,0.05028266832232475,1575420000,,,,0,,1,7.800000190734863,37.5,6.51925802230835,,6.51925802230835,,C,3065981805300565,0,18219571.705464996,-3083262.1248704977,19002192.275595043,1764.268562481654,1715.7279189244998,-1358.077043612328,-78846.46432568824,-0.0007842534250812605,0.000000020489096641540527,0.000000014901161193847656,-0.00000011920928955078125,-0.00000011920928955078125,124928.0,16384.0,-262144.0,262144.0
Raw,1758239185999,23261099212,18,,-1442274380738900736,0.0,10.220216751098633,,,48107,4,0.0,16399,431203931036955,11,37.5,165.900634765625,0.08650518953800201,25,-15400.723564973392,0.061167821288108826,1575420000,,,,0,,1,7.800000190734863,34.0,-4.656612873077393,,-4.656612873077393,,C,3065981805300565,0,311516.7362648444,-24284258.82345651,10575505.89897665,643.9698827570102,-1203.5203862009175,-2804.026300504024,2511.27884532653,0.0007892541434557643,0.000000020489096641540527,0.000000014901161193847656,-0.00000011920928955078125,-0.00000011920928955078125,124928.0,16384.0,-262144.0,262144.0
Raw,1758239185999,23261099212,18,,-1442274380738900736,0.0,10.220216751098633,,,48107,21,0.0,16399,431203918092694,11,37.400001525878906,-556.1354370117188,0.08701629191637039,25,-34289.107777828314,0.06152921915054321,1575420000,,,,0,,1,7.800000190734863,33.900001525878906,-9.313225746154785,,-9.313225746154785,,C,3065981805300565,0,-13523001.818379246,7582585.504645323,21564453.563265968,-1829.5473294413655,-2038.211717218874,-430.0688390254259,73281.00444214125,0.005859375523868948,0.000000020489096641540527,0.000000014901161193847656,-0.00000011920928955078125,-0.00000011920928955078125,124928.0,16384.0,-262144.0,262144.0
Raw,1758239185999,23261099212,18,,-1442274380738900736,0.0,10.220216751098633,,,48107,8,0.0,16399,431203925045197,12,37.0,-720.8006591796875,0.08910670876502991,25,-35041.360246334574,0.06300735473632812,1575420000,,,,0,,1,7.800000190734863,33.5,4.656612873077393,,4.656612873077393,,C,3065981805300565,0,5478658.722670598,-25716783.319455463,-950190.4042246573,384.1814825328159,-14.566836923099686,3168.434239400301,159182.9709502876,-0.0012199367338325828,0.000000020489096641540527,0.000000014901161193847656,-0.00000011920928955078125,-0.00000011920928955078125,124928.0,16384.0,-262144.0,262144.0
Raw,1758239185999,23261099212,18,,-1442274380738900736,0.0,10.220216751098633,,,48107,3,0.0,16399,431203917812847,19,28.299999237060547,563.6039428710938,0.16259105503559113,16,-15222.596036026662,0.2101149708032608,1575420000,,,,0,,1,7.800000190734863,24.799999237060547,1.3969838619232178,,1.3969838619232178,,C,3065981805300565,0,-10093708.493473437,-21795551.64248276,-11642453.461888868,1094.3851699109862,947.9249752313026,-2759.0154737337375,201948.8913552537,-0.0009389039478264749,0.000000020489096641540527,0.000000014901161193847656,-0.00000011920928955078125,-0.00000011920928955078125,124928.0,16384.0,-262144.0,262144.0
Raw,1758239185999,23261099212,18,,-1442274380738900736,0.0,10.220216751098633,,,48107,30,0.0,16399,431203917528699,16,31.600000381469727,-651.8661499023438,0.1266447901725769,16,-36368.20950349729,0.18469735980033875,1575420000,,,,0,,1,7.800000190734863,28.100000381469727,4.190951585769653,,4.190951585769653,,C,3065981805300565,0,-25092315.362992365,-605781.2064173091,9255400.892545976,1036.345739803913,-574.6003676796175,2800.8195718428724,-9338.188073467432,0.004023813606181648,0.000000020489096641540527,0.000000014901161193847656,-0.00000011920928955078125,-0.00000011920928955078125,124928.0,16384.0,-262144.0,262144.0
Raw,1758239185999,23261099212,18,,-1442274380738900736,0.0,10.220216751098633,,,48107,7,0.0,19456,431203919834565,10,48.20000076293945,116.033935546875,0.05004779249429703,25,-82543.66364519685,0.03538879379630089,1575420000,,,,0,,6,7.800000190734863,44.70000076293945,3.2529126059440996,,3.2529126059440996,,C,3065981805300565,0,3111329.6788178533,-27024488.56026384,11682679.597543508,416.69165672962913,-1097.2125134522003,-2646.638592404677,-61961.61194487895,-0.000585693254834041,0.000000020489096641540527,0.000000014901161193847656,-0.00000011920928955078125,-0.00000011920928955078125,124928.0,16384.0,-262144.0,262144.0
Raw,1758239185999,23261099212,18,,-1442274380738900736,0.0,10.220216751098633,,,48107,14,0.0,32867,9985934077376,10,48.0,184.03985595703125,0.05049867555499077,25,-3095448.3936958387,0.035707615315914154,1598062500,,,,0,,3,7.800000190734863,44.5,13.038516044616697,,13.038516044616697,,C,3065981805300565,0,,,,,,,,,0.000000020489096641540527,0.000000014901161193847656,-0.00000011920928955078125,-0.00000011920928955078125,124928.0,16384.0,-262144.0,262144.0
Raw,1758239185999,23261099212,18,,-1442274380738900736,0.0,10.220216751098633,,,48107,5,0.0,32867,9985931969998,10,45.900001525878906,-655.1121826171875,0.05562477186322212,25,1217066.9723576396,0.039332274347543716,1602562600,,,,0,,3,7.800000190734863,42.400001525878906,13.038516044616697,,13.038516044616697,,C,3065981805300565,0,,,,,,,,,0.000000020489096641540527,0.000000014901161193847656,-0.00000011920928955078125,-0.00000011920928955078125,124928.0,16384.0,-262144.0,262144.0
Raw,1758239185999,23261099212,18,,-1442274380738900736,0.0,10.220216751098633,,,48107,30,0.0,19456,431203918166912,10,41.099998474121094,168.22708129882812,0.07073336839675903,25,-81566.89511370225,0.050015565007925034,1575420000,,,,0,,6,7.800000190734863,37.599998474121094,-0.4723776925178146,,-0.4723776925178146,,C,3065981805300565,0,8869601.56602886,-15752294.072197529,23431058.323675405,1359.8278446108757,1917.8625796227275,775.3021917201562,-62893.285002472534,-0.012377036655379925,0.000000020489096641540527,0.000000014901161193847656,-0.00000011920928955078125,-0.00000011920928955078125,124928.0,16384.0,-262144.0,262144.0
Raw,1758239185999,23261099212,18,,-1442274380738900736,0.0,10.220216751098633,,,48107,15,0.0,32867,9985932610871,10,39.70000076293945,-464.79132080078125,0.07631023973226547,25,729918.5267756595,0.05395897105336189,1602000000,,,,0,,3,7.800000190734863,36.20000076293945,13.038516044616697,,13.038516044616697,,C,3065981805300565,0,,,,,,,,,0.000000020489096641540527,0.000000014901161193847656,-0.00000011920928955078125,-0.00000011920928955078125,124928.0,16384.0,-262144.0,262144.0
Raw,1758239185999,23261099212,18,,-1442274380738900736,0.0,10.220216751098633,,,48107,23,0.0,32867,9985919678002,11,38.79999923706055,-425.4460754394531,0.08025103062391281,25,2201305.0179638253,0.0567455030977726,1603687600,,,,0,,3,7.800000190734863,35.29999923706055,13.038516044616697,,13.038516044616697,,C,3065981805300565,0,,,,,,,,,0.000000020489096641540527,0.000000014901161193847656,-0.00000011920928955078125,-0.00000011920928955078125,124928.0,16384.0,-262144.0,262144.0
Raw,1758239185999,23261099212,18,,-1442274380738900736,0.0,10.220216751098633,,,48107,3,0.0,32867,9985926124503,11,37.400001525878906,626.505615234375,0.08701629191637039,25,3199899.2869499894,0.06152921915054321,1604812500,,,,0,,3,7.800000190734863,33.900001525878906,13.038516044616697,,13.038516044616697,,C,3065981805300565,0,,,,,,,,,0.000000020489096641540527,0.000000014901161193847656,-0.00000011920928955078125,-0.00000011920928955078125,124928.0,16384.0,-262144.0,262144.0
Raw,1758239185999,23261099212,18,,-1442274380738900736,0.0,10.220216751098633,,,48107,21,0.0,19456,431203909829143,12,36.79999923706055,-687.957763671875,0.09018027782440186,25,-97489.72948901882,0.0637664720416069,1575420000,,,,0,,6,7.800000190734863,33.29999923706055,-0.4723776925178146,,-0.4723776925178146,,C,3065981805300565,0,-20208181.04278972,-20744181.176980037,-6115972.718130757,-407.44723418931494,-463.0540737678705,2914.750268061753,-207041.57335015212,-0.0006860248686280102,0.000000020489096641540527,0.000000014901161193847656,-0.00000011920928955078125,-0.00000011920928955078125,124928.0,16384.0,-262144.0,262144.0
Raw,1758239185999,23261099212,18,,-1442274380738900736,0.0,10.220216751098633,,,48107,19,0.0,19456,431203911428915,12,36.599998474121094,-643.2818603515625,0.09127336740493774,25,-318143.43673729786,0.06453939527273178,1575420000,,,,0,,6,7.800000190734863,33.099998474121094,-5.128990565595207,,-5.128990565595207,,C,3065981805300565,0,-19017676.2048086,5624860.029361039,21971419.508188203,939.9729834485662,-1994.4440089376267,1324.4712016973328,676174.192647423,0.012250914936885238,0.000000020489096641540527,0.000000014901161193847656,-0.00000011920928955078125,-0.00000011920928955078125,124928.0,16384.0,-262144.0,262144.0
Raw,1758239185999,23261099212,18,,-1442274380738900736,0.0,10.220216751098633,,,48107,27,0.0,19456,431203920846776,12,37.0,-341.70751953125,0.08910670876502991,25,-91058.38375633143,0.06300735473632812,1575420000,,,,0,,6,7.800000190734863,33.5,0.45894488209766393,,0.45894488209766393,,C,3065981805300565,0,-7705064.634673329,-25660016.9212528,12580128.118084604,695.2959505872864,1053.6389262524294,2576.744707442392,-232059.29024803924,-0.0031075211300048977,0.000000020489096641540527,0.000000014901161193847656,-0.00000011920928955078125,-0.00000011920928955078125,124928.0,16384.0,-262144.0,262144.0
Raw,1758239185999,23261099212,18,,-1442274380738900736,0.0,10.220216751098633,,,48107,13,0.0,32867,9985920317990,12,36.5,548.2781372070312,0.09182736277580261,25,-626167.3850035977,0.06493113189935684,1600875000,,,,0,,3,7.800000190734863,33.0,13.038516044616697,,13.038516044616697,,C,3065981805300565,0,,,,,,,,,0.000000020489096641540527,0.000000014901161193847656,-0.00000011920928955078125,-0.00000011920928955078125,124928.0,16384.0,-262144.0,262144.0
Raw,1758239185999,23261099212,18,,-1442274380738900736,0.0,10.220216751098633,,,48107,4,0.0,32867,9985935863927,14,33.20000076293945,89.42340850830078,0.11336711049079895,25,3678999.7678777375,0.08016188442707062,1605375000,,,,0,,3,7.800000190734863,29.700000762939453,13.038516044616697,,13.038516044616697,,C,3065981805300565,0,,,,,,,,,0.000000020489096641540527,0.000000014901161193847656,-0.00000011920928955078125,-0.00000011920928955078125,124928.0,16384.0,-262144.0,262144.0
Raw,1758239185999,23261099212,18,,-1442274380738900736,0.0,10.220216751098633,,,48107,8,0.0,19456,431203905889473,17,29.899999618530273,364.9273376464844,0.14348027110099792,25,-77911.2642180835,0.10145489871501923,1575420000,,,,0,,6,7.800000190734863,26.399999618530273,-5.594651852902946,,-5.594651852902946,,C,3065981805300565,0,15828258.69633611,-24066898.55864994,-6859565.442551348,-357.16288215377136,592.8515276573537,-2907.060978887617,-161057.35978452174,-0.001958256762009114,0.000000020489096641540527,0.000000014901161193847656,-0.00000011920928955078125,-0.00000011920928955078125,124928.0,16384.0,-262144.0,262144.0
Raw,1758239185999,23261099212,18,,-1442274380738900736,0.0,10.220216751098633,,,48107,29,0.0,19456,431203920583446,14,32.900001525878906,-383.1564025878906,0.11569254100322723,16,-91803.92179900568,0.1769530326128006,1575420000,,,,0,,6,7.800000190734863,29.399999618530273,-3.7320067036719893,,-3.7320067036719893,,C,3065981805300565,0,-11823981.556022,-13784331.67981704,23362435.221385118,939.1787801219084,-2148.6670077484587,-792.5275969618048,-40036.78165918758,-0.0010764805920189247,0.000000020489096641540527,0.000000014901161193847656,-0.00000011920928955078125,-0.00000011920928955078125,124928.0,16384.0,-262144.0,262144.0
Agc,1758239185999,23261099212,18,,-1442274380738900736,0.0,10.220216751098633,,,48107,7.800000190734863,1575420032,1
Agc,1758239185999,23261099212,18,,-1442274380738900736,0.0,10.220216751098633,,,48107,7.800000190734863,1575420032,1
Agc,1758239185999,23261099212,18,,-1442274380738900736,0.0,10.220216751098633,,,48107,7.800000190734863,1575420032,1
Agc,1758239185999,23261099212,18,,-1442274380738900736,0.0,10.220216751098633,,,48107,7.800000190734863,1575420032,1
Agc,1758239185999,23261099212,18,,-1442274380738900736,0.0,10.220216751098633,,,48107,7.800000190734863,1575420032,1
Agc,1758239185999,23261099212,18,,-1442274380738900736,0.0,10.220216751098633,,,48107,7.800000190734863,1575420032,1
Agc,1758239185999,23261099212,18,,-1442274380738900736,0.0,10.220216751098633,,,48107,7.800000190734863,1575420032,1
Agc,1758239185999,23261099212,18,,-1442274380738900736,0.0,10.220216751098633,,,48107,7.800000190734863,1575420032,1
Agc,1758239185999,23261099212,18,,-1442274380738900736,0.0,10.220216751098633,,,48107,7.800000190734863,1575420032,1
Agc,1758239185999,23261099212,18,,-1442274380738900736,0.0,10.220216751098633,,,48107,7.800000190734863,1575420032,1
Agc,1758239185999,23261099212,18,,-1442274380738900736,0.0,10.220216751098633,,,48107,7.800000190734863,1575420032,6
Agc,1758239185999,23261099212,18,,-1442274380738900736,0.0,10.220216751098633,,,48107,7.800000190734863,1598062464,3
Agc,1758239185999,23261099212,18,,-1442274380738900736,0.0,10.220216751098633,,,48107,7.800000190734863,1602562560,3
Agc,1758239185999,23261099212,18,,-1442274380738900736,0.0,10.220216751098633,,,48107,7.800000190734863,1575420032,6
Agc,1758239185999,23261099212,18,,-1442274380738900736,0.0,10.220216751098633,,,48107,7.800000190734863,1602000000,3
Agc,1758239185999,23261099212,18,,-1442274380738900736,0.0,10.220216751098633,,,48107,7.800000190734863,1603687552,3
Agc,1758239185999,23261099212,18,,-1442274380738900736,0.0,10.220216751098633,,,48107,7.800000190734863,1604812544,3
Agc,1758239185999,23261099212,18,,-1442274380738900736,0.0,10.220216751098633,,,48107,7.800000190734863,1575420032,6
Agc,1758239185999,23261099212,18,,-1442274380738900736,0.0,10.220216751098633,,,48107,7.800000190734863,1575420032,6
Agc,1758239185999,23261099212,18,,-1442274380738900736,0.0,10.220216751098633,,,48107,7.800000190734863,1575420032,6
Agc,1758239185999,23261099212,18,,-1442274380738900736,0.0,10.220216751098633,,,48107,7.800000190734863,1600875008,3
Agc,1758239185999,23261099212,18,,-1442274380738900736,0.0,10.220216751098633,,,48107,7.800000190734863,1605374976,3
Agc,1758239185999,23261099212,18,,-1442274380738900736,0.0,10.220216751098633,,,48107,7.800000190734863,1575420032,6
Agc,1758239185999,23261099212,18,,-1442274380738900736,0.0,10.220216751098633,,,48107,7.800000190734863,1575420032,6
Fix,NLP,40.1411002000,-105.1297232000,1512.199951171875,,64.901,,1758239185697,,,3065981253000000,7.715714,0,,,
Fix,GPS,40.1410544431,-105.1312597096,1515.0,0.0,0.5102041,,1758239187000,0.02,,3065982805300134,1.0,0,,,
Fix,FLP,40.1410544000,-105.1312597000,1509.921553957959,0.0,0.51,,1758239187249,0.02,,3065982805300134,1.4842285,0,,,
Status,1758239187000,24,0,1,9,1575420000,47.60,301.2,73.1,1,0,1,44.1
Status,1758239187000,24,1,1,4,1575420000,37.50,136.1,62.4,0,0,1,34.0
Status,1758239187000,24,2,1,16,1575420000,42.30,51.4,47.3,1,0,1,38.8
Status,1758239187000,24,3,1,7,1575420000,44.20,287.3,40.5,1,0,1,40.7
Status,1758239187000,24,4,1,27,1575420000,44.80,104.4,34.9,1,0,1,41.3
Status,1758239187000,24,5,1,8,1575420000,37.00,142.8,28.6,1,0,1,33.5
