# 
# Header Description:
# 
# Version: v3.1.1.1 Platform: 16 Manufacturer: Google Model: Pixel 8a GNSS Hardware Model Name: S.LSI,K041,SPOTNAV_4.15.4_3_250220_R2_258342
# 
# Raw,utcTimeMillis,TimeNanos,LeapSecond,TimeUncertaintyNanos,FullBiasNanos,BiasNanos,BiasUncertaintyNanos,DriftNanosPerSecond,DriftUncertaintyNanosPerSecond,HardwareClockDiscontinuityCount,Svid,TimeOffsetNanos,State,ReceivedSvTimeNanos,ReceivedSvTimeUncertaintyNanos,Cn0DbHz,PseudorangeRateMetersPerSecond,PseudorangeRateUncertaintyMetersPerSecond,AccumulatedDeltaRangeState,AccumulatedDeltaRangeMeters,AccumulatedDeltaRangeUncertaintyMeters,CarrierFrequencyHz,CarrierCycles,CarrierPhase,CarrierPhaseUncertainty,MultipathIndicator,SnrInDb,ConstellationType,AgcDb,BasebandCn0DbHz,FullInterSignalBiasNanos,FullInterSignalBiasUncertaintyNanos,SatelliteInterSignalBiasNanos,SatelliteInterSignalBiasUncertaintyNanos,CodeType,ChipsetElapsedRealtimeNanos,IsFullTracking,SvPositionEcefXMeters,SvPositionEcefYMeters,SvPositionEcefZMeters,SvVelocityEcefXMetersPerSecond,SvVelocityEcefYMetersPerSecond,SvVelocityEcefZMetersPerSecond,SvClockBiasMeters,SvClockDriftMetersPerSecond,KlobucharAlpha0,KlobucharAlpha1,KlobucharAlpha2,KlobucharAlpha3,KlobucharBeta0,KlobucharBeta1,KlobucharBeta2,KlobucharBeta3
# 
# UncalAccel,utcTimeMillis,elapsedRealtimeNanos,UncalAccelXMps2,UncalAccelYMps2,UncalAccelZMps2,BiasXMps2,BiasYMps2,BiasZMps2,CalibrationAccuracy
# 
# Accel,utcTimeMillis,elapsedRealtimeNanos,AccelXMps2,AccelYMps2,AccelZMps2,CalibrationAccuracy
# 
# UncalGyro,utcTimeMillis,elapsedRealtimeNanos,UncalGyroXRadPerSec,UncalGyroYRadPerSec,UncalGyroZRadPerSec,DriftXRadPerSec,DriftYRadPerSec,DriftZRadPerSec,CalibrationAccuracy
# 
# Gyro,utcTimeMillis,elapsedRealtimeNanos,GyroXRadPerSec,GyroYRadPerSec,GyroZRadPerSec,CalibrationAccuracy
# 
# UncalMag,utcTimeMillis,elapsedRealtimeNanos,UncalMagXMicroT,UncalMagYMicroT,UncalMagZMicroT,BiasXMicroT,BiasYMicroT,BiasZMicroT,CalibrationAccuracy
# 
# Mag,utcTimeMillis,elapsedRealtimeNanos,MagXMicroT,MagYMicroT,MagZMicroT,CalibrationAccuracy
# 
# Pressure,utcTimeMillis,elapsedRealtimeNanos,PressureHpa,CalibrationAccuracy
# 
# OrientationDeg,utcTimeMillis,elapsedRealtimeNanos,yawDeg,rollDeg,pitchDeg,CalibrationAccuracy
# 
# Fix,Provider,LatitudeDegrees,LongitudeDegrees,AltitudeMeters,SpeedMps,AccuracyMeters,BearingDegrees,UnixTimeMillis,SpeedAccuracyMps,BearingAccuracyDegrees,elapsedRealtimeNanos,VerticalAccuracyMeters,MockLocation,NumberOfUsedSignals,VerticalSpeedAccuracyMps,SolutionType
# 
# Nav,Svid,Type,Status,MessageId,Sub-messageId,Data(Bytes)
# 
# Status,UnixTimeMillis,SignalCount,SignalIndex,ConstellationType,Svid,CarrierFrequencyHz,Cn0DbHz,AzimuthDegrees,ElevationDegrees,UsedInFix,HasAlmanacData,HasEphemerisData,BasebandCn0DbHz
# 
# Agc,utcTimeMillis,TimeNanos,LeapSecond,TimeUncertaintyNanos,FullBiasNanos,BiasNanos,BiasUncertaintyNanos,DriftNanosPerSecond,DriftUncertaintyNanosPerSecond,HardwareClockDiscontinuityCount,AgcDb,CarrierFrequencyHz,ConstellationType
# 
Fix,FLP,40.0282257000,-105.2438051000,1586.0,,44.518,,1758759403842,,,3586209626000000,1.1086862,0,,,
Status,,18,0,1,9,1575420000,37.50,195.8,71.6,1,0,1,34.0
Status,,18,1,1,7,1575420000,44.10,312.0,57.9,1,0,1,40.6
Status,,18,2,1,8,1575420000,39.40,117.3,48.1,1,0,1,35.9
Status,,18,3,1,27,1575420000,46.20,71.0,38.5,1,0,1,42.7
Status,,18,4,1,4,1575420000,37.40,151.2,36.0,1,0,1,33.9
Status,,18,5,1,30,1575420000,37.10,292.1,29.2,1,0,1,33.6
Status,,18,6,1,16,1575420000,40.40,48.9,23.4,1,0,1,36.9
Status,,18,7,1,21,1575420000,42.40,300.5,18.6,1,0,1,38.9
Status,,18,8,1,14,1575420000,32.40,233.5,10.2,1,0,1,28.9
Status,,18,9,3,3,1604812500,40.90,289.6,62.5,1,0,1,37.4
Status,,18,10,3,2,1599750000,45.20,182.1,40.8,1,0,1,41.7
Status,,18,11,3,12,1601437400,40.20,39.8,36.6,1,0,1,36.7
Status,,18,12,3,14,1598062500,27.90,257.8,21.8,0,0,1,24.4
Status,,18,13,3,4,1605375000,43.90,330.0,20.1,1,0,1,40.4
Status,,18,14,3,21,1604250000,39.30,25.2,8.3,1,0,1,35.8
Status,,18,15,6,4,1575420000,42.20,305.8,59.7,0,0,1,38.7
Status,,18,16,6,21,1575420000,40.60,48.5,52.4,0,0,1,37.1
Status,,18,17,6,31,1575420000,30.20,226.8,18.9,0,0,1,26.7
Agc,,2054540290,18,,,,,,,48195,7.800000190734863,1575420032,1
Agc,,2054540290,18,,,,,,,48195,7.800000190734863,1575420032,1
Agc,,2054540290,18,,,,,,,48195,7.800000190734863,1575420032,1
Agc,,2054540290,18,,,,,,,48195,7.800000190734863,1575420032,1
Agc,,2054540290,18,,,,,,,48195,7.800000190734863,1575420032,1
Agc,,2054540290,18,,,,,,,48195,7.800000190734863,1575420032,1
Agc,,2054540290,18,,,,,,,48195,7.800000190734863,1575420032,1
Agc,,2054540290,18,,,,,,,48195,7.800000190734863,1575420032,1
Agc,,2054540290,18,,,,,,,48195,7.800000190734863,1575420032,1
Agc,,2054540290,18,,,,,,,48195,7.800000190734863,1599750016,3
Agc,,2054540290,18,,,,,,,48195,7.800000190734863,1605374976,3
Agc,,2054540290,18,,,,,,,48195,7.800000190734863,1575420032,6
Agc,,2054540290,18,,,,,,,48195,7.800000190734863,1575420032,6
Agc,,2054540290,18,,,,,,,48195,7.800000190734863,1604812544,3
Agc,,2054540290,18,,,,,,,48195,7.800000190734863,1601437440,3
Agc,,2054540290,18,,,,,,,48195,7.800000190734863,1604249984,3
Agc,,2054540290,18,,,,,,,48195,7.800000190734863,1575420032,6
Agc,,2054540290,18,,,,,,,48195,7.800000190734863,1598062464,3
Status,,23,0,1,9,1575420000,39.10,195.8,71.6,1,0,1,35.6
Status,,23,1,1,7,1575420000,45.00,312.0,57.9,1,0,1,41.5
Status,,23,2,1,8,1575420000,40.70,117.3,48.1,1,0,1,37.2
Status,,23,3,1,27,1575420000,47.20,71.0,38.5,1,0,1,43.7
Status,,23,4,1,4,1575420000,37.50,151.2,36.0,1,0,1,34.0
Status,,23,5,1,30,1575420000,37.70,292.1,29.2,1,0,1,34.2
Status,,23,6,1,16,1575420000,40.60,48.9,23.4,1,0,1,37.1
Status,,23,7,1,21,1575420000,42.40,300.5,18.6,1,0,1,38.9
Status,,23,8,1,14,1575420000,32.40,233.5,10.2,1,0,1,28.9
Status,,23,9,1,5,1575420000,24.20,328.2,4.2,0,0,1,20.7
Status,,23,10,3,3,1604812500,41.40,289.6,62.5,1,0,1,37.9
Status,,23,11,3,2,1599750000,46.20,182.1,40.8,1,0,1,42.7
Status,,23,12,3,12,1601437400,41.00,39.8,36.6,1,0,1,37.5
Status,,23,13,3,14,1598062500,29.40,257.8,21.8,1,0,1,25.9
Status,,23,14,3,4,1605375000,44.90,330.0,20.1,1,0,1,41.4
Status,,23,15,3,21,1604250000,39.80,25.2,8.3,1,0,1,36.3
Status,,23,16,6,23,1575420000,31.30,225.3,70.8,1,0,1,27.8
Status,,23,17,6,4,1575420000,44.50,305.8,59.7,1,0,1,41.0
Status,,23,18,6,19,1575420000,33.10,148.6,57.4,1,0,1,29.6
Status,,23,19,6,21,1575420000,42.50,48.5,52.4,1,0,1,39.0
Status,,23,20,6,6,1575420000,32.20,312.4,33.3,1,0,1,28.7
Status,,23,21,6,31,1575420000,32.80,226.8,18.9,1,0,1,29.3
Status,,23,22,6,29,1575420000,30.70,140.3,11.1,1,0,1,27.2
Agc,,3049241615,18,,,,,,,48195,7.800000190734863,1575420032,1
Agc,,3049241615,18,,,,,,,48195,7.800000190734863,1575420032,1
Agc,,3049241615,18,,,,,,,48195,7.800000190734863,1575420032,1
Agc,,3049241615,18,,,,,,,48195,7.800000190734863,1575420032,1
Agc,,3049241615,18,,,,,,,48195,7.800000190734863,1575420032,1
Agc,,3049241615,18,,,,,,,48195,7.800000190734863,1575420032,1
Agc,,3049241615,18,,,,,,,48195,7.800000190734863,1575420032,1
Agc,,3049241615,18,,,,,,,48195,7.800000190734863,1575420032,1
Agc,,3049241615,18,,,,,,,48195,7.800000190734863,1575420032,1
Agc,,3049241615,18,,,,,,,48195,7.800000190734863,1575420032,1
Agc,,3049241615,18,,,,,,,48195,7.800000190734863,1599750016,3
Agc,,3049241615,18,,,,,,,48195,7.800000190734863,1605374976,3
Agc,,3049241615,18,,,,,,,48195,7.800000190734863,1575420032,6
Agc,,3049241615,18,,,,,,,48195,7.800000190734863,1575420032,6
Agc,,3049241615,18,,,,,,,48195,7.800000190734863,1604812544,3
Agc,,3049241615,18,,,,,,,48195,7.800000190734863,1601437440,3
Agc,,3049241615,18,,,,,,,48195,7.800000190734863,1604249984,3
Agc,,3049241615,18,,,,,,,48195,7.800000190734863,1575420032,6
Agc,,3049241615,18,,,,,,,48195,7.800000190734863,1575420032,6
Agc,,3049241615,18,,,,,,,48195,7.800000190734863,1575420032,6
Agc,,3049241615,18,,,,,,,48195,7.800000190734863,1575420032,6
Agc,,3049241615,18,,,,,,,48195,7.800000190734863,1575420032,6
Agc,,3049241615,18,,,,,,,48195,7.800000190734863,1598062464,3
Fix,GPS,40.0288376492,-105.2447830327,1603.0,0.13,13.265306,0.0,1758759406996,0.34,180.0,3586213047431413,11.0,0,,,
Fix,FLP,40.0288376000,-105.2447830000,1586.0,0.13,28.891,0.0,1758759407263,0.34,180.0,3586213047431413,1.128371,0,,,
Status,1758759406996,23,0,1,9,1575420000,39.20,195.8,71.6,1,0,1,35.7
Status,1758759406996,23,1,1,7,1575420000,45.10,312.0,57.9,1,0,1,41.6
Status,1758759406996,23,2,1,8,1575420000,40.70,117.3,48.1,1,0,1,37.2
Status,1758759406996,23,3,1,27,1575420000,47.40,71.0,38.5,1,0,1,43.9
Status,1758759406996,23,4,1,4,1575420000,37.50,151.2,36.0,1,0,1,34.0
Status,1758759406996,23,5,1,30,1575420000,37.70,292.1,29.2,1,0,1,34.2
Status,1758759406996,23,6,1,16,1575420000,40.70,48.9,23.4,1,0,1,37.2
Status,1758759406996,23,7,1,21,1575420000,42.60,300.5,18.6,1,0,1,39.1
Status,1758759406996,23,8,1,14,1575420000,32.60,233.5,10.2,1,0,1,29.1
Status,1758759406996,23,9,1,5,1575420000,24.90,328.2,4.2,0,0,1,21.4
Status,1758759406996,23,10,3,3,1604812500,42.10,289.6,62.5,1,0,1,38.6
Status,1758759406996,23,11,3,2,1599750000,46.50,182.1,40.8,1,0,1,43.0
Status,1758759406996,23,12,3,12,1601437400,41.00,39.8,36.6,1,0,1,37.5
Status,1758759406996,23,13,3,14,1598062500,29.40,257.8,21.8,1,0,1,25.9
Status,1758759406996,23,14,3,4,1605375000,44.90,330.0,20.1,1,0,1,41.4
Status,1758759406996,23,15,3,21,1604250000,39.80,25.2,8.3,1,0,1,36.3
Status,1758759406996,23,16,6,23,1575420000,33.00,225.3,70.8,1,0,1,29.5
Status,1758759406996,23,17,6,4,1575420000,44.90,305.8,59.7,1,0,1,41.4
Status,1758759406996,23,18,6,19,1575420000,34.40,148.6,57.4,1,0,1,30.9
Status,1758759406996,23,19,6,21,1575420000,43.00,48.5,52.4,1,0,1,39.5
Status,1758759406996,23,20,6,6,1575420000,35.40,312.4,33.3,1,0,1,31.9
Status,1758759406996,23,21,6,31,1575420000,34.50,226.8,18.9,1,0,1,31.0
Status,1758759406996,23,22,6,29,1575420000,33.00,140.3,11.1,1,0,1,29.5
Raw,1758759406995,4055984055,18,,-1442794620939811840,0.0,2000017.5,,,48195,27,0.0,19,8832718,10,47.400001525878906,257.8700866699219,0.05188848078250885,17,-19384.98737882446,0.1318371742963791,1575420000,,,,0,,1,7.800000190734863,43.900001525878906,1.862645149230957,,1.862645149230957,,C,3586213047431413,0,,,,,,,,,0.000000027939677238464355,0.000000022351741790771484,-0.00000011920928955078125,-0.00000011920928955078125,135168.0,0.0,-196608.0,262144.0
Raw,1758759406995,4055984055,18,,-1442794620939811840,0.0,2000017.5,,,48195,7,0.0,19,9770860,10,45.099998474121094,-151.75965881347656,0.05778476968407631,17,-25178.643595577625,0.1360064446926117,1575420000,,,,0,,1,7.800000190734863,41.599998474121094,-10.710209608078003,,-10.710209608078003,,C,3586213047431413,0,,,,,,,,,0.000000027939677238464355,0.000000022351741790771484,-0.00000011920928955078125,-0.00000011920928955078125,135168.0,0.0,-196608.0,262144.0
Raw,1758759406995,4055984055,18,,-1442794620939811840,0.0,2000017.5,,,48195,21,0.0,19,2190117,10,42.599998474121094,65.08934020996094,0.06541035324335098,17,-14425.491998998652,0.14139848947525024,1575420000,,,,0,,1,7.800000190734863,39.099998474121094,-9.313225746154785,,-9.313225746154785,,C,3586213047431413,0,,,,,,,,,0.000000027939677238464355,0.000000022351741790771484,-0.00000011920928955078125,-0.00000011920928955078125,135168.0,0.0,-196608.0,262144.0
Raw,1758759406995,4055984055,18,,-1442794620939811840,0.0,2000017.5,,,48195,16,0.0,19,4328474,10,40.70000076293945,786.4091186523438,0.07226268202066422,17,-12074.711426467999,0.14624378085136414,1575420000,,,,0,,1,7.800000190734863,37.20000076293945,-10.710209608078003,,-10.710209608078003,,C,3586213047431413,0,,,,,,,,,0.000000027939677238464355,0.000000022351741790771484,-0.00000011920928955078125,-0.00000011920928955078125,135168.0,0.0,-196608.0,262144.0
Raw,1758759406995,4055984055,18,,-1442794620939811840,0.0,2000017.5,,,48195,8,0.0,19,11320881,10,40.70000076293945,-140.51800537109375,0.07226268202066422,17,-20571.3014513671,0.14624378085136414,1575420000,,,,0,,1,7.800000190734863,37.20000076293945,4.656612873077393,,4.656612873077393,,C,3586213047431413,0,,,,,,,,,0.000000027939677238464355,0.000000022351741790771484,-0.00000011920928955078125,-0.00000011920928955078125,135168.0,0.0,-196608.0,262144.0
Raw,1758759406995,4055984055,18,,-1442794620939811840,0.0,2000017.5,,,48195,9,0.0,19,14297267,10,39.20000076293945,333.3411560058594,0.07846274971961975,17,-19171.83355486825,0.15062785148620605,1575420000,,,,0,,1,7.800000190734863,35.70000076293945,0.46566128730773926,,0.46566128730773926,,C,3586213047431413,0,,,,,,,,,0.000000027939677238464355,0.000000022351741790771484,-0.00000011920928955078125,-0.00000011920928955078125,135168.0,0.0,-196608.0,262144.0
Raw,1758759406995,4055984055,18,,-1442794620939811840,0.0,2000017.5,,,48195,30,0.0,19,4490191,11,37.70000076293945,-357.80078125,0.08549638837575912,17,-21208.975313718693,0.15560132265090942,1575420000,,,,0,,1,7.800000190734863,34.20000076293945,4.190951585769653,,4.190951585769653,,C,3586213047431413,0,,,,,,,,,0.000000027939677238464355,0.000000022351741790771484,-0.00000011920928955078125,-0.00000011920928955078125,135168.0,0.0,-196608.0,262144.0
Raw,1758759406995,4055984055,18,,-1442794620939811840,0.0,2000017.5,,,48195,4,0.0,19,7376452,11,37.5,716.0811157226562,0.08650518953800201,17,-14170.827289793226,0.1563146561384201,1575420000,,,,0,,1,7.800000190734863,34.0,-4.656612873077393,,-4.656612873077393,,C,3586213047431413,0,,,,,,,,,0.000000027939677238464355,0.000000022351741790771484,-0.00000011920928955078125,-0.00000011920928955078125,135168.0,0.0,-196608.0,262144.0
Raw,1758759406995,4055984055,18,,-1442794620939811840,0.0,2000017.5,,,48195,14,0.0,19,19402528,15,32.599998474121094,-488.3371887207031,0.11809024214744568,17,-21596.58345517316,0.178648442029953,1575420000,,,,0,,1,7.800000190734863,29.100000381469727,-7.916241884231567,,-7.916241884231567,,C,3586213047431413,0,,,,,,,,,0.000000027939677238464355,0.000000022351741790771484,-0.00000011920928955078125,-0.00000011920928955078125,135168.0,0.0,-196608.0,262144.0
Raw,1758759406995,4055984055,18,,-1442794620939811840,0.0,2000017.5,,,48195,5,0.0,17,231254,24,24.899999618530273,-180.11822509765625,0.21835967898368835,18,-46886.8074776501,0.24954895675182343,1575420000,,,,0,,1,7.800000190734863,21.399999618530273,-10.710209608078003,,-10.710209608078003,,C,3586213047431413,0,,,,,,,,,0.000000027939677238464355,0.000000022351741790771484,-0.00000011920928955078125,-0.00000011920928955078125,135168.0,0.0,-196608.0,262144.0
Raw,1758759406995,4055984055,18,,-1442794620939811840,0.0,2000017.5,,,48195,2,0.0,51,11929233,10,46.5,794.5716552734375,0.054083287715911865,17,-434563.27286236896,0.13194207847118378,1599750000,,,,0,,3,7.800000190734863,43.0,4.656612873077392,,4.656612873077392,,C,3586213047431413,0,,,,,,,,,0.000000027939677238464355,0.000000022351741790771484,-0.00000011920928955078125,-0.00000011920928955078125,135168.0,0.0,-196608.0,262144.0
Raw,1758759406995,4055984055,18,,-1442794620939811840,0.0,2000017.5,,,48195,4,0.0,51,6270633,10,44.900001525878906,-588.8090209960938,0.058344416320323944,19,2685757.506096848,0.13462680578231812,1605375000,,,,0,,3,7.800000190734863,41.400001525878906,4.656612873077392,,4.656612873077392,,C,3586213047431413,0,,,,,,,,,0.000000027939677238464355,0.000000022351741790771484,-0.00000011920928955078125,-0.00000011920928955078125,135168.0,0.0,-196608.0,262144.0
Raw,1758759406995,4055984055,18,,-1442794620939811840,0.0,2000017.5,,,48195,4,0.0,1040,3296298,10,44.900001525878906,-121.4795913696289,0.058344416320323944,25,-18601.55124317921,0.04125533625483513,1575420000,,,,0,,6,7.800000190734863,41.400001525878906,-8.09086486697197,,-8.09086486697197,,C,3586213047431413,0,,,,,,,,,0.000000027939677238464355,0.000000022351741790771484,-0.00000011920928955078125,-0.00000011920928955078125,135168.0,0.0,-196608.0,262144.0
Raw,1758759406995,4055984055,18,,-1442794620939811840,0.0,2000017.5,,,48195,21,0.0,1040,3692237,10,43.0,439.9095153808594,0.06409229338169098,25,-16877.28524755923,0.04531966149806976,1575420000,,,,0,,6,7.800000190734863,39.5,-2.0372681319713593,,-2.0372681319713593,,C,3586213047431413,0,,,,,,,,,0.000000027939677238464355,0.000000022351741790771484,-0.00000011920928955078125,-0.00000011920928955078125,135168.0,0.0,-196608.0,262144.0
Raw,1758759406995,4055984055,18,,-1442794620939811840,0.0,2000017.5,,,48195,3,0.0,51,15898101,10,42.099998474121094,-5.672397613525391,0.0671159029006958,17,1145163.3609843098,0.1408618539571762,1604812500,,,,0,,3,7.800000190734863,38.599998474121094,4.656612873077392,,4.656612873077392,,C,3586213047431413,0,,,,,,,,,0.000000027939677238464355,0.000000022351741790771484,-0.00000011920928955078125,-0.00000011920928955078125,135168.0,0.0,-196608.0,262144.0
Raw,1758759406995,4055984055,18,,-1442794620939811840,0.0,2000017.5,,,48195,12,0.0,51,10708208,10,41.0,624.4857177734375,0.07111111283302307,25,-37484.126129586635,0.05028266832232475,1601437400,,,,0,,3,7.800000190734863,37.5,4.656612873077392,,4.656612873077392,,C,3586213047431413,0,,,,,,,,,0.000000027939677238464355,0.000000022351741790771484,-0.00000011920928955078125,-0.00000011920928955078125,135168.0,0.0,-196608.0,262144.0
Raw,1758759406995,4055984055,18,,-1442794620939811840,0.0,2000017.5,,,48195,21,0.0,51,1773338,10,39.79999923706055,296.4865417480469,0.07589038461446762,25,1014331.8721743769,0.05366209149360657,1604250000,,,,0,,3,7.800000190734863,36.29999923706055,4.656612873077392,,4.656612873077392,,C,3586213047431413,0,,,,,,,,,0.000000027939677238464355,0.000000022351741790771484,-0.00000011920928955078125,-0.00000011920928955078125,135168.0,0.0,-196608.0,262144.0
Raw,1758759406995,4055984055,18,,-1442794620939811840,0.0,2000017.5,,,48195,6,0.0,1040,3865260,13,35.400001525878906,-315.34832763671875,0.09826947748661041,18,-45315.35744083655,0.16463318467140198,1575420000,,,,0,,6,7.800000190734863,31.899999618530273,-1.57160684466362,,-1.57160684466362,,C,3586213047431413,0,,,,,,,,,0.000000027939677238464355,0.000000022351741790771484,-0.00000011920928955078125,-0.00000011920928955078125,135168.0,0.0,-196608.0,262144.0
Raw,1758759406995,4055984055,18,,-1442794620939811840,0.0,2000017.5,,,48195,31,0.0,1040,3632529,13,34.5,-379.17633056640625,0.10405827313661575,25,-25796.910656668777,0.07357960194349289,1575420000,,,,0,,6,7.800000190734863,31.0,-0.6402842700481415,,-0.6402842700481415,,C,3586213047431413,0,,,,,,,,,0.000000027939677238464355,0.000000022351741790771484,-0.00000011920928955078125,-0.00000011920928955078125,135168.0,0.0,-196608.0,262144.0
Raw,1758759406995,4055984055,18,,-1442794620939811840,0.0,2000017.5,,,48195,19,0.0,1040,3568343,13,34.400001525878906,435.8722839355469,0.10473287850618362,18,-44092.98877431464,0.16920346021652222,1575420000,,,,0,,6,7.800000190734863,30.899999618530273,-7.159542292356491,,-7.159542292356491,,C,3586213047431413,0,,,,,,,,,0.000000027939677238464355,0.000000022351741790771484,-0.00000011920928955078125,-0.00000011920928955078125,135168.0,0.0,-196608.0,262144.0
Raw,1758759406995,4055984055,18,,-1442794620939811840,0.0,2000017.5,,,48195,29,0.0,1040,3932608,14,33.0,669.2041625976562,0.11490950733423233,18,-43730.32064310588,0.1763993501663208,1575420000,,,,0,,6,7.800000190734863,29.5,-8.09086486697197,,-8.09086486697197,,C,3586213047431413,0,,,,,,,,,0.000000027939677238464355,0.000000022351741790771484,-0.00000011920928955078125,-0.00000011920928955078125,135168.0,0.0,-196608.0,262144.0
Raw,1758759406995,4055984055,18,,-1442794620939811840,0.0,2000017.5,,,48195,23,0.0,1040,3021944,14,33.0,-54.41691207885742,0.11490950733423233,18,-44892.17866562813,0.1763993501663208,1575420000,,,,0,,6,7.800000190734863,29.5,-1.57160684466362,,-1.57160684466362,,C,3586213047431413,0,,,,,,,,,0.000000027939677238464355,0.000000022351741790771484,-0.00000011920928955078125,-0.00000011920928955078125,135168.0,0.0,-196608.0,262144.0
Raw,1758759406995,4055984055,18,,-1442794620939811840,0.0,2000017.5,,,48195,14,0.0,51,6580564,18,29.399999618530273,-393.60491943359375,0.1490735113620758,16,-1031101.8903231015,0.19920861721038818,1598062500,,,,0,,3,7.800000190734863,25.899999618530273,4.656612873077392,,4.656612873077392,,C,3586213047431413,0,,,,,,,,,0.000000027939677238464355,0.000000022351741790771484,-0.00000011920928955078125,-0.00000011920928955078125,135168.0,0.0,-196608.0,262144.0
Agc,1758759406995,4055984055,18,,-1442794620939811840,0.0,2000017.5,,,48195,7.800000190734863,1575420032,1
Agc,1758759406995,4055984055,18,,-1442794620939811840,0.0,2000017.5,,,48195,7.800000190734863,1575420032,1
Agc,1758759406995,4055984055,18,,-1442794620939811840,0.0,2000017.5,,,48195,7.800000190734863,1575420032,1
Agc,1758759406995,4055984055,18,,-1442794620939811840,0.0,2000017.5,,,48195,7.800000190734863,1575420032,1
Agc,1758759406995,4055984055,18,,-1442794620939811840,0.0,2000017.5,,,48195,7.800000190734863,1575420032,1
Agc,1758759406995,4055984055,18,,-1442794620939811840,0.0,2000017.5,,,48195,7.800000190734863,1575420032,1
Agc,1758759406995,4055984055,18,,-1442794620939811840,0.0,2000017.5,,,48195,7.800000190734863,1575420032,1
Agc,1758759406995,4055984055,18,,-1442794620939811840,0.0,2000017.5,,,48195,7.800000190734863,1575420032,1
Agc,1758759406995,4055984055,18,,-1442794620939811840,0.0,2000017.5,,,48195,7.800000190734863,1575420032,1
Agc,1758759406995,4055984055,18,,-1442794620939811840,0.0,2000017.5,,,48195,7.800000190734863,1575420032,1
Agc,1758759406995,4055984055,18,,-1442794620939811840,0.0,2000017.5,,,48195,7.800000190734863,1599750016,3
Agc,1758759406995,4055984055,18,,-1442794620939811840,0.0,2000017.5,,,48195,7.800000190734863,1605374976,3
Agc,1758759406995,4055984055,18,,-1442794620939811840,0.0,2000017.5,,,48195,7.800000190734863,1575420032,6
Agc,1758759406995,4055984055,18,,-1442794620939811840,0.0,2000017.5,,,48195,7.800000190734863,1575420032,6
Agc,1758759406995,4055984055,18,,-1442794620939811840,0.0,2000017.5,,,48195,7.800000190734863,1604812544,3
Agc,1758759406995,4055984055,18,,-1442794620939811840,0.0,2000017.5,,,48195,7.800000190734863,1601437440,3
Agc,1758759406995,4055984055,18,,-1442794620939811840,0.0,2000017.5,,,48195,7.800000190734863,1604249984,3
Agc,1758759406995,4055984055,18,,-1442794620939811840,0.0,2000017.5,,,48195,7.800000190734863,1575420032,6
Agc,1758759406995,4055984055,18,,-1442794620939811840,0.0,2000017.5,,,48195,7.800000190734863,1575420032,6
Agc,1758759406995,4055984055,18,,-1442794620939811840,0.0,2000017.5,,,48195,7.800000190734863,1575420032,6
Agc,1758759406995,4055984055,18,,-1442794620939811840,0.0,2000017.5,,,48195,7.800000190734863,1575420032,6
Agc,1758759406995,4055984055,18,,-1442794620939811840,0.0,2000017.5,,,48195,7.800000190734863,1575420032,6
Agc,1758759406995,4055984055,18,,-1442794620939811840,0.0,2000017.5,,,48195,7.800000190734863,1598062464,3
Fix,GPS,40.0288209692,-105.2447671909,1602.0,0.089999996,12.755102,0.0,1758759408003,0.35,180.0,3586214051696647,11.0,0,,,
Fix,FLP,40.0288210000,-105.2447672000,1586.0,0.089999996,23.512,,1758759408267,0.35,,3586214051696647,0.87056625,0,,,
Status,1758759408003,23,0,1,9,1575420000,39.30,195.8,71.6,1,0,1,35.8
Status,1758759408003,23,1,1,7,1575420000,45.10,312.0,57.9,1,0,1,41.6
Status,1758759408003,23,2,1,8,1575420000,40.70,117.3,48.1,1,0,1,37.2
Status,1758759408003,23,3,1,27,1575420000,47.40,71.0,38.5,1,0,1,43.9
Status,1758759408003,23,4,1,4,1575420000,37.80,151.2,36.0,1,0,1,34.3
Status,1758759408003,23,5,1,30,1575420000,37.70,292.1,29.2,1,0,1,34.2
Status,1758759408003,23,6,1,16,1575420000,40.70,48.9,23.4,1,0,1,37.2
Status,1758759408003,23,7,1,21,1575420000,43.10,300.5,18.6,1,0,1,39.6
Status,1758759408003,23,8,1,14,1575420000,32.80,233.5,10.2,1,0,1,29.3
Status,1758759408003,23,9,1,5,1575420000,25.60,328.2,4.2,0,0,1,22.1
Status,1758759408003,23,10,3,3,1604812500,42.60,289.6,62.5,1,0,1,39.1
Status,1758759408003,23,11,3,2,1599750000,46.60,182.1,40.8,1,0,1,43.1
Status,1758759408003,23,12,3,12,1601437400,40.90,39.8,36.6,1,0,1,37.4
Status,1758759408003,23,13,3,14,1598062500,29.80,257.8,21.8,1,0,1,26.3
Status,1758759408003,23,14,3,4,1605375000,44.80,330.0,20.1,1,0,1,41.3
Status,1758759408003,23,15,3,21,1604250000,39.80,25.2,8.3,1,0,1,36.3
Status,1758759408003,23,16,6,23,1575420000,33.60,225.3,70.8,1,0,1,30.1
Status,1758759408003,23,17,6,4,1575420000,45.10,305.8,59.7,1,0,1,41.6
Status,1758759408003,23,18,6,19,1575420000,35.00,148.6,57.4,1,0,1,31.5
Status,1758759408003,23,19,6,21,1575420000,43.30,48.5,52.4,1,0,1,39.8
Status,1758759408003,23,20,6,6,1575420000,36.60,312.4,33.3,1,0,1,33.1
Status,1758759408003,23,21,6,31,1575420000,35.50,226.8,18.9,1,0,1,32.0
Status,1758759408003,23,22,6,29,1575420000,33.80,140.3,11.1,1,0,1,30.3
Raw,1758759408000,5060249252,18,,-1442794620942725888,0.0,2000017.5,,,48195,27,0.0,19,13097069,10,47.400001525878906,248.39613342285156,0.05188848078250885,17,-19130.95467993655,0.1318371742963791,1575420000,,,,0,,1,7.800000190734863,43.900001525878906,1.862645149230957,,1.862645149230957,,C,3586214051696647,0,,,,,,,,,0.000000027939677238464355,0.000000022351741790771484,-0.00000011920928955078125,-0.00000011920928955078125,135168.0,0.0,-196608.0,262144.0
Raw,1758759408000,5060249252,18,,-1442794620942725888,0.0,2000017.5,,,48195,7,0.0,19,14036585,10,45.099998474121094,-161.29708862304688,0.05778476968407631,17,-25335.87290521011,0.1360064446926117,1575420000,,,,0,,1,7.800000190734863,41.599998474121094,-10.710209608078003,,-10.710209608078003,,C,3586214051696647,0,,,,,,,,,0.000000027939677238464355,0.000000022351741790771484,-0.00000011920928955078125,-0.00000011920928955078125,135168.0,0.0,-196608.0,262144.0
Raw,1758759408000,5060249252,18,,-1442794620942725888,0.0,2000017.5,,,48195,21,0.0,19,6455108,10,43.099998474121094,55.567142486572266,0.06376900523900986,17,-14365.085830000418,0.14023789763450623,1575420000,,,,0,,1,7.800000190734863,39.599998474121094,-9.313225746154785,,-9.313225746154785,,C,3586214051696647,0,,,,,,,,,0.000000027939677238464355,0.000000022351741790771484,-0.00000011920928955078125,-0.00000011920928955078125,135168.0,0.0,-196608.0,262144.0
Raw,1758759408000,5060249252,18,,-1442794620942725888,0.0,2000017.5,,,48195,16,0.0,19,8591047,10,40.70000076293945,776.8572387695312,0.07226268202066422,17,-11289.910451627555,0.14624378085136414,1575420000,,,,0,,1,7.800000190734863,37.20000076293945,-10.710209608078003,,-10.710209608078003,,C,3586214051696647,0,,,,,,,,,0.000000027939677238464355,0.000000022351741790771484,-0.00000011920928955078125,-0.00000011920928955078125,135168.0,0.0,-196608.0,262144.0
Raw,1758759408000,5060249252,18,,-1442794620942725888,0.0,2000017.5,,,48195,8,0.0,19,15586570,10,40.70000076293945,-150.04745483398438,0.07226268202066422,17,-20717.402710132636,0.14624378085136414,1575420000,,,,0,,1,7.800000190734863,37.20000076293945,4.656612873077393,,4.656612873077393,,C,3586214051696647,0,,,,,,,,,0.000000027939677238464355,0.000000022351741790771484,-0.00000011920928955078125,-0.00000011920928955078125,135168.0,0.0,-196608.0,262144.0
Raw,1758759408000,5060249252,18,,-1442794620942725888,0.0,2000017.5,,,48195,9,0.0,19,18561354,10,39.29999923706055,323.9541320800781,0.07802503556013107,17,-18842.023029823642,0.15031833946704865,1575420000,,,,0,,1,7.800000190734863,35.79999923706055,0.46566128730773926,,0.46566128730773926,,C,3586214051696647,0,,,,,,,,,0.000000027939677238464355,0.000000022351741790771484,-0.00000011920928955078125,-0.00000011920928955078125,135168.0,0.0,-196608.0,262144.0
Raw,1758759408000,5060249252,18,,-1442794620942725888,0.0,2000017.5,,,48195,4,0.0,19,11639272,11,37.79999923706055,706.6898803710938,0.08499860018491745,17,-13456.632404735166,0.15524934232234955,1575420000,,,,0,,1,7.800000190734863,34.29999923706055,-4.656612873077393,,-4.656612873077393,,C,3586214051696647,0,,,,,,,,,0.000000027939677238464355,0.000000022351741790771484,-0.00000011920928955078125,-0.00000011920928955078125,135168.0,0.0,-196608.0,262144.0
Raw,1758759408000,5060249252,18,,-1442794620942725888,0.0,2000017.5,,,48195,30,0.0,19,8756594,11,37.70000076293945,-367.3565979003906,0.08549638837575912,17,-21573.21899373803,0.15560132265090942,1575420000,,,,0,,1,7.800000190734863,34.20000076293945,4.190951585769653,,4.190951585769653,,C,3586214051696647,0,,,,,,,,,0.000000027939677238464355,0.000000022351741790771484,-0.00000011920928955078125,-0.00000011920928955078125,135168.0,0.0,-196608.0,262144.0
Raw,1758759408000,5060249252,18,,-1442794620942725888,0.0,2000017.5,,,48195,14,0.0,19,3669396,15,32.79999923706055,-498.2127380371094,0.11648360639810562,17,-22092.151125776567,0.17751239240169525,1575420000,,,,0,,1,7.800000190734863,29.299999237060547,-7.916241884231567,,-7.916241884231567,,C,3586214051696647,0,,,,,,,,,0.000000027939677238464355,0.000000022351741790771484,-0.00000011920928955078125,-0.00000011920928955078125,135168.0,0.0,-196608.0,262144.0
Raw,1758759408000,5060249252,18,,-1442794620942725888,0.0,2000017.5,,,48195,5,0.0,17,497055,23,25.600000381469727,-188.24838256835938,0.20474600791931152,16,-47071.26642507633,0.23992273211479187,1575420000,,,,0,,1,7.800000190734863,22.100000381469727,-10.710209608078003,,-10.710209608078003,,C,3586214051696647,0,,,,,,,,,0.000000027939677238464355,0.000000022351741790771484,-0.00000011920928955078125,-0.00000011920928955078125,135168.0,0.0,-196608.0,262144.0
Raw,1758759408000,5060249252,18,,-1442794620942725888,0.0,2000017.5,,,48195,2,0.0,51,16191788,10,46.599998474121094,785.1192626953125,0.05383261665701866,17,-433770.2122807046,0.13176482915878296,1599750000,,,,0,,3,7.800000190734863,43.099998474121094,4.656612873077392,,4.656612873077392,,C,3586214051696647,0,,,,,,,,,0.000000027939677238464355,0.000000022351741790771484,-0.00000011920928955078125,-0.00000011920928955078125,135168.0,0.0,-196608.0,262144.0
Raw,1758759408000,5060249252,18,,-1442794620942725888,0.0,2000017.5,,,48195,4,0.0,1040,3561914,10,45.099998474121094,-130.9409637451172,0.05778476968407631,25,-18728.383763482685,0.040859609842300415,1575420000,,,,0,,6,7.800000190734863,41.599998474121094,-8.09086486697197,,-8.09086486697197,,C,3586214051696647,0,,,,,,,,,0.000000027939677238464355,0.000000022351741790771484,-0.00000011920928955078125,-0.00000011920928955078125,135168.0,0.0,-196608.0,262144.0
Raw,1758759408000,5060249252,18,,-1442794620942725888,0.0,2000017.5,,,48195,4,0.0,51,10537812,10,44.79999923706055,-598.4159545898438,0.058627303689718246,19,2685161.2892827317,0.13482683897018433,1605375000,,,,0,,3,7.800000190734863,41.29999923706055,4.656612873077392,,4.656612873077392,,C,3586214051696647,0,,,,,,,,,0.000000027939677238464355,0.000000022351741790771484,-0.00000011920928955078125,-0.00000011920928955078125,135168.0,0.0,-196608.0,262144.0
Raw,1758759408000,5060249252,18,,-1442794620942725888,0.0,2000017.5,,,48195,21,0.0,1040,3955977,10,43.29999923706055,430.2821350097656,0.063129723072052,25,-16440.462662136568,0.04463902860879898,1575420000,,,,0,,6,7.800000190734863,39.79999923706055,-2.0372681319713593,,-2.0372681319713593,,C,3586214051696647,0,,,,,,,,,0.000000027939677238464355,0.000000022351741790771484,-0.00000011920928955078125,-0.00000011920928955078125,135168.0,0.0,-196608.0,262144.0
Raw,1758759408000,5060249252,18,,-1442794620942725888,0.0,2000017.5,,,48195,3,0.0,51,163319,10,42.599998474121094,-15.124268531799316,0.06541035324335098,17,1145152.7863974783,0.13965585827827454,1604812500,,,,0,,3,7.800000190734863,39.099998474121094,4.656612873077392,,4.656612873077392,,C,3586214051696647,0,,,,,,,,,0.000000027939677238464355,0.000000022351741790771484,-0.00000011920928955078125,-0.00000011920928955078125,135168.0,0.0,-196608.0,262144.0
Raw,1758759408000,5060249252,18,,-1442794620942725888,0.0,2000017.5,,,48195,12,0.0,51,14971353,10,40.900001525878906,614.9237060546875,0.07149188965559006,25,-36861.925670253455,0.05055191367864609,1601437400,,,,0,,3,7.800000190734863,37.400001525878906,4.656612873077392,,4.656612873077392,,C,3586214051696647,0,,,,,,,,,0.000000027939677238464355,0.000000022351741790771484,-0.00000011920928955078125,-0.00000011920928955078125,135168.0,0.0,-196608.0,262144.0
Raw,1758759408000,5060249252,18,,-1442794620942725888,0.0,2000017.5,,,48195,21,0.0,51,6037555,10,39.79999923706055,286.952392578125,0.07589038461446762,25,1014624.7514141538,0.05366209149360657,1604250000,,,,0,,3,7.800000190734863,36.29999923706055,4.656612873077392,,4.656612873077392,,C,3586214051696647,0,,,,,,,,,0.000000027939677238464355,0.000000022351741790771484,-0.00000011920928955078125,-0.00000011920928955078125,135168.0,0.0,-196608.0,262144.0
Raw,1758759408000,5060249252,18,,-1442794620942725888,0.0,2000017.5,,,48195,6,0.0,1040,3131530,12,36.599998474121094,-324.8680114746094,0.09127336740493774,25,-45636.90900133801,0.06453939527273178,1575420000,,,,0,,6,7.800000190734863,33.099998474121094,-1.57160684466362,,-1.57160684466362,,C,3586214051696647,0,,,,,,,,,0.000000027939677238464355,0.000000022351741790771484,-0.00000011920928955078125,-0.00000011920928955078125,135168.0,0.0,-196608.0,262144.0
Raw,1758759408000,5060249252,18,,-1442794620942725888,0.0,2000017.5,,,48195,31,0.0,1040,3899023,13,35.5,-388.5931091308594,0.09765625,25,-26182.622593696295,0.06905273348093033,1575420000,,,,0,,6,7.800000190734863,32.0,-0.6402842700481415,,-0.6402842700481415,,C,3586214051696647,0,,,,,,,,,0.000000027939677238464355,0.000000022351741790771484,-0.00000011920928955078125,-0.00000011920928955078125,135168.0,0.0,-196608.0,262144.0
Raw,1758759408000,5060249252,18,,-1442794620942725888,0.0,2000017.5,,,48195,19,0.0,1040,3832094,13,35.0,427.0400390625,0.10078105330467224,25,-43659.666781191365,0.07126228511333466,1575420000,,,,0,,6,7.800000190734863,31.5,-7.159542292356491,,-7.159542292356491,,C,3586214051696647,0,,,,,,,,,0.000000027939677238464355,0.000000022351741790771484,-0.00000011920928955078125,-0.00000011920928955078125,135168.0,0.0,-196608.0,262144.0
Raw,1758759408000,5060249252,18,,-1442794620942725888,0.0,2000017.5,,,48195,29,0.0,1040,3195585,14,33.79999923706055,659.4161376953125,0.10892178863286972,17,-43063.46109428624,0.1721654236316681,1575420000,,,,0,,6,7.800000190734863,30.299999237060547,-8.09086486697197,,-8.09086486697197,,C,3586214051696647,0,,,,,,,,,0.000000027939677238464355,0.000000022351741790771484,-0.00000011920928955078125,-0.00000011920928955078125,135168.0,0.0,-196608.0,262144.0
Raw,1758759408000,5060249252,18,,-1442794620942725888,0.0,2000017.5,,,48195,23,0.0,1040,3287356,14,33.599998474121094,-63.521121978759766,0.11037405580282211,17,-44951.6889773589,0.1731923222541809,1575420000,,,,0,,6,7.800000190734863,30.100000381469727,-1.57160684466362,,-1.57160684466362,,C,3586214051696647,0,,,,,,,,,0.000000027939677238464355,0.000000022351741790771484,-0.00000011920928955078125,-0.00000011920928955078125,135168.0,0.0,-196608.0,262144.0
Raw,1758759408000,5060249252,18,,-1442794620942725888,0.0,2000017.5,,,48195,14,0.0,51,10847107,17,29.799999237060547,-402.1741943359375,0.14457345008850098,16,-1031501.4241697257,0.19602662324905396,1598062500,,,,0,,3,7.800000190734863,26.299999237060547,4.656612873077392,,4.656612873077392,,C,3586214051696647,0,,,,,,,,,0.000000027939677238464355,0.000000022351741790771484,-0.00000011920928955078125,-0.00000011920928955078125,135168.0,0.0,-196608.0,262144.0
Agc,1758759408000,5060249252,18,,-1442794620942725888,0.0,2000017.5,,,48195,7.800000190734863,1575420032,1
Agc,1758759408000,5060249252,18,,-1442794620942725888,0.0,2000017.5,,,48195,7.800000190734863,1575420032,1
Agc,1758759408000,5060249252,18,,-1442794620942725888,0.0,2000017.5,,,48195,7.800000190734863,1575420032,1
Agc,1758759408000,5060249252,18,,-1442794620942725888,0.0,2000017.5,,,48195,7.800000190734863,1575420032,1
Agc,1758759408000,5060249252,18,,-1442794620942725888,0.0,2000017.5,,,48195,7.800000190734863,1575420032,1
Agc,1758759408000,5060249252,18,,-1442794620942725888,0.0,2000017.5,,,48195,7.800000190734863,1575420032,1
Agc,1758759408000,5060249252,18,,-1442794620942725888,0.0,2000017.5,,,48195,7.800000190734863,1575420032,1
Agc,1758759408000,5060249252,18,,-1442794620942725888,0.0,2000017.5,,,48195,7.800000190734863,1575420032,1
Agc,1758759408000,5060249252,18,,-1442794620942725888,0.0,2000017.5,,,48195,7.800000190734863,1575420032,1
Agc,1758759408000,5060249252,18,,-1442794620942725888,0.0,2000017.5,,,48195,7.800000190734863,1575420032,1
Agc,1758759408000,5060249252,18,,-1442794620942725888,0.0,2000017.5,,,48195,7.800000190734863,1599750016,3
Agc,1758759408000,5060249252,18,,-1442794620942725888,0.0,2000017.5,,,48195,7.800000190734863,1575420032,6
Agc,1758759408000,5060249252,18,,-1442794620942725888,0.0,2000017.5,,,48195,7.800000190734863,1605374976,3
Agc,1758759408000,5060249252,18,,-1442794620942725888,0.0,2000017.5,,,48195,7.800000190734863,1575420032,6
Agc,1758759408000,5060249252,18,,-1442794620942725888,0.0,2000017.5,,,48195,7.800000190734863,1604812544,3
Agc,1758759408000,5060249252,18,,-1442794620942725888,0.0,2000017.5,,,48195,7.800000190734863,1601437440,3
Agc,1758759408000,5060249252,18,,-1442794620942725888,0.0,2000017.5,,,48195,7.800000190734863,1604249984,3
Agc,1758759408000,5060249252,18,,-1442794620942725888,0.0,2000017.5,,,48195,7.800000190734863,1575420032,6
Agc,1758759408000,5060249252,18,,-1442794620942725888,0.0,2000017.5,,,48195,7.800000190734863,1575420032,6
Agc,1758759408000,5060249252,18,,-1442794620942725888,0.0,2000017.5,,,48195,7.800000190734863,1575420032,6
Agc,1758759408000,5060249252,18,,-1442794620942725888,0.0,2000017.5,,,48195,7.800000190734863,1575420032,6
Agc,1758759408000,5060249252,18,,-1442794620942725888,0.0,2000017.5,,,48195,7.800000190734863,1575420032,6
Agc,1758759408000,5060249252,18,,-1442794620942725888,0.0,2000017.5,,,48195,7.800000190734863,1598062464,3
Fix,NLP,40.0282605000,-105.2437616000,1585.800048828125,,26.635,,1758759407275,,,3586213059000000,2.1349463,0,,,
Fix,GPS,40.0288284710,-105.2447613236,1600.0,0.06,12.755102,0.0,1758759409000,0.35,180.0,3586215048722090,11.0,0,,,
Fix,FLP,40.0288285000,-105.2447613000,1585.800048828125,0.06,12.925,,1758759409264,0.35,,3586215048722090,1.1414318,0,,,
Status,,27,0,1,9,1575420000,39.40,195.8,71.6,1,0,1,35.9
Status,,27,1,1,7,1575420000,45.00,312.0,57.9,1,0,1,41.5
Status,,27,2,1,8,1575420000,40.60,117.3,48.1,1,0,1,37.1
Status,,27,3,1,27,1575420000,47.40,71.0,38.5,1,0,1,43.9
Status,,27,4,1,4,1575420000,38.00,151.2,36.0,1,0,1,34.5
Status,,27,5,1,30,1575420000,37.70,292.1,29.2,1,0,1,34.2
Status,,27,6,1,16,1575420000,40.60,48.9,23.4,1,0,1,37.1
Status,,27,7,1,21,1575420000,43.40,300.5,18.6,1,0,1,39.9
Status,,27,8,1,14,1575420000,32.90,233.5,10.2,1,0,1,29.4
Status,,27,9,1,5,1575420000,27.40,328.2,4.2,0,0,1,23.9
Status,,27,10,3,3,1604812500,42.90,289.6,62.5,1,0,1,39.4
Status,,27,11,3,2,1599750000,46.60,182.1,40.8,1,0,1,43.1
Status,,27,12,3,12,1601437400,40.90,39.8,36.6,1,0,1,37.4
Status,,27,13,3,14,1598062500,30.10,257.8,21.8,0,0,1,26.6
Status,,27,14,3,4,1605375000,44.80,330.0,20.1,1,0,1,41.3
Status,,27,15,3,21,1604250000,39.80,25.2,8.3,1,0,1,36.3
Status,,27,16,3,13,1600875000,40.40,325.3,64.0,0,1,0,36.9
Status,,27,17,3,22,1600312400,33.00,80.8,13.6,0,1,0,29.5
Status,,27,18,3,23,1603687600,28.50,120.3,4.0,0,1,0,25.0
Status,,27,19,6,23,1575420000,33.80,225.3,70.8,1,0,1,30.3
Status,,27,20,6,4,1575420000,45.20,305.8,59.7,1,0,1,41.7
Status,,27,21,6,19,1575420000,35.30,148.6,57.4,1,0,1,31.8
Status,,27,22,6,21,1575420000,43.50,48.5,52.4,1,0,1,40.0
Status,,27,23,6,6,1575420000,37.20,312.4,33.3,1,0,1,33.7
Status,,27,24,6,31,1575420000,36.00,226.8,18.9,1,0,1,32.5
Status,,27,25,6,29,1575420000,33.80,140.3,11.1,1,0,1,30.3
Status,,27,26,6,9,1575420000,36.60,316.3,10.1,0,1,0,33.1
Raw,1758759408997,6057274604,18,,-1442794620943212288,0.0,2000017.5,,,48195,27,0.0,19,10121602,10,47.400001525878906,237.8302764892578,0.05188848078250885,25,-18888.437369097504,0.03669034317135811,1575420000,,,,0,,1,7.800000190734863,43.900001525878906,1.862645149230957,,1.862645149230957,,C,3586215048722090,0,,,,,,,,,0.000000027939677238464355,0.000000022351741790771484,-0.00000011920928955078125,-0.00000011920928955078125,135168.0,0.0,-196608.0,262144.0
Raw,1758759408997,6057274604,18,,-1442794620943212288,0.0,2000017.5,,,48195,7,0.0,19,11062483,10,45.0,-171.8776397705078,0.058063577860593796,25,-25501.76722806711,0.04105675593018532,1575420000,,,,0,,1,7.800000190734863,41.5,-10.710209608078003,,-10.710209608078003,,C,3586215048722090,0,,,,,,,,,0.000000027939677238464355,0.000000022351741790771484,-0.00000011920928955078125,-0.00000011920928955078125,135168.0,0.0,-196608.0,262144.0
Raw,1758759408997,6057274604,18,,-1442794620943212288,0.0,2000017.5,,,48195,21,0.0,19,3480297,10,43.400001525878906,45.01497268676758,0.0628136694431305,25,-14314.730049679834,0.04441554471850395,1575420000,,,,0,,1,7.800000190734863,39.900001525878906,-9.313225746154785,,-9.313225746154785,,C,3586215048722090,0,,,,,,,,,0.000000027939677238464355,0.000000022351741790771484,-0.00000011920928955078125,-0.00000011920928955078125,135168.0,0.0,-196608.0,262144.0
Raw,1758759408997,6057274604,18,,-1442794620943212288,0.0,2000017.5,,,48195,16,0.0,19,5613829,10,40.599998474121094,766.3505249023438,0.07265277206897736,25,-10520.469432345351,0.051372773945331573,1575420000,,,,0,,1,7.800000190734863,37.099998474121094,-10.710209608078003,,-10.710209608078003,,C,3586215048722090,0,,,,,,,,,0.000000027939677238464355,0.000000022351741790771484,-0.00000011920928955078125,-0.00000011920928955078125,135168.0,0.0,-196608.0,262144.0
Raw,1758759408997,6057274604,18,,-1442794620943212288,0.0,2000017.5,,,48195,8,0.0,19,12612442,10,40.599998474121094,-160.69644165039062,0.07265277206897736,25,-20872.158857091577,0.051372773945331573,1575420000,,,,0,,1,7.800000190734863,37.099998474121094,4.656612873077393,,4.656612873077393,,C,3586215048722090,0,,,,,,,,,0.000000027939677238464355,0.000000022351741790771484,-0.00000011920928955078125,-0.00000011920928955078125,135168.0,0.0,-196608.0,262144.0
Raw,1758759408997,6057274604,18,,-1442794620943212288,0.0,2000017.5,,,48195,9,0.0,19,15585624,10,39.400001525878906,313.269775390625,0.0775909498333931,25,-18524.211353625265,0.054864559322595596,1575420000,,,,0,,1,7.800000190734863,35.900001525878906,0.46566128730773926,,0.46566128730773926,,C,3586215048722090,0,,,,,,,,,0.000000027939677238464355,0.000000022351741790771484,-0.00000011920928955078125,-0.00000011920928955078125,135168.0,0.0,-196608.0,262144.0
Raw,1758759408997,6057274604,18,,-1442794620943212288,0.0,2000017.5,,,48195,4,0.0,19,8662297,11,38.0,695.97607421875,0.08401596546173096,25,-12757.358974570292,0.059407688677310944,1575420000,,,,0,,1,7.800000190734863,34.5,-4.656612873077393,,-4.656612873077393,,C,3586215048722090,0,,,,,,,,,0.000000027939677238464355,0.000000022351741790771484,-0.00000011920928955078125,-0.00000011920928955078125,135168.0,0.0,-196608.0,262144.0
Raw,1758759408997,6057274604,18,,-1442794620943212288,0.0,2000017.5,,,48195,30,0.0,19,5783188,11,37.70000076293945,-378.1394958496094,0.08549638837575912,25,-21944.64667397531,0.06045449525117874,1575420000,,,,0,,1,7.800000190734863,34.20000076293945,4.190951585769653,,4.190951585769653,,C,3586215048722090,0,,,,,,,,,0.000000027939677238464355,0.000000022351741790771484,-0.00000011920928955078125,-0.00000011920928955078125,135168.0,0.0,-196608.0,262144.0
Raw,1758759408997,6057274604,18,,-1442794620943212288,0.0,2000017.5,,,48195,14,0.0,19,696425,14,32.900001525878906,-508.8309020996094,0.11569254100322723,25,-22593.936298936285,0.08180619776248932,1575420000,,,,0,,1,7.800000190734863,29.399999618530273,-7.916241884231567,,-7.916241884231567,,C,3586215048722090,0,,,,,,,,,0.000000027939677238464355,0.000000022351741790771484,-0.00000011920928955078125,-0.00000011920928955078125,135168.0,0.0,-196608.0,262144.0
Raw,1758759408997,6057274604,18,,-1442794620943212288,0.0,2000017.5,,,48195,5,0.0,19,18523076,20,27.399999618530273,-199.17721557617188,0.1750669777393341,18,-94748.75698569081,0.21893669664859772,1575420000,,,,0,,1,7.800000190734863,23.899999618530273,-10.710209608078003,,-10.710209608078003,,C,3586215048722090,0,,,,,,,,,0.000000027939677238464355,0.000000022351741790771484,-0.00000011920928955078125,-0.00000011920928955078125,135168.0,0.0,-196608.0,262144.0
Raw,1758759408997,6057274604,18,,-1442794620943212288,0.0,2000017.5,,,48195,2,0.0,51,13214550,10,46.599998474121094,774.5072631835938,0.05383261665701866,25,-432992.5018659522,0.03806504234671593,1599750000,,,,0,,3,7.800000190734863,43.099998474121094,4.656612873077392,,4.656612873077392,,C,3586215048722090,0,,,,,,,,,0.000000027939677238464355,0.000000022351741790771484,-0.00000011920928955078125,-0.00000011920928955078125,135168.0,0.0,-196608.0,262144.0
Raw,1758759408997,6057274604,18,,-1442794620943212288,0.0,2000017.5,,,48195,4,0.0,1040,587724,10,45.20000076293945,-141.51707458496094,0.0575079508125782,25,-18864.061477266972,0.04066387191414833,1575420000,,,,0,,6,7.800000190734863,41.70000076293945,-8.09086486697197,,-8.09086486697197,,C,3586215048722090,0,,,,,,,,,0.000000027939677238464355,0.000000022351741790771484,-0.00000011920928955078125,-0.00000011920928955078125,135168.0,0.0,-196608.0,262144.0
Raw,1758759408997,6057274604,18,,-1442794620943212288,0.0,2000017.5,,,48195,4,0.0,51,7565172,10,44.79999923706055,-609.0859985351562,0.058627303689718246,17,2684559.612341466,0.13482683897018433,1605375000,,,,0,,3,7.800000190734863,41.29999923706055,4.656612873077392,,4.656612873077392,,C,3586215048722090,0,,,,,,,,,0.000000027939677238464355,0.000000022351741790771484,-0.00000011920928955078125,-0.00000011920928955078125,135168.0,0.0,-196608.0,262144.0
Raw,1758759408997,6057274604,18,,-1442794620943212288,0.0,2000017.5,,,48195,21,0.0,1040,979920,10,43.5,419.7478332519531,0.0625,25,-16016.569629915706,0.04419374838471413,1575420000,,,,0,,6,7.800000190734863,40.0,-2.0372681319713593,,-2.0372681319713593,,C,3586215048722090,0,,,,,,,,,0.000000027939677238464355,0.000000022351741790771484,-0.00000011920928955078125,-0.00000011920928955078125,135168.0,0.0,-196608.0,262144.0
Raw,1758759408997,6057274604,18,,-1442794620943212288,0.0,2000017.5,,,48195,3,0.0,51,17188736,10,42.900001525878906,-25.830442428588867,0.06441804021596909,25,1145132.724914596,0.04554999619722366,1604812500,,,,0,,3,7.800000190734863,39.400001525878906,4.656612873077392,,4.656612873077392,,C,3586215048722090,0,,,,,,,,,0.000000027939677238464355,0.000000022351741790771484,-0.00000011920928955078125,-0.00000011920928955078125,135168.0,0.0,-196608.0,262144.0
Raw,1758759408997,6057274604,18,,-1442794620943212288,0.0,2000017.5,,,48195,13,0.0,51,7229537,10,40.400001525878906,131.30807495117188,0.07344246655702591,18,-677438.2158393522,0.14556510746479034,1600875000,,,,0,,3,7.800000190734863,36.900001525878906,4.656612873077392,,4.656612873077392,,C,3586215048722090,0,,,,,,,,,0.000000027939677238464355,0.000000022351741790771484,-0.00000011920928955078125,-0.00000011920928955078125,135168.0,0.0,-196608.0,262144.0
Raw,1758759408997,6057274604,18,,-1442794620943212288,0.0,2000017.5,,,48195,12,0.0,51,11994672,10,40.900001525878906,604.39990234375,0.07149188965559006,25,-36253.88507344621,0.05055191367864609,1601437400,,,,0,,3,7.800000190734863,37.400001525878906,4.656612873077392,,4.656612873077392,,C,3586215048722090,0,,,,,,,,,0.000000027939677238464355,0.000000022351741790771484,-0.00000011920928955078125,-0.00000011920928955078125,135168.0,0.0,-196608.0,262144.0
Raw,1758759408997,6057274604,18,,-1442794620943212288,0.0,2000017.5,,,48195,21,0.0,51,3061964,10,39.79999923706055,276.62127685546875,0.07589038461446762,25,1014905.9440044356,0.05366209149360657,1604250000,,,,0,,3,7.800000190734863,36.29999923706055,4.656612873077392,,4.656612873077392,,C,3586215048722090,0,,,,,,,,,0.000000027939677238464355,0.000000022351741790771484,-0.00000011920928955078125,-0.00000011920928955078125,135168.0,0.0,-196608.0,262144.0
Raw,1758759408997,6057274604,18,,-1442794620943212288,0.0,2000017.5,,,48195,6,0.0,1040,157984,11,37.20000076293945,-335.36224365234375,0.0880521908402443,25,-45965.93726459779,0.06226170435547829,1575420000,,,,0,,6,7.800000190734863,33.70000076293945,-1.57160684466362,,-1.57160684466362,,C,3586215048722090,0,,,,,,,,,0.000000027939677238464355,0.000000022351741790771484,-0.00000011920928955078125,-0.00000011920928955078125,135168.0,0.0,-196608.0,262144.0
Raw,1758759408997,6057274604,18,,-1442794620943212288,0.0,2000017.5,,,48195,9,0.0,1040,32739,12,36.599998474121094,-431.0111083984375,0.09127336740493774,18,-93069.0248867154,0.15968623757362366,1575420000,,,,0,,6,7.800000190734863,33.099998474121094,-5.296897143125534,,-5.296897143125534,,C,3586215048722090,0,,,,,,,,,0.000000027939677238464355,0.000000022351741790771484,-0.00000011920928955078125,-0.00000011920928955078125,135168.0,0.0,-196608.0,262144.0
Raw,1758759408997,6057274604,18,,-1442794620943212288,0.0,2000017.5,,,48195,31,0.0,1040,925672,12,36.0,-399.21844482421875,0.09467455744743347,25,-26575.354910207163,0.06694438308477402,1575420000,,,,0,,6,7.800000190734863,32.5,-0.6402842700481415,,-0.6402842700481415,,C,3586215048722090,0,,,,,,,,,0.000000027939677238464355,0.000000022351741790771484,-0.00000011920928955078125,-0.00000011920928955078125,135168.0,0.0,-196608.0,262144.0
Raw,1758759408997,6057274604,18,,-1442794620943212288,0.0,2000017.5,,,48195,19,0.0,1040,856045,13,35.29999923706055,416.4828796386719,0.09888850152492523,25,-43239.128334082365,0.06992405652999878,1575420000,,,,0,,6,7.800000190734863,31.799999237060547,-7.159542292356491,,-7.159542292356491,,C,3586215048722090,0,,,,,,,,,0.000000027939677238464355,0.000000022351741790771484,-0.00000011920928955078125,-0.00000011920928955078125,135168.0,0.0,-196608.0,262144.0
Raw,1758759408997,6057274604,18,,-1442794620943212288,0.0,2000017.5,,,48195,23,0.0,1040,312934,14,33.79999923706055,-74.36972045898438,0.10892178863286972,25,-45020.301775086766,0.07701859623193741,1575420000,,,,0,,6,7.800000190734863,30.299999237060547,-1.57160684466362,,-1.57160684466362,,C,3586215048722090,0,,,,,,,,,0.000000027939677238464355,0.000000022351741790771484,-0.00000011920928955078125,-0.00000011920928955078125,135168.0,0.0,-196608.0,262144.0
Raw,1758759408997,6057274604,18,,-1442794620943212288,0.0,2000017.5,,,48195,29,0.0,1040,218761,14,33.79999923706055,648.5841674804688,0.10892178863286972,25,-42411.199426201834,0.07701859623193741,1575420000,,,,0,,6,7.800000190734863,30.299999237060547,-8.09086486697197,,-8.09086486697197,,C,3586215048722090,0,,,,,,,,,0.000000027939677238464355,0.000000022351741790771484,-0.00000011920928955078125,-0.00000011920928955078125,135168.0,0.0,-196608.0,262144.0
Raw,1758759408997,6057274604,18,,-1442794620943212288,0.0,2000017.5,,,48195,22,0.0,51,5255974,14,33.0,-336.9261474609375,0.11490950733423233,18,-1344751.2865573845,0.17491936683654785,1600312400,,,,0,,3,7.800000190734863,29.5,4.656612873077392,,4.656612873077392,,C,3586215048722090,0,,,,,,,,,0.000000027939677238464355,0.000000022351741790771484,-0.00000011920928955078125,-0.00000011920928955078125,135168.0,0.0,-196608.0,262144.0
Raw,1758759408997,6057274604,18,,-1442794620943212288,0.0,2000017.5,,,48195,14,0.0,51,7873753,17,30.100000381469727,-411.2878723144531,0.1413307636976242,18,-3495540.260827522,0.19373370707035065,1598062500,,,,0,,3,7.800000190734863,26.600000381469727,4.656612873077392,,4.656612873077392,,C,3586215048722090,0,,,,,,,,,0.000000027939677238464355,0.000000022351741790771484,-0.00000011920928955078125,-0.00000011920928955078125,135168.0,0.0,-196608.0,262144.0
Raw,1758759408997,6057274604,18,,-1442794620943212288,0.0,2000017.5,,,48195,23,0.0,51,11674443,19,28.5,-592.5697021484375,0.1599999964237213,18,2438225.4924783674,0.2066057324409485,1603687600,,,,0,,3,7.800000190734863,25.0,4.656612873077392,,4.656612873077392,,C,3586215048722090,0,,,,,,,,,0.000000027939677238464355,0.000000022351741790771484,-0.00000011920928955078125,-0.00000011920928955078125,135168.0,0.0,-196608.0,262144.0
Agc,1758759408997,6057274604,18,,-1442794620943212288,0.0,2000017.5,,,48195,7.800000190734863,1575420032,1
Agc,1758759408997,6057274604,18,,-1442794620943212288,0.0,2000017.5,,,48195,7.800000190734863,1575420032,1
Agc,1758759408997,6057274604,18,,-1442794620943212288,0.0,2000017.5,,,48195,7.800000190734863,1575420032,1
Agc,1758759408997,6057274604,18,,-1442794620943212288,0.0,2000017.5,,,48195,7.800000190734863,1575420032,1
Agc,1758759408997,6057274604,18,,-1442794620943212288,0.0,2000017.5,,,48195,7.800000190734863,1575420032,1
Agc,1758759408997,6057274604,18,,-1442794620943212288,0.0,2000017.5,,,48195,7.800000190734863,1575420032,1
Agc,1758759408997,6057274604,18,,-1442794620943212288,0.0,2000017.5,,,48195,7.800000190734863,1575420032,1
Agc,1758759408997,6057274604,18,,-1442794620943212288,0.0,2000017.5,,,48195,7.800000190734863,1575420032,1
Agc,1758759408997,6057274604,18,,-1442794620943212288,0.0,2000017.5,,,48195,7.800000190734863,1575420032,1
Agc,1758759408997,6057274604,18,,-1442794620943212288,0.0,2000017.5,,,48195,7.800000190734863,1575420032,1
Agc,1758759408997,6057274604,18,,-1442794620943212288,0.0,2000017.5,,,48195,7.800000190734863,1599750016,3
Agc,1758759408997,6057274604,18,,-1442794620943212288,0.0,2000017.5,,,48195,7.800000190734863,1575420032,6
Agc,1758759408997,6057274604,18,,-1442794620943212288,0.0,2000017.5,,,48195,7.800000190734863,1605374976,3
Agc,1758759408997,6057274604,18,,-1442794620943212288,0.0,2000017.5,,,48195,7.800000190734863,1575420032,6
Agc,1758759408997,6057274604,18,,-1442794620943212288,0.0,2000017.5,,,48195,7.800000190734863,1604812544,3
Agc,1758759408997,6057274604,18,,-1442794620943212288,0.0,2000017.5,,,48195,7.800000190734863,1600875008,3
Agc,1758759408997,6057274604,18,,-1442794620943212288,0.0,2000017.5,,,48195,7.800000190734863,1601437440,3
Agc,1758759408997,6057274604,18,,-1442794620943212288,0.0,2000017.5,,,48195,7.800000190734863,1604249984,3
Agc,1758759408997,6057274604,18,,-1442794620943212288,0.0,2000017.5,,,48195,7.800000190734863,1575420032,6
Agc,1758759408997,6057274604,18,,-1442794620943212288,0.0,2000017.5,,,48195,7.800000190734863,1575420032,6
Agc,1758759408997,6057274604,18,,-1442794620943212288,0.0,2000017.5,,,48195,7.800000190734863,1575420032,6
Agc,1758759408997,6057274604,18,,-1442794620943212288,0.0,2000017.5,,,48195,7.800000190734863,1575420032,6
Agc,1758759408997,6057274604,18,,-1442794620943212288,0.0,2000017.5,,,48195,7.800000190734863,1575420032,6
Agc,1758759408997,6057274604,18,,-1442794620943212288,0.0,2000017.5,,,48195,7.800000190734863,1575420032,6
Agc,1758759408997,6057274604,18,,-1442794620943212288,0.0,2000017.5,,,48195,7.800000190734863,1600312448,3
Agc,1758759408997,6057274604,18,,-1442794620943212288,0.0,2000017.5,,,48195,7.800000190734863,1598062464,3
Agc,1758759408997,6057274604,18,,-1442794620943212288,0.0,2000017.5,,,48195,7.800000190734863,1603687552,3
Fix,FLP,40.0288159000,-105.2447420000,1585.800048828125,0.049999997,12.372,,1758759409568,0.34,,3586215352483616,0.91305864,0,,,
Status,,26,0,1,9,1575420000,39.50,195.6,71.5,1,0,1,36.0
Status,,26,1,1,7,1575420000,45.00,312.0,57.9,1,0,1,41.5
Status,,26,2,1,8,1575420000,40.50,117.3,48.0,1,0,1,37.0
Status,,26,3,1,27,1575420000,47.40,71.0,38.4,1,0,1,43.9
Status,,26,4,1,4,1575420000,38.00,151.3,35.9,1,0,1,34.5
Status,,26,5,1,30,1575420000,37.70,292.1,29.3,1,0,1,34.2
Status,,26,6,1,16,1575420000,40.60,48.9,23.4,1,0,1,37.1
Status,,26,7,1,21,1575420000,43.40,300.4,18.6,1,0,1,39.9
Status,,26,8,1,14,1575420000,32.90,233.5,10.2,1,0,1,29.4
Status,,26,9,3,3,1604812500,42.90,289.5,62.6,1,0,1,39.4
Status,,26,10,3,2,1599750000,46.60,182.1,40.8,1,0,1,43.1
Status,,26,11,3,12,1601437400,40.80,39.9,36.6,1,0,1,37.3
Status,,26,12,3,14,1598062500,30.20,257.7,21.8,1,0,1,26.7
Status,,26,13,3,4,1605375000,44.80,330.0,20.2,1,0,1,41.3
Status,,26,14,3,21,1604250000,39.80,25.2,8.4,1,0,1,36.3
Status,,26,15,3,13,1600875000,40.50,325.4,64.1,0,1,0,37.0
Status,,26,16,3,22,1600312400,33.10,80.7,13.6,0,1,0,29.6
Status,,26,17,3,23,1603687600,28.50,120.2,4.0,0,1,0,25.0
Status,,26,18,6,23,1575420000,34.00,225.2,70.8,1,0,1,30.5
Status,,26,19,6,4,1575420000,45.20,305.7,59.8,1,0,1,41.7
Status,,26,20,6,19,1575420000,35.40,148.6,57.3,1,0,1,31.9
Status,,26,21,6,21,1575420000,43.60,48.5,52.4,1,0,1,40.1
Status,,26,22,6,6,1575420000,37.20,312.4,33.4,1,0,1,33.7
Status,,26,23,6,31,1575420000,36.10,226.8,18.9,1,0,1,32.6
Status,,26,24,6,29,1575420000,33.80,140.4,11.0,1,0,1,30.3
Status,,26,25,6,9,1575420000,37.60,316.2,10.2,0,1,0,34.1
Raw,1758759409300,6361036105,18,,-1442794620945460224,0.0,100.06922149658203,,,48195,27,0.0,16391,346627233882864,10,47.400001525878906,233.96484375,0.05188848078250885,25,-18816.771763752942,0.03669034317135811,1575420000,,,,0,,1,7.800000190734863,43.900001525878906,1.862645149230957,,1.862645149230957,,C,3586215352483616,0,12465516.07312544,-15531760.423524352,17025073.732039303,160.1795534200427,2250.1798509014034,1940.951773100116,-7796.763290000873,-0.0017141202652055654,0.000000027939677238464355,0.000000022351741790771484,-0.00000011920928955078125,-0.00000011920928955078125,135168.0,0.0,-196608.0,262144.0
Raw,1758759409300,6361036105,18,,-1442794620945460224,0.0,100.06922149658203,,,48195,7,0.0,16391,346627234824152,10,45.0,-175.78738403320312,0.058063577860593796,25,-25554.56105419896,0.04105675593018532,1575420000,,,,0,,1,7.800000190734863,41.5,-10.710209608078003,,-10.710209608078003,,C,3586215352483616,0,-11818678.533972085,-11213235.896919832,21618275.280236464,2291.4212210094543,-1244.3350935334252,582.5542012483746,-24311.015581122505,0.00011181205991306342,0.000000027939677238464355,0.000000022351741790771484,-0.00000011920928955078125,-0.00000011920928955078125,135168.0,0.0,-196608.0,262144.0
Raw,1758759409300,6361036105,18,,-1442794620945460224,0.0,100.06922149658203,,,48195,21,0.0,16391,346627227241759,10,43.400001525878906,40.978580474853516,0.0628136694431305,25,-14301.653359177602,0.04441554471850395,1575420000,,,,0,,1,7.800000190734863,39.900001525878906,-9.313225746154785,,-9.313225746154785,,C,3586215352483616,0,-19663181.35034559,1865723.4825401474,17759299.7470129,-1790.1066730088962,-1381.059344734749,-1836.2427055397343,76265.38976728212,0.005628013153909706,0.000000027939677238464355,0.000000022351741790771484,-0.00000011920928955078125,-0.00000011920928955078125,135168.0,0.0,-196608.0,262144.0
Raw,1758759409300,6361036105,18,,-1442794620945460224,0.0,100.06922149658203,,,48195,16,0.0,16391,346627229374548,10,40.599998474121094,762.2109375,0.07265277206897736,25,-10288.324453716305,0.051372773945331573,1575420000,,,,0,,1,7.800000190734863,37.099998474121094,-10.710209608078003,,-10.710209608078003,,C,3586215352483616,0,14673353.347830176,-7078930.912986773,20689370.856002178,2113.924693992977,1687.0777840194019,-863.2210833870537,33273.26587561445,0.0016312025763909332,0.000000027939677238464355,0.000000022351741790771484,-0.00000011920928955078125,-0.00000011920928955078125,135168.0,0.0,-196608.0,262144.0
Raw,1758759409300,6361036105,18,,-1442794620945460224,0.0,100.06922149658203,,,48195,8,0.0,16391,346627236374112,10,40.5,-164.5679473876953,0.07304602116346359,25,-20921.529490645436,0.051650840789079666,1575420000,,,,0,,1,7.800000190734863,37.0,4.656612873077393,,4.656612873077393,,C,3586215352483616,0,6569171.740339963,-23698490.48769674,9252474.998734633,344.13156319897814,1212.6006788389668,2859.6508187229533,159023.58752204588,-0.001426554226782173,0.000000027939677238464355,0.000000022351741790771484,-0.00000011920928955078125,-0.00000011920928955078125,135168.0,0.0,-196608.0,262144.0
Raw,1758759409300,6361036105,18,,-1442794620945460224,0.0,100.06922149658203,,,48195,9,0.0,16391,346627239346813,10,39.5,309.24072265625,0.07716049253940582,25,-18429.646243940668,0.054560184478759766,1575420000,,,,0,,1,7.800000190734863,36.0,0.46566128730773926,,0.46566128730773926,,C,3586215352483616,0,-7895670.782701969,-22372835.048332024,11761218.56340457,260.63707084895015,-1508.5290013603963,-2678.405107300525,223315.70787172407,0.0011645725171547383,0.000000027939677238464355,0.000000022351741790771484,-0.00000011920928955078125,-0.00000011920928955078125,135168.0,0.0,-196608.0,262144.0
