# 
# Header Description:
# 
# Version: v3.1.1.1 Platform: 16 Manufacturer: Google Model: Pixel 8a GNSS Hardware Model Name: S.LSI,K041,SPOTNAV_4.15.4_3_250220_R2_258342
# 
# Raw,utcTimeMillis,TimeNanos,LeapSecond,TimeUncertaintyNanos,FullBiasNanos,BiasNanos,BiasUncertaintyNanos,DriftNanosPerSecond,DriftUncertaintyNanosPerSecond,HardwareClockDiscontinuityCount,Svid,TimeOffsetNanos,State,ReceivedSvTimeNanos,ReceivedSvTimeUncertaintyNanos,Cn0DbHz,PseudorangeRateMetersPerSecond,PseudorangeRateUncertaintyMetersPerSecond,AccumulatedDeltaRangeState,AccumulatedDeltaRangeMeters,AccumulatedDeltaRangeUncertaintyMeters,CarrierFrequencyHz,CarrierCycles,CarrierPhase,CarrierPhaseUncertainty,MultipathIndicator,SnrInDb,ConstellationType,AgcDb,BasebandCn0DbHz,FullInterSignalBiasNanos,FullInterSignalBiasUncertaintyNanos,SatelliteInterSignalBiasNanos,SatelliteInterSignalBiasUncertaintyNanos,CodeType,ChipsetElapsedRealtimeNanos,IsFullTracking,SvPositionEcefXMeters,SvPositionEcefYMeters,SvPositionEcefZMeters,SvVelocityEcefXMetersPerSecond,SvVelocityEcefYMetersPerSecond,SvVelocityEcefZMetersPerSecond,SvClockBiasMeters,SvClockDriftMetersPerSecond,KlobucharAlpha0,KlobucharAlpha1,KlobucharAlpha2,KlobucharAlpha3,KlobucharBeta0,KlobucharBeta1,KlobucharBeta2,KlobucharBeta3
# 
# UncalAccel,utcTimeMillis,elapsedRealtimeNanos,UncalAccelXMps2,UncalAccelYMps2,UncalAccelZMps2,BiasXMps2,BiasYMps2,BiasZMps2,CalibrationAccuracy
# 
# Accel,utcTimeMillis,elapsedRealtimeNanos,AccelXMps2,AccelYMps2,AccelZMps2,CalibrationAccuracy
# 
# UncalGyro,utcTimeMillis,elapsedRealtimeNanos,UncalGyroXRadPerSec,UncalGyroYRadPerSec,UncalGyroZRadPerSec,DriftXRadPerSec,DriftYRadPerSec,DriftZRadPerSec,CalibrationAccuracy
# 
# Gyro,utcTimeMillis,elapsedRealtimeNanos,GyroXRadPerSec,GyroYRadPerSec,GyroZRadPerSec,CalibrationAccuracy
# 
# UncalMag,utcTimeMillis,elapsedRealtimeNanos,UncalMagXMicroT,UncalMagYMicroT,UncalMagZMicroT,BiasXMicroT,BiasYMicroT,BiasZMicroT,CalibrationAccuracy
# 
# Mag,utcTimeMillis,elapsedRealtimeNanos,MagXMicroT,MagYMicroT,MagZMicroT,CalibrationAccuracy
# 
# Pressure,utcTimeMillis,elapsedRealtimeNanos,PressureHpa,CalibrationAccuracy
# 
# OrientationDeg,utcTimeMillis,elapsedRealtimeNanos,yawDeg,rollDeg,pitchDeg,CalibrationAccuracy
# 
# Fix,Provider,LatitudeDegrees,LongitudeDegrees,AltitudeMeters,SpeedMps,AccuracyMeters,BearingDegrees,UnixTimeMillis,SpeedAccuracyMps,BearingAccuracyDegrees,elapsedRealtimeNanos,VerticalAccuracyMeters,MockLocation,NumberOfUsedSignals,VerticalSpeedAccuracyMps,SolutionType
# 
# Nav,Svid,Type,Status,MessageId,Sub-messageId,Data(Bytes)
# 
# Status,UnixTimeMillis,SignalCount,SignalIndex,ConstellationType,Svid,CarrierFrequencyHz,Cn0DbHz,AzimuthDegrees,ElevationDegrees,UsedInFix,HasAlmanacData,HasEphemerisData,BasebandCn0DbHz
# 
# Agc,utcTimeMillis,TimeNanos,LeapSecond,TimeUncertaintyNanos,FullBiasNanos,BiasNanos,BiasUncertaintyNanos,DriftNanosPerSecond,DriftUncertaintyNanosPerSecond,HardwareClockDiscontinuityCount,AgcDb,CarrierFrequencyHz,ConstellationType
# 
Fix,FLP,40.0074504000,-105.2631875000,1629.300048828125,0.11964255,4.285,295.02557,1758227886022,0.55,180.0,3054681579156625,1.0458012,0,,,
Fix,GPS,40.0074497564,-105.2631855849,1642.0,0.14999999,2.5510204,295.8,1758227887000,0.51,180.0,3054682579157872,5.0,0,,,
Fix,FLP,40.0074500000,-105.2631861000,1629.300048828125,0.14986211,3.163,295.00232,1758227887023,0.51,180.0,3054682579157872,1.05318,0,,,
Status,1758227887000,18,0,1,31,1575420000,21.70,44.5,70.2,0,0,1,18.2
Status,1758227887000,18,1,1,26,1575420000,20.60,129.2,48.0,0,0,1,17.1
Status,1758227887000,18,2,1,28,1575420000,37.40,48.9,38.2,1,0,1,33.9
Status,1758227887000,18,3,1,4,1575420000,19.80,294.6,35.6,0,0,1,16.3
Status,1758227887000,18,4,1,1,1575420000,19.00,239.5,27.7,0,0,1,15.5
Status,1758227887000,18,5,1,16,1575420000,19.20,165.6,20.3,0,0,1,15.7
Status,1758227887000,18,6,1,32,1575420000,34.30,92.0,14.8,1,0,1,30.8
Status,1758227887000,18,7,3,3,1604812500,26.40,336.4,51.1,1,0,1,22.9
Status,1758227887000,18,8,3,2,1599750000,24.80,82.2,49.4,1,0,1,21.3
Status,1758227887000,18,9,3,12,1601437400,32.60,47.1,48.2,1,0,1,29.1
Status,1758227887000,18,10,3,19,1603687600,21.40,308.8,14.6,0,0,1,17.9
Status,1758227887000,18,11,3,1,1602562600,31.20,112.5,7.7,1,0,1,27.7
Status,1758227887000,18,12,6,8,1575420000,28.70,60.8,55.2,1,0,1,25.2
Status,1758227887000,18,13,6,2,1575420000,31.90,83.4,37.3,1,0,1,28.4
Status,1758227887000,18,14,6,30,1575420000,32.00,147.9,29.8,1,0,1,28.5
Status,1758227887000,18,15,6,33,1575420000,21.90,322.6,13.3,1,0,1,18.4
Status,1758227887000,18,16,6,25,1575420000,22.80,35.5,9.7,0,0,1,19.3
Status,1758227887000,18,17,6,3,1575420000,20.80,86.9,9.0,0,0,1,17.3
Raw,1758227887000,119984331541,18,,-1442262985015668480,0.0,100.06922149658203,,,48104,28,0.0,16399,419904925449865,11,37.400001525878906,891.9253540039062,0.08701629191637039,25,-86286.55427987673,0.06152921915054321,1575420000,,,,0,,1,7.800000190734863,33.900001525878906,-9.313225746154785,,-9.313225746154785,,C,3054682579157872,0,10585345.33202627,-11189023.191112194,21634279.280396678,2322.349103270822,1468.8090630752156,-374.77686329613,-191416.37196119357,0.000022153282770887017,0.000000020489096641540527,0.000000014901161193847656,-0.00000011920928955078125,-0.00000011920928955078125,124928.0,16384.0,-262144.0,262144.0
Raw,1758227887000,119984331541,18,,-1442262985015668480,0.0,100.06922149658203,,,48104,32,0.0,16399,419904919043353,13,34.29999923706055,858.7518920898438,0.10541407018899918,25,-76752.81069723377,0.07453829050064087,1575420000,,,,0,,1,7.800000190734863,30.799999237060547,0.9313225746154785,,0.9313225746154785,,C,3054682579157872,0,19851250.031670596,-15979421.806954455,7360458.471484983,925.5205015902175,-182.86177457177092,-3012.7837737631853,-95902.87706996164,0.003991056408267468,0.000000020489096641540527,0.000000014901161193847656,-0.00000011920928955078125,-0.00000011920928955078125,124928.0,16384.0,-262144.0,262144.0
Raw,1758227887000,119984331541,18,,-1442262985015668480,0.0,100.06922149658203,,,48104,31,0.0,16399,419904932386247,32,21.700000762939453,624.0892333984375,0.3018958866596222,16,-106872.89171901671,0.30861741304397583,1575420000,,,,0,,1,7.800000190734863,18.200000762939453,-13.0385160446167,,-13.0385160446167,,C,3054682579157872,0,358967.5884335749,-16990471.61721023,20057592.950191494,2229.281041159111,1378.957941638514,1146.0989455014158,-57406.2953240225,-0.000523857117514126,0.000000020489096641540527,0.000000014901161193847656,-0.00000011920928955078125,-0.00000011920928955078125,124928.0,16384.0,-262144.0,262144.0
Raw,1758227887000,119984331541,18,,-1442262985015668480,0.0,100.06922149658203,,,48104,26,0.0,16399,419904929031299,35,20.600000381469727,35.753692626953125,0.3419855535030365,16,-617164.90455573,0.33696481585502625,1575420000,,,,0,,1,7.800000190734863,17.100000381469727,6.51925802230835,,6.51925802230835,,C,3054682579157872,0,4596411.924106206,-24813351.40930948,7392583.564581316,432.110074454768,965.6563101112141,2931.380917028853,-78830.87884809669,-0.0015849181363591924,0.000000020489096641540527,0.000000014901161193847656,-0.00000011920928955078125,-0.00000011920928955078125,124928.0,16384.0,-262144.0,262144.0
Raw,1758227887000,119984331541,18,,-1442262985015668480,0.0,100.06922149658203,,,48104,16,0.0,16391,419904921729558,40,19.200000762939453,-350.8594055175781,0.40569597482681274,16,-1431639.44230239,0.3820144534111023,1575420000,,,,0,,1,7.800000190734863,15.699999809265137,-10.710209608078003,,-10.710209608078003,,C,3054682579157872,0,-1280471.4043812617,-25453031.94154016,-6978121.746428169,420.71343322521363,-797.2542742104278,3030.8843734406214,31968.779792406967,0.0019723534351214767,0.000000020489096641540527,0.000000014901161193847656,-0.00000011920928955078125,-0.00000011920928955078125,124928.0,16384.0,-262144.0,262144.0
Raw,1758227887000,119984331541,18,,-1442262985015668480,0.0,100.06922149658203,,,48104,4,0.0,16391,419904925281274,38,19.799999237060547,-69.55646514892578,0.37637853622436523,16,-244836.6289692109,0.3612841069698334,1575420000,,,,0,,1,7.800000190734863,16.299999237060547,-4.656612873077393,,-4.656612873077393,,C,3054682579157872,0,-18580140.40158954,-5322314.828559004,18310082.421011273,2047.2733975494962,-1083.8691747791397,1748.366063157004,2499.5217501697603,0.0012980646133655682,0.000000020489096641540527,0.000000014901161193847656,-0.00000011920928955078125,-0.00000011920928955078125,124928.0,16384.0,-262144.0,262144.0
Raw,1758227887000,119984331541,18,,-1442262985015668480,0.0,100.06922149658203,,,48104,1,0.0,16391,419904923585596,41,19.0,828.875732421875,0.416233092546463,16,-1703442.0247501615,0.38946524262428284,1575420000,,,,0,,1,7.800000190734863,15.5,-8.847564458847046,,-8.847564458847046,,C,3054682579157872,0,-22129199.930208683,-14418127.353629248,2990318.5557933287,-128.64909062989145,-454.38820144534526,-3139.5886071075006,104028.55027202537,0.001064512151060626,0.000000020489096641540527,0.000000014901161193847656,-0.00000011920928955078125,-0.00000011920928955078125,124928.0,16384.0,-262144.0,262144.0
Raw,1758227887000,119984331541,18,,-1442262985015668480,0.0,100.06922149658203,,,48104,30,0.0,19464,419904913436633,15,32.0,-141.45657348632812,0.12311480194330215,25,-238045.58462274735,0.08705447614192963,1575420000,,,,0,,6,7.800000190734863,28.5,-0.5677152081777268,,-0.5677152081777268,,C,3054682579157872,0,4381609.844909516,-29185078.667943362,-2209685.8243431887,-8.681122625466045,-227.47811499065375,2995.1595490518853,-62753.09507258496,-0.012359521722828504,0.000000020489096641540527,0.000000014901161193847656,-0.00000011920928955078125,-0.00000011920928955078125,124928.0,16384.0,-262144.0,262144.0
Raw,1758227887000,119984331541,18,,-1442262985015668480,0.0,100.06922149658203,,,48104,2,0.0,19464,419904915892930,15,31.899999618530273,272.0414123535156,0.12398333847522736,25,-193883.58365678097,0.08766862004995346,1575420000,,,,0,,6,7.800000190734863,28.399999618530273,-4.293005506639641,,-4.293005506639641,,C,3054682579157872,0,15259525.597371668,-19879551.04033365,15739966.416600097,-363.6570793960979,1537.4528853157876,2295.4747213178025,75183.41253817306,0.0008407269779127091,0.000000020489096641540527,0.000000014901161193847656,-0.00000011920928955078125,-0.00000011920928955078125,124928.0,16384.0,-262144.0,262144.0
Raw,1758227887000,119984331541,18,,-1442262985015668480,0.0,100.06922149658203,,,48104,1,0.0,32995,85086920568466,16,31.200000762939453,966.539794921875,0.13032881915569305,25,6782606.703115654,0.09215550869703293,1602562600,,,,0,,3,7.800000190734863,27.700000762939453,13.038516044616697,,13.038516044616697,,C,3054682579157872,0,17572208.680623125,-18478205.79599357,-827268.3720906604,-207.9397309894266,-38.9527230265237,-3574.8094733661355,41990.06929465045,0.0002726596521824831,0.000000020489096641540527,0.000000014901161193847656,-0.00000011920928955078125,-0.00000011920928955078125,124928.0,16384.0,-262144.0,262144.0
Raw,1758227887000,119984331541,18,,-1442262985015668480,0.0,100.06922149658203,,,48104,12,0.0,32995,85086931914614,15,32.599998474121094,769.2041625976562,0.11809024214744568,25,-310389.79339361866,0.08350160717964172,1601437400,,,,0,,3,7.800000190734863,29.100000381469727,13.038516044616697,,13.038516044616697,,C,3054682579157872,0,6819858.744287236,-12846830.02282177,20978851.771890026,719.9853420327448,2774.249132390514,1467.3748669632757,17784.802470186514,0.0002726596521824831,0.000000020489096641540527,0.000000014901161193847656,-0.00000011920928955078125,-0.00000011920928955078125,124928.0,16384.0,-262144.0,262144.0
Raw,1758227887000,119984331541,18,,-1442262985015668480,0.0,100.06922149658203,,,48104,8,0.0,19456,419904918924166,19,28.700000762939453,563.9772338867188,0.15747039020061493,25,-162069.72877008803,0.11134731024503708,1575420000,,,,0,,6,7.800000190734863,25.200000762939453,-5.689989368562859,,-5.689989368562859,,C,3054682579157872,0,7464393.065182653,-18396101.363557093,21950133.25770914,2073.071704344434,-748.014118393209,-1329.9025941025857,-161034.89500680962,-0.0020018070354126394,0.000000020489096641540527,0.000000014901161193847656,-0.00000011920928955078125,-0.00000011920928955078125,124928.0,16384.0,-262144.0,262144.0
Raw,1758227887000,119984331541,18,,-1442262985015668480,0.0,100.06922149658203,,,48104,3,0.0,32995,85086932496676,22,26.399999618530273,-5.68758487701416,0.19069050252437592,16,7084892.005776886,0.2282414436340332,1604812500,,,,0,,3,7.800000190734863,22.899999618530273,13.038516044616697,,13.038516044616697,,C,3054682579157872,0,-7388843.850769363,-7829076.805812947,23164575.044224724,2215.4509997136865,-2256.4684946149346,-62.032396201660546,38936.979202171344,0.0002726596521824831,0.000000020489096641540527,0.000000014901161193847656,-0.00000011920928955078125,-0.00000011920928955078125,124928.0,16384.0,-262144.0,262144.0
Raw,1758227887000,119984331541,18,,-1442262985015668480,0.0,100.06922149658203,,,48104,2,0.0,32867,85086932172244,24,24.799999237060547,622.383544921875,0.22041483223438263,16,-30555159.43053501,0.24955511093139648,1599750000,,,,0,,3,7.800000190734863,21.299999237060547,13.038516044616697,,13.038516044616697,,C,3054682579157872,0,8548586.789149076,-18481302.343859732,15352715.66618541,1382.520479006175,-1586.6139701667557,-2692.95423655346,-7048.3929924448485,0.0002726596521824831,0.000000020489096641540527,0.000000014901161193847656,-0.00000011920928955078125,-0.00000011920928955078125,124928.0,16384.0,-262144.0,262144.0
Raw,1758227887000,119984331541,18,,-1442262985015668480,0.0,100.06922149658203,,,48104,33,0.0,19456,419904908304148,31,21.899999618530273,96.71619415283203,0.29536861181259155,16,-1065928.7429873243,0.30400198698043823,1575420000,,,,0,,6,7.800000190734863,18.399999618530273,-5.689989368562859,,-5.689989368562859,,C,3054682579157872,0,-14612985.188431058,8048665.106255422,24456322.717695236,-1859.398960056973,-1605.7137735658132,-583.8852027069823,2461.439643531618,-0.00021662031576852314,0.000000020489096641540527,0.000000014901161193847656,-0.00000011920928955078125,-0.00000011920928955078125,124928.0,16384.0,-262144.0,262144.0
Raw,1758227887000,119984331541,18,,-1442262985015668480,0.0,100.06922149658203,,,48104,3,0.0,19456,419904906597151,34,20.799999237060547,769.367919921875,0.3341241180896759,16,-205187.4909097855,0.33140599727630615,1575420000,,,,0,,6,7.800000190734863,17.299999237060547,2.2262525156687087,,2.2262525156687087,,C,3054682579157872,0,24662548.628134966,-14300652.602766708,7981137.402674758,736.5065714705194,-323.84069322139817,-2849.9213097517954,-65175.121413046,-0.0006943163098185323,0.000000020489096641540527,0.000000014901161193847656,-0.00000011920928955078125,-0.00000011920928955078125,124928.0,16384.0,-262144.0,262144.0
Raw,1758227887000,119984331541,18,,-1442262985015668480,0.0,100.06922149658203,,,48104,19,0.0,32867,85086922835875,33,21.399999618530273,471.9351806640625,0.3121001422405243,16,19853788.503190752,0.3141557276248932,1603687600,,,,0,,3,7.800000190734863,17.899999618530273,13.038516044616697,,13.038516044616697,,C,3054682579157872,0,-16933281.40253691,4224034.843664865,18574136.642524455,-2464.9117082951548,-642.9692933779095,-2106.3465547574046,-5890.391218013765,-0.0016359579130948987,0.000000020489096641540527,0.000000014901161193847656,-0.00000011920928955078125,-0.00000011920928955078125,124928.0,16384.0,-262144.0,262144.0
Raw,1758227887000,119984331541,18,,-1442262985015668480,0.0,100.06922149658203,,,48104,25,0.0,19456,419904907042602,29,22.799999237060547,726.2272338867188,0.2684636116027832,16,-208098.77541239499,0.28497743606567383,1575420000,,,,0,,6,7.800000190734863,19.299999237060547,2.2262525156687087,,2.2262525156687087,,C,3054682579157872,0,16922826.047782075,1488095.8626704426,24248221.34154148,-484.76860231897865,2381.252707853758,192.62266553853857,6139.968421148036,0.00009364333163830452,0.000000020489096641540527,0.000000014901161193847656,-0.00000011920928955078125,-0.00000011920928955078125,124928.0,16384.0,-262144.0,262144.0
Agc,1758227887000,119984331541,18,,-1442262985015668480,0.0,100.06922149658203,,,48104,7.800000190734863,1575420032,1
Agc,1758227887000,119984331541,18,,-1442262985015668480,0.0,100.06922149658203,,,48104,7.800000190734863,1575420032,1
Agc,1758227887000,119984331541,18,,-1442262985015668480,0.0,100.06922149658203,,,48104,7.800000190734863,1575420032,1
Agc,1758227887000,119984331541,18,,-1442262985015668480,0.0,100.06922149658203,,,48104,7.800000190734863,1575420032,1
Agc,1758227887000,119984331541,18,,-1442262985015668480,0.0,100.06922149658203,,,48104,7.800000190734863,1575420032,1
Agc,1758227887000,119984331541,18,,-1442262985015668480,0.0,100.06922149658203,,,48104,7.800000190734863,1575420032,1
Agc,1758227887000,119984331541,18,,-1442262985015668480,0.0,100.06922149658203,,,48104,7.800000190734863,1575420032,1
Agc,1758227887000,119984331541,18,,-1442262985015668480,0.0,100.06922149658203,,,48104,7.800000190734863,1575420032,6
Agc,1758227887000,119984331541,18,,-1442262985015668480,0.0,100.06922149658203,,,48104,7.800000190734863,1575420032,6
Agc,1758227887000,119984331541,18,,-1442262985015668480,0.0,100.06922149658203,,,48104,7.800000190734863,1602562560,3
Agc,1758227887000,119984331541,18,,-1442262985015668480,0.0,100.06922149658203,,,48104,7.800000190734863,1601437440,3
Agc,1758227887000,119984331541,18,,-1442262985015668480,0.0,100.06922149658203,,,48104,7.800000190734863,1575420032,6
Agc,1758227887000,119984331541,18,,-1442262985015668480,0.0,100.06922149658203,,,48104,7.800000190734863,1604812544,3
Agc,1758227887000,119984331541,18,,-1442262985015668480,0.0,100.06922149658203,,,48104,7.800000190734863,1599750016,3
Agc,1758227887000,119984331541,18,,-1442262985015668480,0.0,100.06922149658203,,,48104,7.800000190734863,1575420032,6
Agc,1758227887000,119984331541,18,,-1442262985015668480,0.0,100.06922149658203,,,48104,7.800000190734863,1575420032,6
Agc,1758227887000,119984331541,18,,-1442262985015668480,0.0,100.06922149658203,,,48104,7.800000190734863,1603687552,3
Agc,1758227887000,119984331541,18,,-1442262985015668480,0.0,100.06922149658203,,,48104,7.800000190734863,1575420032,6
Fix,GPS,40.0074491696,-105.2631834894,1641.0,0.13,3.5714285,295.8,1758227888000,0.56,180.0,3054683579159115,5.0,0,,,
Fix,FLP,40.0074494000,-105.2631842000,1629.300048828125,0.13008799,2.347,294.99503,1758227888023,0.56,180.0,3054683579159115,1.0567257,0,,,
Status,1758227888000,18,0,1,31,1575420000,22.00,44.5,70.2,0,0,1,18.5
Status,1758227888000,18,1,1,26,1575420000,20.70,129.2,48.0,0,0,1,17.2
Status,1758227888000,18,2,1,28,1575420000,37.50,48.9,38.2,1,0,1,34.0
Status,1758227888000,18,3,1,4,1575420000,19.60,294.6,35.6,0,0,1,16.1
Status,1758227888000,18,4,1,1,1575420000,18.90,239.5,27.7,0,0,1,15.4
Status,1758227888000,18,5,1,16,1575420000,19.20,165.6,20.3,0,0,1,15.7
Status,1758227888000,18,6,1,32,1575420000,34.60,92.0,14.8,1,0,1,31.1
Status,1758227888000,18,7,3,3,1604812500,26.50,336.4,51.1,1,0,1,23.0
Status,1758227888000,18,8,3,2,1599750000,25.00,82.2,49.4,1,0,1,21.5
Status,1758227888000,18,9,3,12,1601437400,32.50,47.1,48.2,1,0,1,29.0
Status,1758227888000,18,10,3,19,1603687600,21.20,308.8,14.6,0,0,1,17.7
Status,1758227888000,18,11,3,1,1602562600,31.30,112.5,7.7,1,0,1,27.8
Status,1758227888000,18,12,6,8,1575420000,29.00,60.8,55.2,1,0,1,25.5
Status,1758227888000,18,13,6,2,1575420000,31.90,83.4,37.3,1,0,1,28.4
Status,1758227888000,18,14,6,30,1575420000,32.20,147.9,29.8,1,0,1,28.7
Status,1758227888000,18,15,6,33,1575420000,21.90,322.6,13.3,1,0,1,18.4
Status,1758227888000,18,16,6,25,1575420000,22.40,35.5,9.7,0,0,1,18.9
Status,1758227888000,18,17,6,3,1575420000,20.70,86.9,9.0,0,0,1,17.2
Raw,1758227888000,120984332824,18,,-1442262985015667200,0.0,100.06922149658203,,,48104,28,0.0,16399,419905925448160,11,37.5,891.1786499023438,0.08650518953800201,25,-85394.95906401551,0.061167821288108826,1575420000,,,,0,,1,7.800000190734863,34.0,-9.313225746154785,,-9.313225746154785,,C,3054683579159115,0,10587667.699801793,-11187554.464624096,21633904.27398095,2322.3943570254664,1468.6489165119958,-375.2372455873925,-191416.3719390375,0.000022158928913995624,0.000000020489096641540527,0.000000014901161193847656,-0.00000011920928955078125,-0.00000011920928955078125,124928.0,16384.0,-262144.0,262144.0
Raw,1758227888000,120984332824,18,,-1442262985015667200,0.0,100.06922149658203,,,48104,32,0.0,16399,419905919041761,13,34.599998474121094,858.021240234375,0.1033901646733284,25,-75894.37205742113,0.07310718297958374,1575420000,,,,0,,1,7.800000190734863,31.100000381469727,0.9313225746154785,,0.9313225746154785,,C,3054683579159115,0,19852175.37814189,-15979604.60774988,7357445.613896244,925.1753875654047,-182.74038921247683,-3012.940986124279,-95902.8730789744,0.003990930810687132,0.000000020489096641540527,0.000000014901161193847656,-0.00000011920928955078125,-0.00000011920928955078125,124928.0,16384.0,-262144.0,262144.0
Raw,1758227888000,120984332824,18,,-1442262985015667200,0.0,100.06922149658203,,,48104,31,0.0,16399,419905932385444,31,22.0,621.6290283203125,0.29218408465385437,16,-106250.42776211258,0.30175018310546875,1575420000,,,,0,,1,7.800000190734863,18.5,-13.0385160446167,,-13.0385160446167,,C,3054683579159115,0,361196.96524840593,-16989092.68177704,20058738.828188945,2229.4761617199283,1378.9151306476715,1145.6588856004616,-57406.29584785287,-0.0005238044614088722,0.000000020489096641540527,0.000000014901161193847656,-0.00000011920928955078125,-0.00000011920928955078125,124928.0,16384.0,-262144.0,262144.0
Raw,1758227888000,120984332824,18,,-1442262985015667200,0.0,100.06922149658203,,,48104,26,0.0,16399,419905929032432,35,20.700000762939453,35.35721206665039,0.33802053332328796,16,-617129.3068025862,0.3341611623764038,1575420000,,,,0,,1,7.800000190734863,17.200000762939453,6.51925802230835,,6.51925802230835,,C,3054683579159115,0,4596844.066931404,-24812385.5774029,7395514.8677600855,432.17460392284175,966.0053103226576,2931.2187874100537,-78830.88043303882,-0.001584962519700639,0.000000020489096641540527,0.000000014901161193847656,-0.00000011920928955078125,-0.00000011920928955078125,124928.0,16384.0,-262144.0,262144.0
Raw,1758227888000,120984332824,18,,-1442262985015667200,0.0,100.06922149658203,,,48104,16,0.0,16391,419905921732003,40,19.200000762939453,-351.7371826171875,0.40569597482681274,16,-1431990.7188945347,0.3820144534111023,1575420000,,,,0,,1,7.800000190734863,15.699999809265137,-10.710209608078003,,-10.710209608078003,,C,3054683579159115,0,-1280050.7376204613,-25453829.021121673,-6975090.779250199,420.61803914462075,-796.9009861051542,3031.0351503737984,31968.781764664498,0.0019721519893209916,0.000000020489096641540527,0.000000014901161193847656,-0.00000011920928955078125,-0.00000011920928955078125,124928.0,16384.0,-262144.0,262144.0
Raw,1758227888000,120984332824,18,,-1442262985015667200,0.0,100.06922149658203,,,48104,1,0.0,16391,419905923584207,41,18.899999618530273,828.236328125,0.4216562807559967,16,-1702613.4178579017,0.39329999685287476,1575420000,,,,0,,1,7.800000190734863,15.399999618530273,-8.847564458847046,,-8.847564458847046,,C,3054683579159115,0,-22129328.436222844,-14418581.617134724,2987178.9398158807,-128.3632882612984,-454.14007728546505,-3139.6520585597955,104028.55133653668,0.0010645134170772508,0.000000020489096641540527,0.000000014901161193847656,-0.00000011920928955078125,-0.00000011920928955078125,124928.0,16384.0,-262144.0,262144.0
Raw,1758227888000,120984332824,18,,-1442262985015667200,0.0,100.06922149658203,,,48104,4,0.0,16391,419905925282796,39,19.600000381469727,-70.7178955078125,0.3857875466346741,16,-244906.72647651774,0.36793720722198486,1575420000,,,,0,,1,7.800000190734863,16.100000381469727,-4.656612873077393,,-4.656612873077393,,C,3054683579159115,0,-18578093.05732122,-5323398.806622205,18311830.596339498,2047.4088965141168,-1084.0836525226066,1747.9792656733134,2499.5230482183374,0.001298028588280431,0.000000020489096641540527,0.000000014901161193847656,-0.00000011920928955078125,-0.00000011920928955078125,124928.0,16384.0,-262144.0,262144.0
Raw,1758227888000,120984332824,18,,-1442262985015667200,0.0,100.06922149658203,,,48104,30,0.0,19464,419905913438399,15,32.20000076293945,-142.15321350097656,0.12140488624572754,25,-238187.3302734013,0.08584539592266083,1575420000,,,,0,,6,7.800000190734863,28.700000762939453,-0.5677067704824195,,-0.5677067704824195,,C,3054683579159115,0,4381601.12514735,-29185305.999001898,-2206690.642518248,-8.758363825041467,-227.18319687322816,2995.1935139349134,-62753.10743212943,-0.012359523578197695,0.000000020489096641540527,0.000000014901161193847656,-0.00000011920928955078125,-0.00000011920928955078125,124928.0,16384.0,-262144.0,262144.0
Raw,1758227888000,120984332824,18,,-1442262985015667200,0.0,100.06922149658203,,,48104,2,0.0,19464,419905915893312,15,31.899999618530273,271.3201904296875,0.12398333847522736,25,-193611.86559101552,0.08766862004995346,1575420000,,,,0,,6,7.800000190734863,28.399999618530273,-4.2929970689443335,,-4.2929970689443335,,C,3054683579159115,0,15259161.975508071,-19878013.460339446,15742261.77114262,-363.5863630148017,1537.7059242541059,2295.2326042073023,75183.41337890136,0.0008407289860770106,0.000000020489096641540527,0.000000014901161193847656,-0.00000011920928955078125,-0.00000011920928955078125,124928.0,16384.0,-262144.0,262144.0
Raw,1758227888000,120984332824,18,,-1442262985015667200,0.0,100.06922149658203,,,48104,1,0.0,32995,85087920566530,16,31.299999237060547,965.8133544921875,0.12939289212226868,25,6783572.931051391,0.09149371087551117,1602562600,,,,0,,3,7.800000190734863,27.799999237060547,13.038516044616697,,13.038516044616697,,C,3054683579159115,0,17572000.5742687,-18478244.560818072,-830843.1646830452,-208.27376007899625,-38.57706176888223,-3574.7895689247107,41990.069567309576,0.0002726596521824831,0.000000020489096641540527,0.000000014901161193847656,-0.00000011920928955078125,-0.00000011920928955078125,124928.0,16384.0,-262144.0,262144.0
Raw,1758227888000,120984332824,18,,-1442262985015667200,0.0,100.06922149658203,,,48104,12,0.0,32995,85087931913291,15,32.5,768.5982055664062,0.11890606582164764,25,-309620.8369155722,0.08407847583293915,1601437400,,,,0,,3,7.800000190734863,29.0,13.038516044616697,,13.038516044616697,,C,3054683579159115,0,6820578.867417288,-12844055.710172469,20980318.893474862,720.2628400290503,2774.383515964984,1466.8721960880193,17784.802742845804,0.0002726596521824831,0.000000020489096641540527,0.000000014901161193847656,-0.00000011920928955078125,-0.00000011920928955078125,124928.0,16384.0,-262144.0,262144.0
Raw,1758227888000,120984332824,18,,-1442262985015667200,0.0,100.06922149658203,,,48104,8,0.0,19456,419905918923584,18,29.0,563.2522583007812,0.15378700196743011,25,-161506.05813344297,0.10874278843402863,1575420000,,,,0,,6,7.800000190734863,25.5,-5.689980930867551,,-5.689980930867551,,C,3054683579159115,0,7466466.043596569,-18396849.435910553,21948803.187142592,2072.887530095789,-748.131453554742,-1330.2400837776293,-161034.89700861333,-0.0020018027862533927,0.000000020489096641540527,0.000000014901161193847656,-0.00000011920928955078125,-0.00000011920928955078125,124928.0,16384.0,-262144.0,262144.0
Raw,1758227888000,120984332824,18,,-1442262985015667200,0.0,100.06922149658203,,,48104,3,0.0,32995,85087932497938,22,26.5,-6.290327548980713,0.18903592228889465,16,7084886.071918594,0.22707149386405945,1604812500,,,,0,,3,7.800000190734863,23.0,13.038516044616697,,13.038516044616697,,C,3054683579159115,0,-7386628.492860447,-7831333.365912066,23164512.734780993,2215.2592367642287,-2256.6460214052872,-62.586328903057705,38936.97947483134,0.0002726596521824831,0.000000020489096641540527,0.000000014901161193847656,-0.00000011920928955078125,-0.00000011920928955078125,124928.0,16384.0,-262144.0,262144.0
Raw,1758227888000,120984332824,18,,-1442262985015667200,0.0,100.06922149658203,,,48104,2,0.0,32867,85087932171463,24,25.0,621.9072875976562,0.21633315086364746,16,-30554537.120288156,0.2466689497232437,1599750000,,,,0,,3,7.800000190734863,21.5,13.038516044616697,,13.038516044616697,,C,3054683579159115,0,8549969.11284572,-18482888.884451453,15350022.52955656,1382.1290976019231,-1586.4696894667206,-2693.323236155782,-7048.392719785409,0.0002726596521824831,0.000000020489096641540527,0.000000014901161193847656,-0.00000011920928955078125,-0.00000011920928955078125,124928.0,16384.0,-262144.0,262144.0
Raw,1758227888000,120984332824,18,,-1442262985015667200,0.0,100.06922149658203,,,48104,33,0.0,19456,419905908305154,31,21.899999618530273,95.47307586669922,0.29536861181259155,16,-1065832.8186206783,0.30400198698043823,1575420000,,,,0,,6,7.800000190734863,18.399999618530273,-5.689980930867551,,-5.689980930867551,,C,3054683579159115,0,-14614844.632973034,8047059.486046789,24455738.64405706,-1859.4863750478896,-1605.5234085103912,-584.2608970119638,2461.4394269094664,-0.0002166235512959247,0.000000020489096641540527,0.000000014901161193847656,-0.00000011920928955078125,-0.00000011920928955078125,124928.0,16384.0,-262144.0,262144.0
Raw,1758227888000,120984332824,18,,-1442262985015667200,0.0,100.06922149658203,,,48104,3,0.0,19456,419905906595892,35,20.700000762939453,768.97802734375,0.33802053332328796,16,-204418.20046245516,0.3341611623764038,1575420000,,,,0,,6,7.800000190734863,17.200000762939453,2.226260953364016,,2.226260953364016,,C,3054683579159115,0,24663284.986293767,-14300976.424923044,7978287.423643906,736.2115999343807,-323.80442714097904,-2850.043920899352,-65175.1221073589,-0.0006943112312001176,0.000000020489096641540527,0.000000014901161193847656,-0.00000011920928955078125,-0.00000011920928955078125,124928.0,16384.0,-262144.0,262144.0
Raw,1758227888000,120984332824,18,,-1442262985015667200,0.0,100.06922149658203,,,48104,19,0.0,32867,85087922835750,33,21.200000762939453,470.8099670410156,0.319193035364151,16,19854259.808462355,0.31917113065719604,1603687600,,,,0,,3,7.800000190734863,17.700000762939453,13.038516044616697,,13.038516044616697,,C,3054683579159115,0,-16935746.202005323,4223392.014587993,18572030.072640497,-2464.6878575085907,-642.6890391383085,-2106.793744649547,-5890.392853971473,-0.0016359579130948987,0.000000020489096641540527,0.000000014901161193847656,-0.00000011920928955078125,-0.00000011920928955078125,124928.0,16384.0,-262144.0,262144.0
Raw,1758227888000,120984332824,18,,-1442262985015667200,0.0,100.06922149658203,,,48104,25,0.0,19456,419905907041482,30,22.399999618530273,725.0839233398438,0.2799473702907562,16,-207373.14048985564,0.2930976152420044,1575420000,,,,0,,6,7.800000190734863,18.899999618530273,2.226260953364016,,2.226260953364016,,C,3054683579159115,0,16922341.368428726,1490477.1405846516,24248413.777782958,-484.5911878729843,2381.308446147823,192.25024798950128,6139.96851479184,0.00009364448578708107,0.000000020489096641540527,0.000000014901161193847656,-0.00000011920928955078125,-0.00000011920928955078125,124928.0,16384.0,-262144.0,262144.0
Agc,1758227888000,120984332824,18,,-1442262985015667200,0.0,100.06922149658203,,,48104,7.800000190734863,1575420032,1
Agc,1758227888000,120984332824,18,,-1442262985015667200,0.0,100.06922149658203,,,48104,7.800000190734863,1575420032,1
Agc,1758227888000,120984332824,18,,-1442262985015667200,0.0,100.06922149658203,,,48104,7.800000190734863,1575420032,1
Agc,1758227888000,120984332824,18,,-1442262985015667200,0.0,100.06922149658203,,,48104,7.800000190734863,1575420032,1
Agc,1758227888000,120984332824,18,,-1442262985015667200,0.0,100.06922149658203,,,48104,7.800000190734863,1575420032,1
Agc,1758227888000,120984332824,18,,-1442262985015667200,0.0,100.06922149658203,,,48104,7.800000190734863,1575420032,1
Agc,1758227888000,120984332824,18,,-1442262985015667200,0.0,100.06922149658203,,,48104,7.800000190734863,1575420032,1
Agc,1758227888000,120984332824,18,,-1442262985015667200,0.0,100.06922149658203,,,48104,7.800000190734863,1575420032,6
Agc,1758227888000,120984332824,18,,-1442262985015667200,0.0,100.06922149658203,,,48104,7.800000190734863,1575420032,6
Agc,1758227888000,120984332824,18,,-1442262985015667200,0.0,100.06922149658203,,,48104,7.800000190734863,1602562560,3
Agc,1758227888000,120984332824,18,,-1442262985015667200,0.0,100.06922149658203,,,48104,7.800000190734863,1601437440,3
Agc,1758227888000,120984332824,18,,-1442262985015667200,0.0,100.06922149658203,,,48104,7.800000190734863,1575420032,6
Agc,1758227888000,120984332824,18,,-1442262985015667200,0.0,100.06922149658203,,,48104,7.800000190734863,1604812544,3
Agc,1758227888000,120984332824,18,,-1442262985015667200,0.0,100.06922149658203,,,48104,7.800000190734863,1599750016,3
Agc,1758227888000,120984332824,18,,-1442262985015667200,0.0,100.06922149658203,,,48104,7.800000190734863,1575420032,6
Agc,1758227888000,120984332824,18,,-1442262985015667200,0.0,100.06922149658203,,,48104,7.800000190734863,1575420032,6
Agc,1758227888000,120984332824,18,,-1442262985015667200,0.0,100.06922149658203,,,48104,7.800000190734863,1603687552,3
Agc,1758227888000,120984332824,18,,-1442262985015667200,0.0,100.06922149658203,,,48104,7.800000190734863,1575420032,6
Fix,GPS,40.0074491696,-105.2631866746,1641.0,0.0,2.0408163,,1758227889000,0.01,,3054684579160366,5.0,0,,,
Fix,FLP,40.0074493000,-105.2631865000,1629.300048828125,0.13036297,2.347,294.83347,1758227889023,0.01,45.0,3054684579160366,1.0639725,0,,,
Status,1758227889000,18,0,1,31,1575420000,22.00,44.4,70.2,0,0,1,18.5
Status,1758227889000,18,1,1,26,1575420000,20.90,129.2,48.0,0,0,1,17.4
Status,1758227889000,18,2,1,28,1575420000,37.60,48.9,38.2,1,0,1,34.1
Status,1758227889000,18,3,1,4,1575420000,19.40,294.6,35.6,0,0,1,15.9
Status,1758227889000,18,4,1,1,1575420000,18.80,239.5,27.7,0,0,1,15.3
Status,1758227889000,18,5,1,16,1575420000,19.20,165.6,20.3,0,0,1,15.7
Status,1758227889000,18,6,1,32,1575420000,34.90,92.0,14.8,1,0,1,31.4
Status,1758227889000,18,7,3,3,1604812500,26.70,336.4,51.1,1,0,1,23.2
Status,1758227889000,18,8,3,2,1599750000,25.10,82.2,49.4,0,0,1,21.6
Status,1758227889000,18,9,3,12,1601437400,32.40,47.1,48.2,1,0,1,28.9
Status,1758227889000,18,10,3,19,1603687600,21.10,308.8,14.6,0,0,1,17.6
Status,1758227889000,18,11,3,1,1602562600,31.40,112.5,7.7,1,0,1,27.9
Status,1758227889000,18,12,6,8,1575420000,29.20,60.8,55.2,1,0,1,25.7
Status,1758227889000,18,13,6,2,1575420000,32.00,83.4,37.3,1,0,1,28.5
Status,1758227889000,18,14,6,30,1575420000,32.40,147.9,29.8,1,0,1,28.9
Status,1758227889000,18,15,6,33,1575420000,21.90,322.6,13.3,1,0,1,18.4
Status,1758227889000,18,16,6,25,1575420000,22.10,35.5,9.7,0,0,1,18.6
Status,1758227889000,18,17,6,3,1575420000,20.70,86.9,9.0,0,0,1,17.2
Raw,1758227889000,121984334046,18,,-1442262985015665920,0.0,100.06922149658203,,,48104,28,0.0,16399,419906925446421,11,37.599998474121094,890.4077758789062,0.08599857985973358,25,-84504.15475232559,0.06080959737300873,1575420000,,,,0,,1,7.800000190734863,34.099998474121094,-9.313225746154785,,-9.313225746154785,,C,3054684579160366,0,10589990.112721872,-11186085.898347218,21633528.80720052,2322.439550394637,1468.4887398830383,-375.6976198042018,-191416.3719168758,0.000022164604160934687,0.000000020489096641540527,0.000000014901161193847656,-0.00000011920928955078125,-0.00000011920928955078125,124928.0,16384.0,-262144.0,262144.0
Raw,1758227889000,121984334046,18,,-1442262985015665920,0.0,100.06922149658203,,,48104,32,0.0,16399,419906919040121,13,34.900001525878906,857.2203979492188,0.10142399370670319,25,-75036.74488834059,0.07171690464019775,1575420000,,,,0,,1,7.800000190734863,31.399999618530273,0.9313225746154785,,0.9313225746154785,,C,3054684579160366,0,19853100.37945599,-15979787.287124053,7354432.59927191,924.830274818906,-182.6189493035518,-3013.0981347067714,-95902.86908811294,0.003990805198554881,0.000000020489096641540527,0.000000014901161193847656,-0.00000011920928955078125,-0.00000011920928955078125,124928.0,16384.0,-262144.0,262144.0
Raw,1758227889000,121984334046,18,,-1442262985015665920,0.0,100.06922149658203,,,48104,31,0.0,16399,419906932384562,31,22.0,620.3282470703125,0.29218408465385437,16,-105629.38713328214,0.30175018310546875,1575420000,,,,0,,1,7.800000190734863,18.5,-13.0385160446167,,-13.0385160446167,,C,3054684579160366,0,363426.5369859282,-16987713.789289717,20059884.26602415,2229.671238983056,1378.8722677004796,1145.218801299213,-57406.296371630524,-0.0005237517689238302,0.000000020489096641540527,0.000000014901161193847656,-0.00000011920928955078125,-0.00000011920928955078125,124928.0,16384.0,-262144.0,262144.0
Raw,1758227889000,121984334046,18,,-1442262985015665920,0.0,100.06922149658203,,,48104,26,0.0,16399,419906929033579,34,20.899999618530273,34.811729431152344,0.3302946388721466,16,-617094.2330383984,0.32869815826416016,1575420000,,,,0,,1,7.800000190734863,17.399999618530273,6.51925802230835,,6.51925802230835,,C,3054684579160366,0,4597276.274313938,-24811419.39649458,7398446.008817845,432.23917698297475,966.354285786331,2931.0565933064395,-78830.88201802535,-0.0015850068593863398,0.000000020489096641540527,0.000000014901161193847656,-0.00000011920928955078125,-0.00000011920928955078125,124928.0,16384.0,-262144.0,262144.0
Raw,1758227889000,121984334046,18,,-1442262985015665920,0.0,100.06922149658203,,,48104,16,0.0,16391,419906921734403,40,19.200000762939453,-352.03216552734375,0.40569597482681274,16,-1432342.4994898057,0.3820144534111023,1575420000,,,,0,,1,7.800000190734863,15.699999809265137,-10.710209608078003,,-10.710209608078003,,C,3054684579160366,0,-1279630.1662502764,-25454625.747363284,-6972059.661463633,420.52268990994753,-796.5476678096038,3031.1858627023457,31968.7837367205,0.0019719505435205065,0.000000020489096641540527,0.000000014901161193847656,-0.00000011920928955078125,-0.00000011920928955078125,124928.0,16384.0,-262144.0,262144.0
Raw,1758227889000,121984334046,18,,-1442262985015665920,0.0,100.06922149658203,,,48104,1,0.0,16391,419906923582736,42,18.799999237060547,827.7760009765625,0.42718610167503357,16,-1701785.3642408221,0.39721012115478516,1575420000,,,,0,,1,7.800000190734863,15.300000190734863,-8.847564458847046,,-8.847564458847046,,C,3054684579160366,0,-22129456.656405397,-14419035.632496452,2984039.26067787,-128.07744770354822,-453.8919876142387,-3139.715443347949,104028.55240104916,0.0010645146976457909,0.000000020489096641540527,0.000000014901161193847656,-0.00000011920928955078125,-0.00000011920928955078125,124928.0,16384.0,-262144.0,262144.0
Raw,1758227889000,121984334046,18,,-1442262985015665920,0.0,100.06922149658203,,,48104,4,0.0,16391,419906925284238,39,19.399999618530273,-71.7430648803711,0.3955540060997009,16,-244977.9210779958,0.3748430609703064,1575420000,,,,0,,1,7.800000190734863,15.899999618530273,-4.656612873077393,,-4.656612873077393,,C,3054684579160366,0,-18576045.577749107,-5324482.99907803,18313578.38471121,2047.5443322440615,-1084.2981327564553,1747.59243089152,2499.5243462307835,0.0012979925586478203,0.000000020489096641540527,0.000000014901161193847656,-0.00000011920928955078125,-0.00000011920928955078125,124928.0,16384.0,-262144.0,262144.0
Raw,1758227889000,121984334046,18,,-1442262985015665920,0.0,100.06922149658203,,,48104,30,0.0,19464,419906913440120,15,32.400001525878906,-142.9425506591797,0.1197303757071495,25,-238329.87397120878,0.08466134965419769,1575420000,,,,0,,6,7.800000190734863,28.899999618530273,-0.567698332787588,,-0.567698332787588,,C,3054684579160366,0,4381592.32816561,-29185533.035124816,-2203695.4268861897,-8.835561924575668,-226.88826519165124,2995.2274327483638,-62753.11979167521,-0.012359525419014972,0.000000020489096641540527,0.000000014901161193847656,-0.00000011920928955078125,-0.00000011920928955078125,124928.0,16384.0,-262144.0,262144.0
Raw,1758227889000,121984334046,18,,-1442262985015665920,0.0,100.06922149658203,,,48104,2,0.0,19464,419906915893594,15,32.0,270.6094055175781,0.12311480194330215,25,-193340.88641922487,0.08705447614192963,1575420000,,,,0,,6,7.800000190734863,28.5,-4.292988631249502,,-4.292988631249502,,C,3054684579160366,0,15258798.424417756,-19876475.627472732,15744556.883320801,-363.51560605871776,1537.958937351721,2294.990451839764,75183.41421963158,0.0008407309651374817,0.000000020489096641540527,0.000000014901161193847656,-0.00000011920928955078125,-0.00000011920928955078125,124928.0,16384.0,-262144.0,262144.0
Raw,1758227889000,121984334046,18,,-1442262985015665920,0.0,100.06922149658203,,,48104,1,0.0,32995,85088920564498,16,31.399999618530273,965.0301513671875,0.12846700847148895,25,6784538.361220262,0.09083902090787888,1602562600,,,,0,,3,7.800000190734863,27.899999618530273,13.038516044616697,,13.038516044616697,,C,3054684579160366,0,17571792.13393524,-18478282.949953657,-834417.9369848963,-208.60773040656613,-38.20135116458664,-3574.769578658027,41990.06983996867,0.0002726596521824831,0.000000020489096641540527,0.000000014901161193847656,-0.00000011920928955078125,-0.00000011920928955078125,124928.0,16384.0,-262144.0,262144.0
Raw,1758227889000,121984334046,18,,-1442262985015665920,0.0,100.06922149658203,,,48104,12,0.0,32995,85088931911999,15,32.400001525878906,767.928955078125,0.1197303757071495,25,-308852.5648627856,0.08466134965419769,1601437400,,,,0,,3,7.800000190734863,28.899999618530273,13.038516044616697,,13.038516044616697,,C,3054684579160366,0,6821299.268070408,-12841281.26309994,20981785.51241741,720.5403442503086,2774.5178072739363,1466.3694901994495,17784.803015505106,0.0002726596521824831,0.000000020489096641540527,0.000000014901161193847656,-0.00000011920928955078125,-0.00000011920928955078125,124928.0,16384.0,-262144.0,262144.0
Raw,1758227889000,121984334046,18,,-1442262985015665920,0.0,100.06922149658203,,,48104,8,0.0,19456,419906918922925,18,29.200000762939453,562.489990234375,0.15140274167060852,25,-160943.17414131397,0.1070568785071373,1575420000,,,,0,,6,7.800000190734863,25.700000762939453,-5.68997249317272,,-5.68997249317272,,C,3054684579160366,0,7468538.837657749,-18397597.62552433,21947472.779199257,2072.7033179215086,-748.2487543552484,-1330.5775529319442,-161034.8990104127,-0.0020017985661979765,0.000000020489096641540527,0.000000014901161193847656,-0.00000011920928955078125,-0.00000011920928955078125,124928.0,16384.0,-262144.0,262144.0
Raw,1758227889000,121984334046,18,,-1442262985015665920,0.0,100.06922149658203,,,48104,3,0.0,32995,85088932499173,21,26.700000762939453,-7.510095119476318,0.18579070270061493,16,7084879.08722982,0.22477680444717407,1604812500,,,,0,,3,7.800000190734863,23.200000762939453,13.038516044616697,,13.038516044616697,,C,3054684579160366,0,-7384413.326808046,-7833590.10344221,23164449.871406127,2215.0674068655417,-2256.8234781448973,-63.14026045191052,38936.97974749133,0.0002726596521824831,0.000000020489096641540527,0.000000014901161193847656,-0.00000011920928955078125,-0.00000011920928955078125,124928.0,16384.0,-262144.0,262144.0
Raw,1758227889000,121984334046,18,,-1442262985015665920,0.0,100.06922149658203,,,48104,2,0.0,32867,85088932170534,24,25.100000381469727,620.8197021484375,0.21433469653129578,16,-30553915.80324716,0.24525584280490875,1599750000,,,,0,,3,7.800000190734863,21.600000381469727,13.038516044616697,,13.038516044616697,,C,3054684579160366,0,8551351.044954404,-18484475.28048418,15347329.024359172,1381.7377112329148,-1586.3253215734708,-2693.692171333772,-7048.39244712601,0.0002726596521824831,0.000000020489096641540527,0.000000014901161193847656,-0.00000011920928955078125,-0.00000011920928955078125,124928.0,16384.0,-262144.0,262144.0
Raw,1758227889000,121984334046,18,,-1442262985015665920,0.0,100.06922149658203,,,48104,33,0.0,19456,419906908306059,31,21.899999618530273,94.70860290527344,0.29536861181259155,16,-1065737.7046881607,0.30400198698043823,1575420000,,,,0,,6,7.800000190734863,18.399999618530273,-5.68997249317272,,-5.68997249317272,,C,3054684579160366,0,-14616704.164719108,8045454.056379876,24455154.194787703,-1859.5737435647843,-1605.3330146210133,-584.6365823493339,2461.439210284101,-0.00021662678773282096,0.000000020489096641540527,0.000000014901161193847656,-0.00000011920928955078125,-0.00000011920928955078125,124928.0,16384.0,-262144.0,262144.0
Raw,1758227889000,121984334046,18,,-1442262985015665920,0.0,100.06922149658203,,,48104,3,0.0,19456,419906906594483,35,20.700000762939453,767.9090576171875,0.33802053332328796,16,-203649.83032631106,0.3341611623764038,1575420000,,,,0,,6,7.800000190734863,17.200000762939453,2.226269391058848,,2.226269391058848,,C,3054684579160366,0,24664021.049370043,-14301300.210741576,7975437.322451484,735.9166263973088,-323.7681148268482,-2850.1664882188834,-65175.1228016666,-0.0006943061380297877,0.000000020489096641540527,0.000000014901161193847656,-0.00000011920928955078125,-0.00000011920928955078125,124928.0,16384.0,-262144.0,262144.0
Raw,1758227889000,121984334046,18,,-1442262985015665920,0.0,100.06922149658203,,,48104,19,0.0,32867,85088922835412,33,21.100000381469727,468.5767517089844,0.32283055782318115,16,19854729.29508874,0.3217431902885437,1603687600,,,,0,,3,7.800000190734863,17.600000381469727,13.038516044616697,,13.038516044616697,,C,3054684579160366,0,-16938210.777054302,4222749.465891926,18569923.056040823,-2464.463919459571,-642.4088056113355,-2107.240883955407,-5890.394489928834,-0.0016359579130948987,0.000000020489096641540527,0.000000014901161193847656,-0.00000011920928955078125,-0.00000011920928955078125,124928.0,16384.0,-262144.0,262144.0
Raw,1758227889000,121984334046,18,,-1442262985015665920,0.0,100.06922149658203,,,48104,25,0.0,19456,419906907040285,31,22.100000381469727,724.127197265625,0.28905072808265686,16,-206648.5101250334,0.2995346188545227,1575420000,,,,0,,6,7.800000190734863,18.600000381469727,2.226269391058848,,2.226269391058848,,C,3054684579160366,0,16921856.86653344,1492858.4740287128,24248605.841591068,-484.4137604398269,2381.3641346579525,191.8778275314984,6139.9686084367895,0.00009364563720737351,0.000000020489096641540527,0.000000014901161193847656,-0.00000011920928955078125,-0.00000011920928955078125,124928.0,16384.0,-262144.0,262144.0
Agc,1758227889000,121984334046,18,,-1442262985015665920,0.0,100.06922149658203,,,48104,7.800000190734863,1575420032,1
Agc,1758227889000,121984334046,18,,-1442262985015665920,0.0,100.06922149658203,,,48104,7.800000190734863,1575420032,1
Agc,1758227889000,121984334046,18,,-1442262985015665920,0.0,100.06922149658203,,,48104,7.800000190734863,1575420032,1
Agc,1758227889000,121984334046,18,,-1442262985015665920,0.0,100.06922149658203,,,48104,7.800000190734863,1575420032,1
Agc,1758227889000,121984334046,18,,-1442262985015665920,0.0,100.06922149658203,,,48104,7.800000190734863,1575420032,1
Agc,1758227889000,121984334046,18,,-1442262985015665920,0.0,100.06922149658203,,,48104,7.800000190734863,1575420032,1
Agc,1758227889000,121984334046,18,,-1442262985015665920,0.0,100.06922149658203,,,48104,7.800000190734863,1575420032,1
Agc,1758227889000,121984334046,18,,-1442262985015665920,0.0,100.06922149658203,,,48104,7.800000190734863,1575420032,6
Agc,1758227889000,121984334046,18,,-1442262985015665920,0.0,100.06922149658203,,,48104,7.800000190734863,1575420032,6
Agc,1758227889000,121984334046,18,,-1442262985015665920,0.0,100.06922149658203,,,48104,7.800000190734863,1602562560,3
Agc,1758227889000,121984334046,18,,-1442262985015665920,0.0,100.06922149658203,,,48104,7.800000190734863,1601437440,3
Agc,1758227889000,121984334046,18,,-1442262985015665920,0.0,100.06922149658203,,,48104,7.800000190734863,1575420032,6
Agc,1758227889000,121984334046,18,,-1442262985015665920,0.0,100.06922149658203,,,48104,7.800000190734863,1604812544,3
Agc,1758227889000,121984334046,18,,-1442262985015665920,0.0,100.06922149658203,,,48104,7.800000190734863,1599750016,3
Agc,1758227889000,121984334046,18,,-1442262985015665920,0.0,100.06922149658203,,,48104,7.800000190734863,1575420032,6
Agc,1758227889000,121984334046,18,,-1442262985015665920,0.0,100.06922149658203,,,48104,7.800000190734863,1575420032,6
Agc,1758227889000,121984334046,18,,-1442262985015665920,0.0,100.06922149658203,,,48104,7.800000190734863,1603687552,3
Agc,1758227889000,121984334046,18,,-1442262985015665920,0.0,100.06922149658203,,,48104,7.800000190734863,1575420032,6
Fix,GPS,40.0074489182,-105.2631866746,1641.0,0.0,2.0408163,,1758227890000,0.1,,3054685579161563,5.0,0,,,
Fix,FLP,40.0074490000,-105.2631868000,1629.300048828125,0.07271735,2.347,,1758227890023,0.1,,3054685579161563,1.0705755,0,,,
Status,1758227890000,18,0,1,31,1575420000,22.00,44.4,70.2,0,0,1,18.5
Status,1758227890000,18,1,1,26,1575420000,21.10,129.2,48.0,1,0,1,17.6
Status,1758227890000,18,2,1,28,1575420000,37.60,48.9,38.2,1,0,1,34.1
Status,1758227890000,18,3,1,4,1575420000,19.20,294.6,35.6,0,0,1,15.7
Status,1758227890000,18,4,1,1,1575420000,18.60,239.5,27.7,0,0,1,15.1
Status,1758227890000,18,5,1,16,1575420000,19.20,165.6,20.3,0,0,1,15.7
Status,1758227890000,18,6,1,32,1575420000,35.20,92.0,14.8,1,0,1,31.7
Status,1758227890000,18,7,3,3,1604812500,26.90,336.4,51.1,0,0,1,23.4
Status,1758227890000,18,8,3,2,1599750000,25.10,82.2,49.4,1,0,1,21.6
Status,1758227890000,18,9,3,12,1601437400,32.30,47.1,48.2,1,0,1,28.8
Status,1758227890000,18,10,3,19,1603687600,21.00,308.8,14.6,0,0,1,17.5
Status,1758227890000,18,11,3,1,1602562600,31.40,112.5,7.7,1,0,1,27.9
Status,1758227890000,18,12,6,8,1575420000,29.30,60.8,55.2,1,0,1,25.8
Status,1758227890000,18,13,6,2,1575420000,32.10,83.4,37.3,1,0,1,28.6
Status,1758227890000,18,14,6,30,1575420000,32.50,147.9,29.8,1,0,1,29.0
Status,1758227890000,18,15,6,33,1575420000,21.90,322.6,13.3,0,0,1,18.4
Status,1758227890000,18,16,6,25,1575420000,21.80,35.5,9.7,0,0,1,18.3
Status,1758227890000,18,17,6,3,1575420000,20.60,86.9,9.0,0,0,1,17.1
Raw,1758227890000,122984335268,18,,-1442262985015664640,0.0,100.06922149658203,,,48104,28,0.0,16399,419907925444695,11,37.599998474121094,889.6847534179688,0.08599857985973358,25,-83614.09610402337,0.06080959737300873,1575420000,,,,0,,1,7.800000190734863,34.099998474121094,-9.313225746154785,,-9.313225746154785,,C,3054685579161563,0,10592312.570835192,-11184617.492242666,21633152.880045816,2322.484683375382,1468.3285331921713,-376.1579859584055,-191416.3718947084,0.000022170250304043293,0.000000020489096641540527,0.000000014901161193847656,-0.00000011920928955078125,-0.00000011920928955078125,124928.0,16384.0,-262144.0,262144.0
Raw,1758227890000,122984335268,18,,-1442262985015664640,0.0,100.06922149658203,,,48104,32,0.0,16399,419907919038481,13,35.20000076293945,856.4776611328125,0.09951337426900864,25,-74179.88337718835,0.07036590576171875,1575420000,,,,0,,1,7.800000190734863,31.700000762939453,0.9313225746154785,,0.9313225746154785,,C,3054685579161563,0,19854025.035658546,-15979969.845031235,7351419.427531131,924.4851633475268,-182.49745484129886,-3013.255219514356,-95902.86509737709,0.00399067961552646,0.000000020489096641540527,0.000000014901161193847656,-0.00000011920928955078125,-0.00000011920928955078125,124928.0,16384.0,-262144.0,262144.0
Raw,1758227890000,122984335268,18,,-1442262985015664640,0.0,100.06922149658203,,,48104,31,0.0,16399,419907932383766,31,22.0,620.4585571289062,0.29218408465385437,16,-105008.7340460415,0.30175018310546875,1575420000,,,,0,,1,7.800000190734863,18.5,-13.0385160446167,,-13.0385160446167,,C,3054685579161563,0,365656.3039706312,-16986334.939572703,20061029.263861686,2229.8662729700372,1378.829352796728,1144.7786925350813,-57406.296895355525,-0.0005236990618868731,0.000000020489096641540527,0.000000014901161193847656,-0.00000011920928955078125,-0.00000011920928955078125,124928.0,16384.0,-262144.0,262144.0
Raw,1758227890000,122984335268,18,,-1442262985015664640,0.0,100.06922149658203,,,48104,26,0.0,16399,419907929034758,33,21.100000381469727,34.044376373291016,0.32283055782318115,16,-617059.845505669,0.32342031598091125,1575420000,,,,0,,1,7.800000190734863,17.600000381469727,6.51925802230835,,6.51925802230835,,C,3054685579161563,0,4597708.5463053165,-24810452.866591822,7401376.987742872,432.30379363168237,966.7032364959509,2930.8943347185796,-78830.88360305625,-0.0015850512136239558,0.000000020489096641540527,0.000000014901161193847656,-0.00000011920928955078125,-0.00000011920928955078125,124928.0,16384.0,-262144.0,262144.0
Raw,1758227890000,122984335268,18,,-1442262985015664640,0.0,100.06922149658203,,,48104,16,0.0,16391,419907921736873,40,19.200000762939453,-352.2681579589844,0.40569597482681274,16,-1432694.6054043288,0.3820144534111023,1575420000,,,,0,,1,7.800000190734863,15.699999809265137,-10.710209608078003,,-10.710209608078003,,C,3054685579161563,0,-1279209.6901776195,-25455422.120326385,-6969028.392784486,420.42738551606755,-796.1943192953884,3031.336510439503,31968.785708575193,0.0019717491122719366,0.000000020489096641540527,0.000000014901161193847656,-0.00000011920928955078125,-0.00000011920928955078125,124928.0,16384.0,-262144.0,262144.0
Raw,1758227890000,122984335268,18,,-1442262985015664640,0.0,100.06922149658203,,,48104,1,0.0,16391,419907923581181,43,18.600000381469727,826.67529296875,0.43857723474502563,16,-1700958.2288278807,0.40526479482650757,1575420000,,,,0,,1,7.800000190734863,15.100000381469727,-8.847564458847046,,-8.847564458847046,,C,3054685579161563,0,-22129584.590717923,-14419489.399748059,2980899.5184522215,-127.7915689667773,-453.6439324416597,-3139.7787614705094,104028.55346556284,0.0010645159636624157,0.000000020489096641540527,0.000000014901161193847656,-0.00000011920928955078125,-0.00000011920928955078125,124928.0,16384.0,-262144.0,262144.0
Raw,1758227890000,122984335268,18,,-1442262985015664640,0.0,100.06922149658203,,,48104,4,0.0,16391,419907925285717,40,19.200000762939453,-72.86466217041016,0.40569597482681274,16,-245050.22911058785,0.3820144534111023,1575420000,,,,0,,1,7.800000190734863,15.699999809265137,-4.656612873077393,,-4.656612873077393,,C,3054685579161563,0,-18573997.96269694,-5325567.4060557755,18315325.786293544,2047.6797047526425,-1084.5126154930954,1747.205558774412,2499.5256442072446,0.0012979565235582413,0.000000020489096641540527,0.000000014901161193847656,-0.00000011920928955078125,-0.00000011920928955078125,124928.0,16384.0,-262144.0,262144.0
Raw,1758227890000,122984335268,18,,-1442262985015664640,0.0,100.06922149658203,,,48104,30,0.0,19464,419907913441837,15,32.5,-143.6658935546875,0.11890606582164764,25,-238473.16591665297,0.08407847583293915,1575420000,,,,0,,6,7.800000190734863,29.0,-0.5676898950927094,,-0.5676898950927094,,C,3054685579161563,0,4381583.454007423,-29185759.77630782,-2200700.177370271,-8.912716924474534,-226.59331994309005,2995.261305493105,-62753.13215122279,-0.012359527288936079,0.000000020489096641540527,0.000000014901161193847656,-0.00000011920928955078125,-0.00000011920928955078125,124928.0,16384.0,-262144.0,262144.0
Raw,1758227890000,122984335268,18,,-1442262985015664640,0.0,100.06922149658203,,,48104,2,0.0,19464,419907915893904,15,32.099998474121094,269.9566955566406,0.1222553625702858,25,-193070.58868206138,0.08644676953554153,1575420000,,,,0,,6,7.800000190734863,28.600000381469727,-4.292980193554623,,-4.292980193554623,,C,3054685579161563,0,15258434.9440943,-19874937.54156286,15746851.753393158,-363.4448085232366,1538.211924632567,2294.7482641879265,75183.4150603638,0.000840732958749868,0.000000020489096641540527,0.000000014901161193847656,-0.00000011920928955078125,-0.00000011920928955078125,124928.0,16384.0,-262144.0,262144.0
Raw,1758227890000,122984335268,18,,-1442262985015664640,0.0,100.06922149658203,,,48104,1,0.0,32995,85089920562514,16,31.399999618530273,964.2948608398438,0.12846700847148895,25,6785503.035322264,0.09083902090787888,1602562600,,,,0,,3,7.800000190734863,27.899999618530273,13.038516044616697,,13.038516044616697,,C,3054685579161563,0,17571583.35965152,-18478320.963356473,-837992.6894251254,-208.94164200678688,-37.825591175131194,-3574.7495025637113,41990.070112627785,0.0002726596521824831,0.000000020489096641540527,0.000000014901161193847656,-0.00000011920928955078125,-0.00000011920928955078125,124928.0,16384.0,-262144.0,262144.0
Raw,1758227890000,122984335268,18,,-1442262985015664640,0.0,100.06922149658203,,,48104,12,0.0,32995,85089931910673,15,32.29999923706055,767.2721557617188,0.12056328356266022,25,-308084.95879197004,0.08525029569864273,1601437400,,,,0,,3,7.800000190734863,28.799999237060547,13.038516044616697,,13.038516044616697,,C,3054685579161563,0,6822019.946206017,-12838506.68187674,20983251.62858738,720.8178546598435,2774.652006305299,1465.8667493422702,17784.803288164396,0.0002726596521824831,0.000000020489096641540527,0.000000014901161193847656,-0.00000011920928955078125,-0.00000011920928955078125,124928.0,16384.0,-262144.0,262144.0
Raw,1758227890000,122984335268,18,,-1442262985015664640,0.0,100.06922149658203,,,48104,8,0.0,19464,419907918922256,18,29.299999237060547,561.7002563476562,0.15023136138916016,25,-160381.0788359694,0.10622859746217728,1575420000,,,,0,,6,7.800000190734863,25.799999237060547,-5.689964055477841,,-5.689964055477841,,C,3054685579161563,0,7470611.447467231,-18398345.932414148,21946142.033810552,2072.519067816131,-748.3660207958753,-1330.9150015829584,-161034.90101220776,-0.0020017942879348993,0.000000020489096641540527,0.000000014901161193847656,-0.00000011920928955078125,-0.00000011920928955078125,124928.0,16384.0,-262144.0,262144.0
Raw,1758227890000,122984335268,18,,-1442262985015664640,0.0,100.06922149658203,,,48104,3,0.0,32995,85089932500403,21,26.899999618530273,-8.661391258239746,0.18262839317321777,16,7084870.984732089,0.2225407361984253,1604812500,,,,0,,3,7.800000190734863,23.399999618530273,13.038516044616697,,13.038516044616697,,C,3054685579161563,0,-7382198.352630345,-7835847.018382968,23164386.454099916,2214.8755100271314,-2257.0008648245293,-63.694190847232534,38936.98002015131,0.0002726596521824831,0.000000020489096641540527,0.000000014901161193847656,-0.00000011920928955078125,-0.00000011920928955078125,124928.0,16384.0,-262144.0,262144.0
Raw,1758227890000,122984335268,18,,-1442262985015664640,0.0,100.06922149658203,,,48104,2,0.0,32867,85089932169723,24,25.100000381469727,620.7410888671875,0.21433469653129578,16,-30553294.869660974,0.24525584280490875,1599750000,,,,0,,3,7.800000190734863,21.600000381469727,13.038516044616697,,13.038516044616697,,C,3054685579161563,0,8552732.585837338,-18486061.532292724,15344635.14994133,1381.3463198150191,-1586.1808664505402,-2694.0610421765427,-7048.3921744665795,0.0002726596521824831,0.000000020489096641540527,0.000000014901161193847656,-0.00000011920928955078125,-0.00000011920928955078125,124928.0,16384.0,-262144.0,262144.0
Raw,1758227890000,122984335268,18,,-1442262985015664640,0.0,100.06922149658203,,,48104,33,0.0,19456,419907908306895,31,21.899999618530273,94.12351989746094,0.29536861181259155,16,-1065643.2509529667,0.30400198698043823,1575420000,,,,0,,6,7.800000190734863,18.399999618530273,-5.689964055477841,,-5.689964055477841,,C,3054685579161563,0,-14618563.783682209,8043848.817232219,24454569.369877513,-1859.6610656053692,-1605.1425919002768,-585.0122587253339,2461.438993655515,-0.00021663002371496987,0.000000020489096641540527,0.000000014901161193847656,-0.00000011920928955078125,-0.00000011920928955078125,124928.0,16384.0,-262144.0,262144.0
Raw,1758227890000,122984335268,18,,-1442262985015664640,0.0,100.06922149658203,,,48104,3,0.0,19456,419907906593185,35,20.600000381469727,768.2317504882812,0.3419855535030365,16,-202881.5518090676,0.33696481585502625,1575420000,,,,0,,6,7.800000190734863,17.100000381469727,2.226277828753726,,2.226277828753726,,C,3054685579161563,0,24664756.817553762,-14301623.960260795,7972587.098397449,735.6216507920194,-323.73175626960824,-2850.2890117405077,-65175.123495969296,-0.000694301059411373,0.000000020489096641540527,0.000000014901161193847656,-0.00000011920928955078125,-0.00000011920928955078125,124928.0,16384.0,-262144.0,262144.0
