# 
# Header Description:
# 
# Version: v3.1.1.1 Platform: 16 Manufacturer: Google Model: Pixel 8a GNSS Hardware Model Name: S.LSI,K041,SPOTNAV_4.15.4_3_250220_R2_258342
# 
# Raw,utcTimeMillis,TimeNanos,LeapSecond,TimeUncertaintyNanos,FullBiasNanos,BiasNanos,BiasUncertaintyNanos,DriftNanosPerSecond,DriftUncertaintyNanosPerSecond,HardwareClockDiscontinuityCount,Svid,TimeOffsetNanos,State,ReceivedSvTimeNanos,ReceivedSvTimeUncertaintyNanos,Cn0DbHz,PseudorangeRateMetersPerSecond,PseudorangeRateUncertaintyMetersPerSecond,AccumulatedDeltaRangeState,AccumulatedDeltaRangeMeters,AccumulatedDeltaRangeUncertaintyMeters,CarrierFrequencyHz,CarrierCycles,CarrierPhase,CarrierPhaseUncertainty,MultipathIndicator,SnrInDb,ConstellationType,AgcDb,BasebandCn0DbHz,FullInterSignalBiasNanos,FullInterSignalBiasUncertaintyNanos,SatelliteInterSignalBiasNanos,SatelliteInterSignalBiasUncertaintyNanos,CodeType,ChipsetElapsedRealtimeNanos,IsFullTracking,SvPositionEcefXMeters,SvPositionEcefYMeters,SvPositionEcefZMeters,SvVelocityEcefXMetersPerSecond,SvVelocityEcefYMetersPerSecond,SvVelocityEcefZMetersPerSecond,SvClockBiasMeters,SvClockDriftMetersPerSecond,KlobucharAlpha0,KlobucharAlpha1,KlobucharAlpha2,KlobucharAlpha3,KlobucharBeta0,KlobucharBeta1,KlobucharBeta2,KlobucharBeta3
# 
# UncalAccel,utcTimeMillis,elapsedRealtimeNanos,UncalAccelXMps2,UncalAccelYMps2,UncalAccelZMps2,BiasXMps2,BiasYMps2,BiasZMps2,CalibrationAccuracy
# 
# Accel,utcTimeMillis,elapsedRealtimeNanos,AccelXMps2,AccelYMps2,AccelZMps2,CalibrationAccuracy
# 
# UncalGyro,utcTimeMillis,elapsedRealtimeNanos,UncalGyroXRadPerSec,UncalGyroYRadPerSec,UncalGyroZRadPerSec,DriftXRadPerSec,DriftYRadPerSec,DriftZRadPerSec,CalibrationAccuracy
# 
# Gyro,utcTimeMillis,elapsedRealtimeNanos,GyroXRadPerSec,GyroYRadPerSec,GyroZRadPerSec,CalibrationAccuracy
# 
# UncalMag,utcTimeMillis,elapsedRealtimeNanos,UncalMagXMicroT,UncalMagYMicroT,UncalMagZMicroT,BiasXMicroT,BiasYMicroT,BiasZMicroT,CalibrationAccuracy
# 
# Mag,utcTimeMillis,elapsedRealtimeNanos,MagXMicroT,MagYMicroT,MagZMicroT,CalibrationAccuracy
# 
# Pressure,utcTimeMillis,elapsedRealtimeNanos,PressureHpa,CalibrationAccuracy
# 
# OrientationDeg,utcTimeMillis,elapsedRealtimeNanos,yawDeg,rollDeg,pitchDeg,CalibrationAccuracy
# 
# Fix,Provider,LatitudeDegrees,LongitudeDegrees,AltitudeMeters,SpeedMps,AccuracyMeters,BearingDegrees,UnixTimeMillis,SpeedAccuracyMps,BearingAccuracyDegrees,elapsedRealtimeNanos,VerticalAccuracyMeters,MockLocation,NumberOfUsedSignals,VerticalSpeedAccuracyMps,SolutionType
# 
# Nav,Svid,Type,Status,MessageId,Sub-messageId,Data(Bytes)
# 
# Status,UnixTimeMillis,SignalCount,SignalIndex,ConstellationType,Svid,CarrierFrequencyHz,Cn0DbHz,AzimuthDegrees,ElevationDegrees,UsedInFix,HasAlmanacData,HasEphemerisData,BasebandCn0DbHz
# 
# Agc,utcTimeMillis,TimeNanos,LeapSecond,TimeUncertaintyNanos,FullBiasNanos,BiasNanos,BiasUncertaintyNanos,DriftNanosPerSecond,DriftUncertaintyNanosPerSecond,HardwareClockDiscontinuityCount,AgcDb,CarrierFrequencyHz,ConstellationType
# 
Fix,FLP,40.0366509000,-105.2641795000,1612.5,,34.652,,1758759802163,,,3586607947000000,0.8413812,0,,,
Fix,NLP,40.0366509000,-105.2641795000,1612.5,,34.652,,1758759802163,,,3586607947000000,1.5167243,0,,,
Status,,21,0,1,9,1575420000,43.60,191.4,68.4,1,0,1,40.1
Status,,21,1,1,7,1575420000,36.70,315.5,60.0,1,0,1,33.2
Status,,21,2,1,8,1575420000,39.00,112.8,49.6,1,0,1,35.5
Status,,21,3,1,27,1575420000,38.60,67.3,37.6,1,0,1,35.1
Status,,21,4,1,4,1575420000,37.90,152.3,32.8,1,0,1,34.4
Status,,21,5,1,30,1575420000,36.10,293.9,31.5,1,0,1,32.6
Status,,21,6,1,16,1575420000,39.60,49.5,20.8,1,0,1,36.1
Status,,21,7,1,21,1575420000,41.30,297.5,18.8,1,0,1,37.8
Status,,21,8,1,14,1575420000,40.90,235.0,12.6,1,0,1,37.4
Status,,21,9,3,13,1600875000,37.50,333.7,63.6,1,0,1,34.0
Status,,21,10,3,3,1604812500,43.70,281.1,63.4,1,0,1,40.2
Status,,21,11,3,2,1599750000,45.80,182.2,36.9,1,0,1,42.3
Status,,21,12,3,12,1601437400,43.10,42.4,34.0,1,0,1,39.6
Status,,21,13,3,14,1598062500,34.10,260.8,24.0,1,0,1,30.6
Status,,21,14,3,4,1605375000,37.10,328.8,23.1,1,0,1,33.6
Status,,21,15,3,22,1600312400,33.50,77.7,15.3,1,0,1,30.0
Status,,21,16,6,23,1575420000,39.40,229.5,73.1,1,0,1,35.9
Status,,21,17,6,4,1575420000,34.30,303.2,61.8,0,0,1,30.8
Status,,21,18,6,19,1575420000,28.60,150.5,54.7,1,0,1,25.1
Status,,21,19,6,6,1575420000,32.80,312.0,35.4,1,0,1,29.3
Status,,21,20,6,31,1575420000,38.00,228.3,20.9,1,0,1,34.5
Agc,,2120595760,18,,,,,,,48199,7.800000190734863,1575420032,1
Agc,,2120595760,18,,,,,,,48199,7.800000190734863,1575420032,1
Agc,,2120595760,18,,,,,,,48199,7.800000190734863,1575420032,1
Agc,,2120595760,18,,,,,,,48199,7.800000190734863,1575420032,1
Agc,,2120595760,18,,,,,,,48199,7.800000190734863,1575420032,1
Agc,,2120595760,18,,,,,,,48199,7.800000190734863,1575420032,1
Agc,,2120595760,18,,,,,,,48199,7.800000190734863,1575420032,1
Agc,,2120595760,18,,,,,,,48199,7.800000190734863,1575420032,1
Agc,,2120595760,18,,,,,,,48199,7.800000190734863,1575420032,1
Agc,,2120595760,18,,,,,,,48199,7.800000190734863,1599750016,3
Agc,,2120595760,18,,,,,,,48199,7.800000190734863,1604812544,3
Agc,,2120595760,18,,,,,,,48199,7.800000190734863,1601437440,3
Agc,,2120595760,18,,,,,,,48199,7.800000190734863,1575420032,6
Agc,,2120595760,18,,,,,,,48199,7.800000190734863,1575420032,6
Agc,,2120595760,18,,,,,,,48199,7.800000190734863,1575420032,6
Agc,,2120595760,18,,,,,,,48199,7.800000190734863,1605374976,3
Agc,,2120595760,18,,,,,,,48199,7.800000190734863,1600875008,3
Agc,,2120595760,18,,,,,,,48199,7.800000190734863,1598062464,3
Agc,,2120595760,18,,,,,,,48199,7.800000190734863,1600312448,3
Agc,,2120595760,18,,,,,,,48199,7.800000190734863,1575420032,6
Agc,,2120595760,18,,,,,,,48199,7.800000190734863,1575420032,6
Status,,22,0,1,9,1575420000,44.40,191.4,68.4,1,0,1,40.9
Status,,22,1,1,7,1575420000,37.30,315.5,60.0,1,0,1,33.8
Status,,22,2,1,8,1575420000,39.70,112.8,49.6,1,0,1,36.2
Status,,22,3,1,27,1575420000,39.40,67.3,37.6,1,0,1,35.9
Status,,22,4,1,4,1575420000,38.90,152.3,32.8,1,0,1,35.4
Status,,22,5,1,30,1575420000,36.10,293.9,31.5,1,0,1,32.6
Status,,22,6,1,16,1575420000,39.50,49.5,20.8,1,0,1,36.0
Status,,22,7,1,21,1575420000,41.60,297.5,18.8,1,0,1,38.1
Status,,22,8,1,14,1575420000,40.80,235.0,12.6,1,0,1,37.3
Status,,22,9,3,13,1600875000,39.30,333.7,63.6,1,0,1,35.8
Status,,22,10,3,3,1604812500,44.30,281.1,63.4,1,0,1,40.8
Status,,22,11,3,2,1599750000,47.10,182.2,36.9,1,0,1,43.6
Status,,22,12,3,12,1601437400,43.00,42.4,34.0,1,0,1,39.5
Status,,22,13,3,14,1598062500,35.20,260.8,24.0,1,0,1,31.7
Status,,22,14,3,4,1605375000,38.70,328.8,23.1,1,0,1,35.2
Status,,22,15,3,22,1600312400,33.70,77.7,15.3,1,0,1,30.2
Status,,22,16,6,23,1575420000,41.60,229.5,73.1,1,0,1,38.1
Status,,22,17,6,4,1575420000,36.30,303.2,61.8,1,0,1,32.8
Status,,22,18,6,19,1575420000,31.40,150.5,54.7,1,0,1,27.9
Status,,22,19,6,21,1575420000,31.00,48.1,50.2,1,0,1,27.5
Status,,22,20,6,6,1575420000,36.00,312.0,35.4,1,0,1,32.5
Status,,22,21,6,31,1575420000,39.90,228.3,20.9,1,0,1,36.4
Agc,,3121943918,18,,,,,,,48199,7.800000190734863,1575420032,1
Agc,,3121943918,18,,,,,,,48199,7.800000190734863,1575420032,1
Agc,,3121943918,18,,,,,,,48199,7.800000190734863,1575420032,1
Agc,,3121943918,18,,,,,,,48199,7.800000190734863,1575420032,1
Agc,,3121943918,18,,,,,,,48199,7.800000190734863,1575420032,1
Agc,,3121943918,18,,,,,,,48199,7.800000190734863,1575420032,1
Agc,,3121943918,18,,,,,,,48199,7.800000190734863,1575420032,1
Agc,,3121943918,18,,,,,,,48199,7.800000190734863,1575420032,1
Agc,,3121943918,18,,,,,,,48199,7.800000190734863,1575420032,1
Agc,,3121943918,18,,,,,,,48199,7.800000190734863,1599750016,3
Agc,,3121943918,18,,,,,,,48199,7.800000190734863,1604812544,3
Agc,,3121943918,18,,,,,,,48199,7.800000190734863,1601437440,3
Agc,,3121943918,18,,,,,,,48199,7.800000190734863,1575420032,6
Agc,,3121943918,18,,,,,,,48199,7.800000190734863,1575420032,6
Agc,,3121943918,18,,,,,,,48199,7.800000190734863,1600875008,3
Agc,,3121943918,18,,,,,,,48199,7.800000190734863,1605374976,3
Agc,,3121943918,18,,,,,,,48199,7.800000190734863,1575420032,6
Agc,,3121943918,18,,,,,,,48199,7.800000190734863,1575420032,6
Agc,,3121943918,18,,,,,,,48199,7.800000190734863,1598062464,3
Agc,,3121943918,18,,,,,,,48199,7.800000190734863,1600312448,3
Agc,,3121943918,18,,,,,,,48199,7.800000190734863,1575420032,6
Agc,,3121943918,18,,,,,,,48199,7.800000190734863,1575420032,6
Fix,GPS,40.0364379818,-105.2648075670,1608.0,18.85,13.265306,270.1,1758759805002,0.32,4.2,3586611055024213,11.0,0,,,
Fix,FLP,40.0364380000,-105.2648076000,1612.5,18.85,23.958,270.0,1758759805271,0.32,4.2,3586611055024213,0.85432434,0,,,
Status,1758759805002,22,0,1,9,1575420000,44.50,191.4,68.4,1,0,1,41.0
Status,1758759805002,22,1,1,7,1575420000,37.80,315.5,60.0,1,0,1,34.3
Status,1758759805002,22,2,1,8,1575420000,40.30,112.8,49.6,1,0,1,36.8
Status,1758759805002,22,3,1,27,1575420000,39.80,67.3,37.6,1,0,1,36.3
Status,1758759805002,22,4,1,4,1575420000,39.10,152.3,32.8,1,0,1,35.6
Status,1758759805002,22,5,1,30,1575420000,36.40,293.9,31.5,1,0,1,32.9
Status,1758759805002,22,6,1,16,1575420000,39.30,49.5,20.8,1,0,1,35.8
Status,1758759805002,22,7,1,21,1575420000,41.90,297.5,18.8,1,0,1,38.4
Status,1758759805002,22,8,1,14,1575420000,40.80,235.0,12.6,1,0,1,37.3
Status,1758759805002,22,9,3,13,1600875000,39.60,333.7,63.6,1,0,1,36.1
Status,1758759805002,22,10,3,3,1604812500,44.30,281.1,63.4,1,0,1,40.8
Status,1758759805002,22,11,3,2,1599750000,47.50,182.2,36.9,1,0,1,44.0
Status,1758759805002,22,12,3,12,1601437400,43.00,42.4,34.0,1,0,1,39.5
Status,1758759805002,22,13,3,14,1598062500,35.40,260.8,24.0,1,0,1,31.9
Status,1758759805002,22,14,3,4,1605375000,39.30,328.8,23.1,1,0,1,35.8
Status,1758759805002,22,15,3,22,1600312400,33.60,77.7,15.3,1,0,1,30.1
Status,1758759805002,22,16,6,23,1575420000,42.10,229.5,73.1,1,0,1,38.6
Status,1758759805002,22,17,6,4,1575420000,37.90,303.2,61.8,1,0,1,34.4
Status,1758759805002,22,18,6,19,1575420000,32.40,150.5,54.7,1,0,1,28.9
Status,1758759805002,22,19,6,21,1575420000,30.90,48.1,50.2,1,0,1,27.4
Status,1758759805002,22,20,6,6,1575420000,36.80,312.0,35.4,1,0,1,33.3
Status,1758759805002,22,21,6,31,1575420000,40.90,228.3,20.9,1,0,1,37.4
Raw,1758759805002,4122416886,18,,-1442795018879597312,0.0,2000022.875,,,48199,9,0.0,19,14359646,10,44.5,607.6900634765625,0.05948840081691742,25,-16440.497078034416,0.04206424951553345,1575420000,,,,0,,1,7.800000190734863,41.0,0.46566128730773926,,0.46566128730773926,,C,3586611055024213,0,,,,,,,,,0.000000027939677238464355,0.000000022351741790771484,-0.00000011920928955078125,-0.00000011920928955078125,135168.0,0.0,-196608.0,262144.0
Raw,1758759805002,4122416886,18,,-1442795018879597312,0.0,2000022.875,,,48199,21,0.0,19,2616078,10,41.900001525878906,324.317626953125,0.0678168386220932,25,-19168.16323601656,0.0479532852768898,1575420000,,,,0,,1,7.800000190734863,38.400001525878906,-9.313225746154785,,-9.313225746154785,,C,3586611055024213,0,,,,,,,,,0.000000027939677238464355,0.000000022351741790771484,-0.00000011920928955078125,-0.00000011920928955078125,135168.0,0.0,-196608.0,262144.0
Raw,1758759805002,4122416886,18,,-1442795018879597312,0.0,2000022.875,,,48199,8,0.0,19,12007093,10,40.29999923706055,150.08197021484375,0.07384215295314789,25,-17876.47702421141,0.05221378803253174,1575420000,,,,0,,1,7.800000190734863,36.79999923706055,4.656612873077393,,4.656612873077393,,C,3586611055024213,0,,,,,,,,,0.000000027939677238464355,0.000000022351741790771484,-0.00000011920928955078125,-0.00000011920928955078125,135168.0,0.0,-196608.0,262144.0
Raw,1758759805002,4122416886,18,,-1442795018879597312,0.0,2000022.875,,,48199,27,0.0,19,8987777,10,39.79999923706055,554.98681640625,0.07589038461446762,25,-16612.947835682477,0.05366209149360657,1575420000,,,,0,,1,7.800000190734863,36.29999923706055,1.862645149230957,,1.862645149230957,,C,3586611055024213,0,,,,,,,,,0.000000027939677238464355,0.000000022351741790771484,-0.00000011920928955078125,-0.00000011920928955078125,135168.0,0.0,-196608.0,262144.0
Raw,1758759805002,4122416886,18,,-1442795018879597312,0.0,2000022.875,,,48199,14,0.0,19,584120,10,40.79999923706055,-264.7503356933594,0.07187574356794357,25,-17404.04606464458,0.05082333832979202,1575420000,,,,0,,1,7.800000190734863,37.29999923706055,-7.916241884231567,,-7.916241884231567,,C,3586611055024213,0,,,,,,,,,0.000000027939677238464355,0.000000022351741790771484,-0.00000011920928955078125,-0.00000011920928955078125,135168.0,0.0,-196608.0,262144.0
Raw,1758759805002,4122416886,18,,-1442795018879597312,0.0,2000022.875,,,48199,4,0.0,19,6940905,10,39.099998474121094,978.2736206054688,0.07890418916940689,25,-17186.579459453133,0.0557931512594223,1575420000,,,,0,,1,7.800000190734863,35.599998474121094,-4.656612873077393,,-4.656612873077393,,C,3586611055024213,0,,,,,,,,,0.000000027939677238464355,0.000000022351741790771484,-0.00000011920928955078125,-0.00000011920928955078125,135168.0,0.0,-196608.0,262144.0
Raw,1758759805002,4122416886,18,,-1442795018879597312,0.0,2000022.875,,,48199,7,0.0,19,10504395,11,37.79999923706055,81.87808227539062,0.08499860018491745,25,-19900.32835715253,0.06010251119732857,1575420000,,,,0,,1,7.800000190734863,34.29999923706055,-10.710209608078003,,-10.710209608078003,,C,3586611055024213,0,,,,,,,,,0.000000027939677238464355,0.000000022351741790771484,-0.00000011920928955078125,-0.00000011920928955078125,135168.0,0.0,-196608.0,262144.0
Raw,1758759805002,4122416886,18,,-1442795018879597312,0.0,2000022.875,,,48199,16,0.0,19,3812431,10,39.29999923706055,1038.69384765625,0.07802503556013107,17,-15107.798836935064,0.15031833946704865,1575420000,,,,0,,1,7.800000190734863,35.79999923706055,-10.710209608078003,,-10.710209608078003,,C,3586611055024213,0,,,,,,,,,0.000000027939677238464355,0.000000022351741790771484,-0.00000011920928955078125,-0.00000011920928955078125,135168.0,0.0,-196608.0,262144.0
Raw,1758759805002,4122416886,18,,-1442795018879597312,0.0,2000022.875,,,48199,30,0.0,19,5503752,12,36.400001525878906,-138.5621337890625,0.09238641709089279,25,-20565.518465074747,0.06532643735408783,1575420000,,,,0,,1,7.800000190734863,32.900001525878906,4.190951585769653,,4.190951585769653,,C,3586611055024213,0,,,,,,,,,0.000000027939677238464355,0.000000022351741790771484,-0.00000011920928955078125,-0.00000011920928955078125,135168.0,0.0,-196608.0,262144.0
Raw,1758759805002,4122416886,18,,-1442795018879597312,0.0,2000022.875,,,48199,2,0.0,51,11383156,10,47.5,1060.9476318359375,0.05165289342403412,19,-1153211.9815078315,0.13022354245185852,1599750000,,,,0,,3,7.800000190734863,44.0,4.656612873077392,,4.656612873077392,,C,3586611055024213,0,,,,,,,,,0.000000027939677238464355,0.000000022351741790771484,-0.00000011920928955078125,-0.00000011920928955078125,135168.0,0.0,-196608.0,262144.0
Raw,1758759805002,4122416886,18,,-1442795018879597312,0.0,2000022.875,,,48199,3,0.0,51,16400370,10,44.29999923706055,282.37860107421875,0.06007305160164833,19,2382306.9224451627,0.13588185608386993,1604812500,,,,0,,3,7.800000190734863,40.79999923706055,4.656612873077392,,4.656612873077392,,C,3586611055024213,0,,,,,,,,,0.000000027939677238464355,0.000000022351741790771484,-0.00000011920928955078125,-0.00000011920928955078125,135168.0,0.0,-196608.0,262144.0
Raw,1758759805002,4122416886,18,,-1442795018879597312,0.0,2000022.875,,,48199,12,0.0,51,10408164,10,43.0,873.367919921875,0.06409229338169098,19,-103023.74150824134,0.13892072439193726,1601437400,,,,0,,3,7.800000190734863,39.5,4.656612873077392,,4.656612873077392,,C,3586611055024213,0,,,,,,,,,0.000000027939677238464355,0.000000022351741790771484,-0.00000011920928955078125,-0.00000011920928955078125,135168.0,0.0,-196608.0,262144.0
Raw,1758759805002,4122416886,18,,-1442795018879597312,0.0,2000022.875,,,48199,23,0.0,1040,3614075,10,42.099998474121094,196.2779998779297,0.0671159029006958,25,-19554.197578296335,0.047457654029130936,1575420000,,,,0,,6,7.800000190734863,38.599998474121094,-1.57160684466362,,-1.57160684466362,,C,3586611055024213,0,,,,,,,,,0.000000027939677238464355,0.000000022351741790771484,-0.00000011920928955078125,-0.00000011920928955078125,135168.0,0.0,-196608.0,262144.0
Raw,1758759805002,4122416886,18,,-1442795018879597312,0.0,2000022.875,,,48199,31,0.0,1040,3666791,10,40.900001525878906,-151.57192993164062,0.07149188965559006,25,-18821.523243882184,0.05055191367864609,1575420000,,,,0,,6,7.800000190734863,37.400001525878906,0.9895302355289459,,0.9895302355289459,,C,3586611055024213,0,,,,,,,,,0.000000027939677238464355,0.000000022351741790771484,-0.00000011920928955078125,-0.00000011920928955078125,135168.0,0.0,-196608.0,262144.0
Raw,1758759805002,4122416886,18,,-1442795018879597312,0.0,2000022.875,,,48199,13,0.0,51,16256388,10,39.599998474121094,408.0604553222656,0.07673361152410507,17,-179000.46655009218,0.14789226651191711,1600875000,,,,0,,3,7.800000190734863,36.099998474121094,4.656612873077392,,4.656612873077392,,C,3586611055024213,0,,,,,,,,,0.000000027939677238464355,0.000000022351741790771484,-0.00000011920928955078125,-0.00000011920928955078125,135168.0,0.0,-196608.0,262144.0
Raw,1758759805002,4122416886,18,,-1442795018879597312,0.0,2000022.875,,,48199,4,0.0,51,7573551,10,39.29999923706055,-337.47296142578125,0.07802503556013107,18,2729702.7234591004,0.14854297041893005,1605375000,,,,0,,3,7.800000190734863,35.79999923706055,4.656612873077392,,4.656612873077392,,C,3586611055024213,0,,,,,,,,,0.000000027939677238464355,0.000000022351741790771484,-0.00000011920928955078125,-0.00000011920928955078125,135168.0,0.0,-196608.0,262144.0
Raw,1758759805002,4122416886,18,,-1442795018879597312,0.0,2000022.875,,,48199,4,0.0,1040,3980681,11,37.900001525878906,124.70780944824219,0.08450513333082199,16,-34901.6341666916,0.1549004167318344,1575420000,,,,0,,6,7.800000190734863,34.400001525878906,-7.62520357966423,,-7.62520357966423,,C,3586611055024213,0,,,,,,,,,0.000000027939677238464355,0.000000022351741790771484,-0.00000011920928955078125,-0.00000011920928955078125,135168.0,0.0,-196608.0,262144.0
Raw,1758759805002,4122416886,18,,-1442795018879597312,0.0,2000022.875,,,48199,6,0.0,1040,3815989,12,36.79999923706055,-83.30740356445312,0.09018027782440186,25,-22457.165513361433,0.0637664720416069,1575420000,,,,0,,6,7.800000190734863,33.29999923706055,0.29103830456733704,,0.29103830456733704,,C,3586611055024213,0,,,,,,,,,0.000000027939677238464355,0.000000022351741790771484,-0.00000011920928955078125,-0.00000011920928955078125,135168.0,0.0,-196608.0,262144.0
Raw,1758759805002,4122416886,18,,-1442795018879597312,0.0,2000022.875,,,48199,14,0.0,51,7628019,13,35.400001525878906,-159.87294006347656,0.09826947748661041,18,-2207249.8449007003,0.16328507661819458,1598062500,,,,0,,3,7.800000190734863,31.899999618530273,4.656612873077392,,4.656612873077392,,C,3586611055024213,0,,,,,,,,,0.000000027939677238464355,0.000000022351741790771484,-0.00000011920928955078125,-0.00000011920928955078125,135168.0,0.0,-196608.0,262144.0
Raw,1758759805002,4122416886,18,,-1442795018879597312,0.0,2000022.875,,,48199,19,0.0,1040,3505604,15,32.400001525878906,696.5445556640625,0.1197303757071495,25,-22177.251218253878,0.08466134965419769,1575420000,,,,0,,6,7.800000190734863,28.899999618530273,-7.159542292356491,,-7.159542292356491,,C,3586611055024213,0,,,,,,,,,0.000000027939677238464355,0.000000022351741790771484,-0.00000011920928955078125,-0.00000011920928955078125,135168.0,0.0,-196608.0,262144.0
Raw,1758759805002,4122416886,18,,-1442795018879597312,0.0,2000022.875,,,48199,22,0.0,51,4885061,14,33.599998474121094,-30.088449478149414,0.11037405580282211,16,-266867.8782630734,0.17171233892440796,1600312400,,,,0,,3,7.800000190734863,30.100000381469727,4.656612873077392,,4.656612873077392,,C,3586611055024213,0,,,,,,,,,0.000000027939677238464355,0.000000022351741790771484,-0.00000011920928955078125,-0.00000011920928955078125,135168.0,0.0,-196608.0,262144.0
Raw,1758759805002,4122416886,18,,-1442795018879597312,0.0,2000022.875,,,48199,21,0.0,1040,3632068,16,30.899999618530273,694.7449340820312,0.13319836556911469,18,-62146.419677657104,0.18933139741420746,1575420000,,,,0,,6,7.800000190734863,27.399999618530273,-2.270098775625229,,-2.270098775625229,,C,3586611055024213,0,,,,,,,,,0.000000027939677238464355,0.000000022351741790771484,-0.00000011920928955078125,-0.00000011920928955078125,135168.0,0.0,-196608.0,262144.0
Agc,1758759805002,4122416886,18,,-1442795018879597312,0.0,2000022.875,,,48199,7.800000190734863,1575420032,1
Agc,1758759805002,4122416886,18,,-1442795018879597312,0.0,2000022.875,,,48199,7.800000190734863,1575420032,1
Agc,1758759805002,4122416886,18,,-1442795018879597312,0.0,2000022.875,,,48199,7.800000190734863,1575420032,1
Agc,1758759805002,4122416886,18,,-1442795018879597312,0.0,2000022.875,,,48199,7.800000190734863,1575420032,1
Agc,1758759805002,4122416886,18,,-1442795018879597312,0.0,2000022.875,,,48199,7.800000190734863,1575420032,1
Agc,1758759805002,4122416886,18,,-1442795018879597312,0.0,2000022.875,,,48199,7.800000190734863,1575420032,1
Agc,1758759805002,4122416886,18,,-1442795018879597312,0.0,2000022.875,,,48199,7.800000190734863,1575420032,1
Agc,1758759805002,4122416886,18,,-1442795018879597312,0.0,2000022.875,,,48199,7.800000190734863,1575420032,1
Agc,1758759805002,4122416886,18,,-1442795018879597312,0.0,2000022.875,,,48199,7.800000190734863,1575420032,1
Agc,1758759805002,4122416886,18,,-1442795018879597312,0.0,2000022.875,,,48199,7.800000190734863,1599750016,3
Agc,1758759805002,4122416886,18,,-1442795018879597312,0.0,2000022.875,,,48199,7.800000190734863,1604812544,3
Agc,1758759805002,4122416886,18,,-1442795018879597312,0.0,2000022.875,,,48199,7.800000190734863,1601437440,3
Agc,1758759805002,4122416886,18,,-1442795018879597312,0.0,2000022.875,,,48199,7.800000190734863,1575420032,6
Agc,1758759805002,4122416886,18,,-1442795018879597312,0.0,2000022.875,,,48199,7.800000190734863,1575420032,6
Agc,1758759805002,4122416886,18,,-1442795018879597312,0.0,2000022.875,,,48199,7.800000190734863,1600875008,3
Agc,1758759805002,4122416886,18,,-1442795018879597312,0.0,2000022.875,,,48199,7.800000190734863,1605374976,3
Agc,1758759805002,4122416886,18,,-1442795018879597312,0.0,2000022.875,,,48199,7.800000190734863,1575420032,6
Agc,1758759805002,4122416886,18,,-1442795018879597312,0.0,2000022.875,,,48199,7.800000190734863,1575420032,6
Agc,1758759805002,4122416886,18,,-1442795018879597312,0.0,2000022.875,,,48199,7.800000190734863,1598062464,3
Agc,1758759805002,4122416886,18,,-1442795018879597312,0.0,2000022.875,,,48199,7.800000190734863,1575420032,6
Agc,1758759805002,4122416886,18,,-1442795018879597312,0.0,2000022.875,,,48199,7.800000190734863,1600312448,3
Agc,1758759805002,4122416886,18,,-1442795018879597312,0.0,2000022.875,,,48199,7.800000190734863,1575420032,6
Fix,FLP,40.0364296000,-105.2648790000,1612.5,19.01,19.543,270.0,1758759805572,0.35,3.8,3586611356615664,0.96428454,0,,,
Status,,22,0,1,9,1575420000,44.60,191.3,68.4,1,0,1,41.1
Status,,22,1,1,7,1575420000,37.90,315.6,60.1,1,0,1,34.4
Status,,22,2,1,8,1575420000,40.40,112.8,49.6,1,0,1,36.9
Status,,22,3,1,27,1575420000,39.90,67.3,37.6,1,0,1,36.4
Status,,22,4,1,4,1575420000,39.10,152.3,32.8,1,0,1,35.6
Status,,22,5,1,30,1575420000,36.60,294.0,31.6,1,0,1,33.1
Status,,22,6,1,16,1575420000,39.20,49.5,20.7,1,0,1,35.7
Status,,22,7,1,21,1575420000,41.90,297.5,18.8,1,0,1,38.4
Status,,22,8,1,14,1575420000,40.70,235.0,12.6,1,0,1,37.2
Status,,22,9,3,13,1600875000,39.60,333.7,63.6,1,0,1,36.1
Status,,22,10,3,3,1604812500,44.20,281.1,63.4,1,0,1,40.7
Status,,22,11,3,2,1599750000,47.80,182.2,36.9,1,0,1,44.3
Status,,22,12,3,12,1601437400,42.90,42.4,34.0,1,0,1,39.4
Status,,22,13,3,14,1598062500,35.60,260.8,24.0,1,0,1,32.1
Status,,22,14,3,4,1605375000,39.30,328.8,23.1,1,0,1,35.8
Status,,22,15,3,22,1600312400,33.60,77.7,15.3,1,0,1,30.1
Status,,22,16,6,23,1575420000,42.10,229.5,73.2,1,0,1,38.6
Status,,22,17,6,4,1575420000,38.10,303.2,61.9,1,0,1,34.6
Status,,22,18,6,19,1575420000,32.60,150.5,54.7,1,0,1,29.1
Status,,22,19,6,21,1575420000,30.80,48.1,50.2,0,0,1,27.3
Status,,22,20,6,6,1575420000,36.90,312.0,35.5,1,0,1,33.4
Status,,22,21,6,31,1575420000,41.00,228.3,20.9,1,0,1,37.5
Raw,1758759805303,4424007331,18,,-1442795018879404800,0.0,100.06922149658203,,,48199,9,0.0,16391,347023235949481,10,44.599998474121094,607.0154418945312,0.05919927731156349,25,-16257.363460907509,0.041859809309244156,1575420000,,,,0,,1,7.800000190734863,41.099998474121094,0.46566128730773926,,0.46566128730773926,,C,3586611356615664,0,-7799262.162119247,-22944483.2973266,10681382.31762426,227.43258576469432,-1377.6895973524784,-2773.824940919425,223316.17122486036,0.0011757800821214914,0.000000027939677238464355,0.000000022351741790771484,-0.00000011920928955078125,-0.00000011920928955078125,135168.0,0.0,-196608.0,262144.0
Raw,1758759805303,4424007331,18,,-1442795018879404800,0.0,100.06922149658203,,,48199,21,0.0,19,4206171,10,41.900001525878906,322.7203674316406,0.0678168386220932,16,-19070.679036757843,0.14310011267662048,1575420000,,,,0,,1,7.800000190734863,38.400001525878906,-9.313225746154785,,-9.313225746154785,,C,3586611356615664,0,,,,,,,,,0.000000027939677238464355,0.000000022351741790771484,-0.00000011920928955078125,-0.00000011920928955078125,135168.0,0.0,-196608.0,262144.0
Raw,1758759805303,4424007331,18,,-1442795018879404800,0.0,100.06922149658203,,,48199,8,0.0,16391,347023233597381,10,40.400001525878906,149.0711212158203,0.07344246655702591,25,-17831.441388997497,0.051931168884038925,1575420000,,,,0,,1,7.800000190734863,36.900001525878906,4.656612873077393,,4.656612873077393,,C,3586611356615664,0,6711188.568539846,-23191611.38616572,10368298.26223887,374.2640998640683,1346.563983636967,2774.2416301135263,159023.02267936972,-0.0014255830319598317,0.000000027939677238464355,0.000000022351741790771484,-0.00000011920928955078125,-0.00000011920928955078125,135168.0,0.0,-196608.0,262144.0
Raw,1758759805303,4424007331,18,,-1442795018879404800,0.0,100.06922149658203,,,48199,27,0.0,16391,347023230577663,10,39.900001525878906,553.9462890625,0.07547397166490555,25,-16445.753712068174,0.05336764454841614,1575420000,,,,0,,1,7.800000190734863,36.400001525878906,1.862645149230957,,1.862645149230957,,C,3586611356615664,0,12538539.844429422,-14622599.743785396,17763664.268512852,209.41938525160728,2340.089064014952,1788.2605865947621,-7797.440661271763,-0.0017061822654795833,0.000000027939677238464355,0.000000022351741790771484,-0.00000011920928955078125,-0.00000011920928955078125,135168.0,0.0,-196608.0,262144.0
Raw,1758759805303,4424007331,18,,-1442795018879404800,0.0,100.06922149658203,,,48199,14,0.0,19,2174843,10,40.70000076293945,-265.4386291503906,0.07226268202066422,25,-17483.993458872363,0.05109694227576256,1575420000,,,,0,,1,7.800000190734863,37.20000076293945,-7.916241884231567,,-7.916241884231567,,C,3586611356615664,0,,,,,,,,,0.000000027939677238464355,0.000000022351741790771484,-0.00000011920928955078125,-0.00000011920928955078125,135168.0,0.0,-196608.0,262144.0
Raw,1758759805303,4424007331,18,,-1442795018879404800,0.0,100.06922149658203,,,48199,4,0.0,16391,347023228530367,10,39.099998474121094,977.341064453125,0.07890418916940689,25,-16891.724739459154,0.0557931512594223,1575420000,,,,0,,1,7.800000190734863,35.599998474121094,-4.656612873077393,,-4.656612873077393,,C,3586611356615664,0,1858965.8775162757,-26387590.07094734,-883301.2028026953,265.8875055495558,127.89072730498188,-3201.0637651062857,3051.686635891032,0.000674902328682947,0.000000027939677238464355,0.000000022351741790771484,-0.00000011920928955078125,-0.00000011920928955078125,135168.0,0.0,-196608.0,262144.0
Raw,1758759805303,4424007331,18,,-1442795018879404800,0.0,100.06922149658203,,,48199,7,0.0,16391,347023232094760,11,37.900001525878906,81.13175964355469,0.08450513333082199,25,-19875.743998408645,0.059753578156232834,1575420000,,,,0,,1,7.800000190734863,34.400001525878906,-10.710209608078003,,-10.710209608078003,,C,3586611356615664,0,-10912417.015706966,-11718985.532491183,21814781.452936433,2284.19243787467,-1309.3960352189638,409.61987922169595,-24310.97731350745,0.00008047294977586716,0.000000027939677238464355,0.000000022351741790771484,-0.00000011920928955078125,-0.00000011920928955078125,135168.0,0.0,-196608.0,262144.0
Raw,1758759805303,4424007331,18,,-1442795018879404800,0.0,100.06922149658203,,,48199,16,0.0,19,5401825,10,39.20000076293945,1037.6875,0.07846274971961975,17,-14794.762096003557,0.15062785148620605,1575420000,,,,0,,1,7.800000190734863,35.70000076293945,-10.710209608078003,,-10.710209608078003,,C,3586611356615664,0,,,,,,,,,0.000000027939677238464355,0.000000022351741790771484,-0.00000011920928955078125,-0.00000011920928955078125,135168.0,0.0,-196608.0,262144.0
Raw,1758759805303,4424007331,18,,-1442795018879404800,0.0,100.06922149658203,,,48199,30,0.0,16391,347023227094334,12,36.599998474121094,-139.52420043945312,0.09127336740493774,25,-20607.440568995233,0.06453939527273178,1575420000,,,,0,,1,7.800000190734863,33.099998474121094,4.190951585769653,,4.190951585769653,,C,3586611356615664,0,-19529426.519218173,-3968159.784749517,17859024.209589593,1846.089495246651,-1265.2930655563007,1729.14507998188,-7606.728535359625,0.004089204578122008,0.000000027939677238464355,0.000000022351741790771484,-0.00000011920928955078125,-0.00000011920928955078125,135168.0,0.0,-196608.0,262144.0
Raw,1758759805303,4424007331,18,,-1442795018879404800,0.0,100.06922149658203,,,48199,2,0.0,51,12972536,10,47.79999923706055,1060.193359375,0.050955675542354584,19,-1152892.1306199061,0.12973053753376007,1599750000,,,,0,,3,7.800000190734863,44.29999923706055,4.656612873077392,,4.656612873077392,,C,3586611356615664,0,,,,,,,,,0.000000027939677238464355,0.000000022351741790771484,-0.00000011920928955078125,-0.00000011920928955078125,135168.0,0.0,-196608.0,262144.0
Raw,1758759805303,4424007331,18,,-1442795018879404800,0.0,100.06922149658203,,,48199,3,0.0,51,17990545,10,44.20000076293945,281.2995300292969,0.060368604958057404,19,2382391.908913773,0.13609084486961365,1604812500,,,,0,,3,7.800000190734863,40.70000076293945,4.656612873077392,,4.656612873077392,,C,3586611356615664,0,,,,,,,,,0.000000027939677238464355,0.000000022351741790771484,-0.00000011920928955078125,-0.00000011920928955078125,135168.0,0.0,-196608.0,262144.0
Raw,1758759805303,4424007331,18,,-1442795018879404800,0.0,100.06922149658203,,,48199,12,0.0,51,11997737,10,42.900001525878906,872.9147338867188,0.06441804021596909,19,-102760.42779723766,0.13915105164051056,1601437400,,,,0,,3,7.800000190734863,39.400001525878906,4.656612873077392,,4.656612873077392,,C,3586611356615664,0,,,,,,,,,0.000000027939677238464355,0.000000022351741790771484,-0.00000011920928955078125,-0.00000011920928955078125,135168.0,0.0,-196608.0,262144.0
Raw,1758759805303,4424007331,18,,-1442795018879404800,0.0,100.06922149658203,,,48199,23,0.0,1040,1204322,10,42.099998474121094,195.34701538085938,0.0671159029006958,25,-19495.176423771663,0.047457654029130936,1575420000,,,,0,,6,7.800000190734863,38.599998474121094,-1.57160684466362,,-1.57160684466362,,C,3586611356615664,0,,,,,,,,,0.000000027939677238464355,0.000000022351741790771484,-0.00000011920928955078125,-0.00000011920928955078125,135168.0,0.0,-196608.0,262144.0
Raw,1758759805303,4424007331,18,,-1442795018879404800,0.0,100.06922149658203,,,48199,31,0.0,1040,1257392,10,41.0,-152.29676818847656,0.07111111283302307,25,-18867.38889496777,0.05028266832232475,1575420000,,,,0,,6,7.800000190734863,37.5,0.9895302355289459,,0.9895302355289459,,C,3586611356615664,0,,,,,,,,,0.000000027939677238464355,0.000000022351741790771484,-0.00000011920928955078125,-0.00000011920928955078125,135168.0,0.0,-196608.0,262144.0
Raw,1758759805303,4424007331,18,,-1442795018879404800,0.0,100.06922149658203,,,48199,13,0.0,51,17846419,10,39.599998474121094,406.6800537109375,0.07673361152410507,17,-178877.67090866785,0.14789226651191711,1600875000,,,,0,,3,7.800000190734863,36.099998474121094,4.656612873077392,,4.656612873077392,,C,3586611356615664,0,,,,,,,,,0.000000027939677238464355,0.000000022351741790771484,-0.00000011920928955078125,-0.00000011920928955078125,135168.0,0.0,-196608.0,262144.0
Raw,1758759805303,4424007331,18,,-1442795018879404800,0.0,100.06922149658203,,,48199,4,0.0,51,9164325,10,39.29999923706055,-338.39508056640625,0.07802503556013107,19,2729600.764593457,0.14854297041893005,1605375000,,,,0,,3,7.800000190734863,35.79999923706055,4.656612873077392,,4.656612873077392,,C,3586611356615664,0,,,,,,,,,0.000000027939677238464355,0.000000022351741790771484,-0.00000011920928955078125,-0.00000011920928955078125,135168.0,0.0,-196608.0,262144.0
Raw,1758759805303,4424007331,18,,-1442795018879404800,0.0,100.06922149658203,,,48199,4,0.0,1040,1571024,11,38.099998474121094,124.12637329101562,0.08353102952241898,17,-34864.09714633885,0.15421162545681,1575420000,,,,0,,6,7.800000190734863,34.599998474121094,-7.62520357966423,,-7.62520357966423,,C,3586611356615664,0,,,,,,,,,0.000000027939677238464355,0.000000022351741790771484,-0.00000011920928955078125,-0.00000011920928955078125,135168.0,0.0,-196608.0,262144.0
Raw,1758759805303,4424007331,18,,-1442795018879404800,0.0,100.06922149658203,,,48199,6,0.0,1040,1406526,12,36.900001525878906,-84.21282196044922,0.08964107185602188,25,-22482.468155486007,0.06338520348072052,1575420000,,,,0,,6,7.800000190734863,33.400001525878906,0.29103830456733704,,0.29103830456733704,,C,3586611356615664,0,,,,,,,,,0.000000027939677238464355,0.000000022351741790771484,-0.00000011920928955078125,-0.00000011920928955078125,135168.0,0.0,-196608.0,262144.0
Raw,1758759805303,4424007331,18,,-1442795018879404800,0.0,100.06922149658203,,,48199,14,0.0,51,9218613,12,35.599998474121094,-160.38040161132812,0.09704875946044922,19,-2207298.235881908,0.16242191195487976,1598062500,,,,0,,3,7.800000190734863,32.099998474121094,4.656612873077392,,4.656612873077392,,C,3586611356615664,0,,,,,,,,,0.000000027939677238464355,0.000000022351741790771484,-0.00000011920928955078125,-0.00000011920928955078125,135168.0,0.0,-196608.0,262144.0
Raw,1758759805303,4424007331,18,,-1442795018879404800,0.0,100.06922149658203,,,48199,19,0.0,1040,1095354,15,32.599998474121094,695.3588256835938,0.11809024214744568,25,-21967.389984267866,0.08350160717964172,1575420000,,,,0,,6,7.800000190734863,29.100000381469727,-7.159542292356491,,-7.159542292356491,,C,3586611356615664,0,,,,,,,,,0.000000027939677238464355,0.000000022351741790771484,-0.00000011920928955078125,-0.00000011920928955078125,135168.0,0.0,-196608.0,262144.0
Raw,1758759805303,4424007331,18,,-1442795018879404800,0.0,100.06922149658203,,,48199,22,0.0,51,6475514,14,33.599998474121094,-30.838382720947266,0.11037405580282211,16,-266877.05243252375,0.17171233892440796,1600312400,,,,0,,3,7.800000190734863,30.100000381469727,4.656612873077392,,4.656612873077392,,C,3586611356615664,0,,,,,,,,,0.000000027939677238464355,0.000000022351741790771484,-0.00000011920928955078125,-0.00000011920928955078125,135168.0,0.0,-196608.0,262144.0
Raw,1758759805303,4424007331,18,,-1442795018879404800,0.0,100.06922149658203,,,48199,21,0.0,1040,1221839,16,30.799999237060547,694.1818237304688,0.13417595624923706,18,-61936.98617469454,0.19002264738082886,1575420000,,,,0,,6,7.800000190734863,27.299999237060547,-2.270098775625229,,-2.270098775625229,,C,3586611356615664,0,,,,,,,,,0.000000027939677238464355,0.000000022351741790771484,-0.00000011920928955078125,-0.00000011920928955078125,135168.0,0.0,-196608.0,262144.0
Agc,1758759805303,4424007331,18,,-1442795018879404800,0.0,100.06922149658203,,,48199,7.800000190734863,1575420032,1
Agc,1758759805303,4424007331,18,,-1442795018879404800,0.0,100.06922149658203,,,48199,7.800000190734863,1575420032,1
Agc,1758759805303,4424007331,18,,-1442795018879404800,0.0,100.06922149658203,,,48199,7.800000190734863,1575420032,1
Agc,1758759805303,4424007331,18,,-1442795018879404800,0.0,100.06922149658203,,,48199,7.800000190734863,1575420032,1
Agc,1758759805303,4424007331,18,,-1442795018879404800,0.0,100.06922149658203,,,48199,7.800000190734863,1575420032,1
Agc,1758759805303,4424007331,18,,-1442795018879404800,0.0,100.06922149658203,,,48199,7.800000190734863,1575420032,1
Agc,1758759805303,4424007331,18,,-1442795018879404800,0.0,100.06922149658203,,,48199,7.800000190734863,1575420032,1
Agc,1758759805303,4424007331,18,,-1442795018879404800,0.0,100.06922149658203,,,48199,7.800000190734863,1575420032,1
Agc,1758759805303,4424007331,18,,-1442795018879404800,0.0,100.06922149658203,,,48199,7.800000190734863,1575420032,1
Agc,1758759805303,4424007331,18,,-1442795018879404800,0.0,100.06922149658203,,,48199,7.800000190734863,1599750016,3
Agc,1758759805303,4424007331,18,,-1442795018879404800,0.0,100.06922149658203,,,48199,7.800000190734863,1604812544,3
Agc,1758759805303,4424007331,18,,-1442795018879404800,0.0,100.06922149658203,,,48199,7.800000190734863,1601437440,3
Agc,1758759805303,4424007331,18,,-1442795018879404800,0.0,100.06922149658203,,,48199,7.800000190734863,1575420032,6
Agc,1758759805303,4424007331,18,,-1442795018879404800,0.0,100.06922149658203,,,48199,7.800000190734863,1575420032,6
Agc,1758759805303,4424007331,18,,-1442795018879404800,0.0,100.06922149658203,,,48199,7.800000190734863,1600875008,3
Agc,1758759805303,4424007331,18,,-1442795018879404800,0.0,100.06922149658203,,,48199,7.800000190734863,1605374976,3
Agc,1758759805303,4424007331,18,,-1442795018879404800,0.0,100.06922149658203,,,48199,7.800000190734863,1575420032,6
Agc,1758759805303,4424007331,18,,-1442795018879404800,0.0,100.06922149658203,,,48199,7.800000190734863,1575420032,6
Agc,1758759805303,4424007331,18,,-1442795018879404800,0.0,100.06922149658203,,,48199,7.800000190734863,1598062464,3
Agc,1758759805303,4424007331,18,,-1442795018879404800,0.0,100.06922149658203,,,48199,7.800000190734863,1575420032,6
Agc,1758759805303,4424007331,18,,-1442795018879404800,0.0,100.06922149658203,,,48199,7.800000190734863,1600312448,3
Agc,1758759805303,4424007331,18,,-1442795018879404800,0.0,100.06922149658203,,,48199,7.800000190734863,1575420032,6
Fix,GPS,40.0364462379,-105.2652677335,1610.0,19.039999,4.0816326,270.7,1758759807000,0.74,1.1,3586613053205083,5.0,0,,,
Fix,FLP,40.0364462000,-105.2652677000,1612.5,19.039999,9.353,270.0,1758759807269,0.74,1.1,3586613053205083,0.9706965,0,,,
Status,,23,0,1,9,1575420000,44.50,191.3,68.4,1,0,1,41.0
Status,,23,1,1,7,1575420000,38.30,315.6,60.1,1,0,1,34.8
Status,,23,2,1,8,1575420000,40.70,112.8,49.6,1,0,1,37.2
Status,,23,3,1,27,1575420000,40.20,67.3,37.6,1,0,1,36.7
Status,,23,4,1,4,1575420000,39.10,152.3,32.8,1,0,1,35.6
Status,,23,5,1,30,1575420000,37.50,294.0,31.6,1,0,1,34.0
Status,,23,6,1,16,1575420000,37.80,49.5,20.7,1,0,1,34.3
Status,,23,7,1,21,1575420000,41.80,297.5,18.8,1,0,1,38.3
Status,,23,8,1,14,1575420000,38.80,235.0,12.6,1,0,1,35.3
Status,,23,9,3,13,1600875000,39.60,333.7,63.6,1,0,1,36.1
Status,,23,10,3,3,1604812500,44.50,281.1,63.4,1,0,1,41.0
Status,,23,11,3,2,1599750000,48.30,182.2,36.9,1,0,1,44.8
Status,,23,12,3,12,1601437400,42.90,42.4,34.0,1,0,1,39.4
Status,,23,13,3,14,1598062500,35.70,260.8,24.0,1,0,1,32.2
Status,,23,14,3,4,1605375000,38.20,328.8,23.1,1,0,1,34.7
Status,,23,15,3,22,1600312400,30.10,77.7,15.3,1,0,1,26.6
Status,,23,16,3,23,1603687600,30.40,118.1,6.5,0,1,0,26.9
Status,,23,17,6,23,1575420000,41.80,229.5,73.2,1,0,1,38.3
Status,,23,18,6,4,1575420000,38.10,303.2,61.9,1,0,1,34.6
Status,,23,19,6,19,1575420000,33.00,150.5,54.7,1,0,1,29.5
Status,,23,20,6,21,1575420000,29.60,48.1,50.2,1,0,1,26.1
Status,,23,21,6,6,1575420000,36.10,312.0,35.5,1,0,1,32.6
Status,,23,22,6,31,1575420000,40.30,228.3,20.9,1,0,1,36.8
Raw,1758759807000,6120596982,18,,-1442795018879403008,0.0,10.226086616516113,,,48199,9,0.0,16399,347024932535734,10,44.5,591.4302368164062,0.05948840081691742,25,-15238.704292373157,0.04206424951553345,1575420000,,,,0,,1,7.800000190734863,41.0,0.46566128730773926,,0.46566128730773926,,C,3586613053205083,0,-7798876.41106791,-22946820.181221712,10676675.954451287,227.30535536997834,-1377.1174484688877,-2774.213822636686,223316.17321971513,0.0011758301698137075,0.000000027939677238464355,0.000000022351741790771484,-0.00000011920928955078125,-0.00000011920928955078125,135168.0,0.0,-196608.0,262144.0
Raw,1758759807000,6120596982,18,,-1442795018879403008,0.0,10.226086616516113,,,48199,21,0.0,16399,347024920794051,10,41.79999923706055,312.8843994140625,0.0681714415550232,25,-18534.56397132596,0.048204027116298676,1575420000,,,,0,,1,7.800000190734863,38.29999923706055,-9.313225746154785,,-9.313225746154785,,C,3586613053205083,0,-20365569.13829313,1334823.3832057249,16999580.83334734,-1740.5649785531837,-1288.7537074895654,-1983.310742786485,76267.62811209827,0.005628615355817601,0.000000027939677238464355,0.000000022351741790771484,-0.00000011920928955078125,-0.00000011920928955078125,135168.0,0.0,-196608.0,262144.0
Raw,1758759807000,6120596982,18,,-1442795018879403008,0.0,10.226086616516113,,,48199,8,0.0,16399,347024930186218,10,40.70000076293945,133.88499450683594,0.07226268202066422,25,-17589.287193053788,0.05109694227576256,1575420000,,,,0,,1,7.800000190734863,37.20000076293945,4.656612873077393,,4.656612873077393,,C,3586613053205083,0,6711823.662631957,-23189326.343381546,10373004.681611184,374.40770017253016,1347.1266974841387,2773.8549326633083,159023.02026075183,-0.0014255708374548703,0.000000027939677238464355,0.000000022351741790771484,-0.00000011920928955078125,-0.00000011920928955078125,135168.0,0.0,-196608.0,262144.0
Raw,1758759807000,6120596982,18,,-1442795018879403008,0.0,10.226086616516113,,,48199,27,0.0,16399,347024927164219,10,40.20000076293945,539.1599731445312,0.07424511015415192,25,-15516.232349656188,0.0524987168610096,1575420000,,,,0,,1,7.800000190734863,36.70000076293945,1.862645149230957,,1.862645149230957,,C,3586613053205083,0,12538895.32993185,-14618629.269825896,17766697.64087156,209.64029969901927,2340.454845201163,1787.5927430988759,-7797.443555920149,-0.0017061380312952679,0.000000027939677238464355,0.000000022351741790771484,-0.00000011920928955078125,-0.00000011920928955078125,135168.0,0.0,-196608.0,262144.0
Raw,1758759807000,6120596982,18,,-1442795018879403008,0.0,10.226086616516113,,,48199,4,0.0,16399,347024925114504,10,39.099998474121094,962.0603637695312,0.07890418916940689,25,-15244.336213878283,0.0557931512594223,1575420000,,,,0,,1,7.800000190734863,35.599998474121094,-4.656612873077393,,-4.656612873077393,,C,3586613053205083,0,1859416.9616306177,-26387372.534831565,-888732.0494170005,265.86818606482296,128.54938776507595,-3201.031442385917,3051.687780908725,0.0006748894934389682,0.000000027939677238464355,0.000000022351741790771484,-0.00000011920928955078125,-0.00000011920928955078125,135168.0,0.0,-196608.0,262144.0
Raw,1758759807000,6120596982,18,,-1442795018879403008,0.0,10.226086616516113,,,48199,7,0.0,16399,347024928683990,11,38.29999923706055,65.4107894897461,0.08257365971803665,25,-19749.238769877993,0.05838783457875252,1575420000,,,,0,,1,7.800000190734863,34.79999923706055,-10.710209608078003,,-10.710209608078003,,C,3586613053205083,0,-10908541.721981583,-11721207.269632373,21815475.77810673,2284.1422348829283,-1309.667073325376,408.875433857156,-24310.977177102573,0.00008032596815610304,0.000000027939677238464355,0.000000022351741790771484,-0.00000011920928955078125,-0.00000011920928955078125,135168.0,0.0,-196608.0,262144.0
Raw,1758759807000,6120596982,18,,-1442795018879403008,0.0,10.226086616516113,,,48199,14,0.0,16399,347024918766046,11,38.79999923706055,-275.914794921875,0.08025103062391281,16,-17946.727660666074,0.15189233422279358,1575420000,,,,0,,1,7.800000190734863,35.29999923706055,-7.916241884231567,,-7.916241884231567,,C,3586613053205083,0,-23658395.73836155,-12025184.247833882,-2953885.957187015,-162.65562512619363,-465.0415157036106,3088.780290631613,209536.26858658518,0.0016601509414613247,0.000000027939677238464355,0.000000022351741790771484,-0.00000011920928955078125,-0.00000011920928955078125,135168.0,0.0,-196608.0,262144.0
Raw,1758759807000,6120596982,18,,-1442795018879403008,0.0,10.226086616516113,,,48199,16,0.0,16399,347024921985636,11,37.79999923706055,1028.33349609375,0.08499860018491745,17,-13045.006152457805,0.15524934232234955,1575420000,,,,0,,1,7.800000190734863,34.29999923706055,-10.710209608078003,,-10.710209608078003,,C,3586613053205083,0,15513706.451697588,-6423426.229561639,20310595.21959938,2110.5901450789756,1608.7569613090175,-1041.0349128015116,33273.92877652624,0.0017029790324158967,0.000000027939677238464355,0.000000022351741790771484,-0.00000011920928955078125,-0.00000011920928955078125,135168.0,0.0,-196608.0,262144.0
Raw,1758759807000,6120596982,18,,-1442795018879403008,0.0,10.226086616516113,,,48199,30,0.0,16399,347024923684818,11,37.5,-155.17074584960938,0.08650518953800201,25,-20855.215860240234,0.061167821288108826,1575420000,,,,0,,1,7.800000190734863,34.0,4.190951585769653,,4.190951585769653,,C,3586613053205083,0,-19526294.291849617,-3970306.7679975387,17861957.325956624,1846.2892776937788,-1265.6456227598305,1728.5147147737616,-7606.721597684024,0.0040891692360673915,0.000000027939677238464355,0.000000022351741790771484,-0.00000011920928955078125,-0.00000011920928955078125,135168.0,0.0,-196608.0,262144.0
Raw,1758759807000,6120596982,18,,-1442795018879403008,0.0,10.226086616516113,,,48199,2,0.0,32867,12206929556219,10,48.29999923706055,1050.669921875,0.04982461780309677,17,-1151104.337158898,0.12893077731132507,1599750000,,,,0,,3,7.800000190734863,44.79999923706055,4.656612873077392,,4.656612873077392,,C,3586613053205083,0,-7336344.766374188,-24378648.36861615,-672144.7565796337,-160.9139726166727,153.02388702709158,-3594.052827044488,-6905.2605622038245,0.0,0.000000027939677238464355,0.000000022351741790771484,-0.00000011920928955078125,-0.00000011920928955078125,135168.0,0.0,-196608.0,262144.0
Raw,1758759807000,6120596982,18,,-1442795018879403008,0.0,10.226086616516113,,,48199,3,0.0,32867,12206934578639,10,44.5,271.92974853515625,0.05948840081691742,17,2382858.48749702,0.13546845316886902,1604812500,,,,0,,3,7.800000190734863,41.0,4.656612873077392,,4.656612873077392,,C,3586613053205083,0,-12860018.231801642,-14398069.306342876,16675388.984147208,-835.5989343026838,-2124.1575753706593,-2490.503393675919,39046.04880733788,0.0,0.000000027939677238464355,0.000000022351741790771484,-0.00000011920928955078125,-0.00000011920928955078125,135168.0,0.0,-196608.0,262144.0
Raw,1758759807000,6120596982,18,,-1442795018879403008,0.0,10.226086616516113,,,48199,12,0.0,32867,12206928582496,10,42.900001525878906,863.3804931640625,0.06441804021596909,17,-101290.51558655915,0.13915105164051056,1601437400,,,,0,,3,7.800000190734863,39.400001525878906,4.656612873077392,,4.656612873077392,,C,3586613053205083,0,10099224.353246268,-8602139.547964089,21814169.701499958,2928.430620081587,550.2942371122139,-1139.246209450953,17859.389062451733,0.0002726596521824831,0.000000027939677238464355,0.000000022351741790771484,-0.00000011920928955078125,-0.00000011920928955078125,135168.0,0.0,-196608.0,262144.0
Raw,1758759807000,6120596982,18,,-1442795018879403008,0.0,10.226086616516113,,,48199,23,0.0,19456,347024921792917,10,41.79999923706055,185.54270935058594,0.0681714415550232,18,-82572.75463626576,0.14335086941719055,1575420000,,,,0,,6,7.800000190734863,38.29999923706055,-1.57160684466362,,-1.57160684466362,,C,3586613053205083,0,-11524749.36259984,-22662717.620999467,15162524.53880583,1154.3186000374192,991.4301542614234,2358.484988261939,-3267.6593184846547,-0.0003132333517896768,0.000000027939677238464355,0.000000022351741790771484,-0.00000011920928955078125,-0.00000011920928955078125,135168.0,0.0,-196608.0,262144.0
Raw,1758759807000,6120596982,18,,-1442795018879403008,0.0,10.226086616516113,,,48199,31,0.0,19456,347024910847944,10,40.29999923706055,-162.61375427246094,0.07384215295314789,18,-83127.30357882033,0.14736062288284302,1575420000,,,,0,,6,7.800000190734863,36.79999923706055,0.9895302355289459,,0.9895302355289459,,C,3586613053205083,0,-24003318.29509694,-17142628.024105716,-2441403.728782585,-230.25876756691213,-106.17190569179452,2997.1865061444364,-26831.81417009999,-0.0006536293949466199,0.000000027939677238464355,0.000000022351741790771484,-0.00000011920928955078125,-0.00000011920928955078125,135168.0,0.0,-196608.0,262144.0
Raw,1758759807000,6120596982,18,,-1442795018879403008,0.0,10.226086616516113,,,48199,13,0.0,32867,12206934433786,10,39.599998474121094,397.27783203125,0.07673361152410507,25,-178198.32839122188,0.05425833538174629,1600875000,,,,0,,3,7.800000190734863,36.099998474121094,4.656612873077392,,4.656612873077392,,C,3586613053205083,0,-7213249.554030652,-11855187.580996083,21390725.449317645,2868.0399612438637,607.5579716517371,1303.5632928482944,-18839.534275241196,0.0,0.000000027939677238464355,0.000000022351741790771484,-0.00000011920928955078125,-0.00000011920928955078125,135168.0,0.0,-196608.0,262144.0
Raw,1758759807000,6120596982,18,,-1442795018879403008,0.0,10.226086616516113,,,48199,4,0.0,19456,347024920159993,11,38.099998474121094,114.19902038574219,0.08353102952241898,18,-82698.13515230195,0.15421162545681,1575420000,,,,0,,6,7.800000190734863,34.599998474121094,-7.62520357966423,,-7.62520357966423,,C,3586613053205083,0,-13535991.613018475,-13959199.879457043,22316635.055847913,302.64452792710597,-2218.350790296954,-1203.3305572900458,-104732.44187419872,-0.0031291858904296532,0.000000027939677238464355,0.000000022351741790771484,-0.00000011920928955078125,-0.00000011920928955078125,135168.0,0.0,-196608.0,262144.0
Raw,1758759807000,6120596982,18,,-1442795018879403008,0.0,10.226086616516113,,,48199,4,0.0,32867,12206925755954,11,38.20000076293945,-348.0137939453125,0.08305026590824127,17,2729015.8407518785,0.15209631621837616,1605375000,,,,0,,3,7.800000190734863,34.70000076293945,4.656612873077392,,4.656612873077392,,C,3586613053205083,0,-10357555.94377332,2480206.192250941,23200338.399868432,-952.3763688721663,-3026.9447741031913,-103.74606125054804,93774.81354905736,0.0008179789565474493,0.000000027939677238464355,0.000000022351741790771484,-0.00000011920928955078125,-0.00000011920928955078125,135168.0,0.0,-196608.0,262144.0
Raw,1758759807000,6120596982,18,,-1442795018879403008,0.0,10.226086616516113,,,48199,6,0.0,19456,347024914996670,12,36.099998474121094,-94.40572357177734,0.09409463405609131,18,-83015.60923019369,0.1616811454296112,1575420000,,,,0,,6,7.800000190734863,32.599998474121094,0.29103830456733704,,0.29103830456733704,,C,3586613053205083,0,-16740578.880399777,-2987496.0861236337,24206320.816687807,361.0115284031731,-2404.77476765948,-47.392313192163336,-51672.32468187689,-0.001501568047387991,0.000000027939677238464355,0.000000022351741790771484,-0.00000011920928955078125,-0.00000011920928955078125,135168.0,0.0,-196608.0,262144.0
Raw,1758759807000,6120596982,18,,-1442795018879403008,0.0,10.226086616516113,,,48199,14,0.0,32867,12206925809243,12,35.70000076293945,-170.60411071777344,0.09644688665866852,17,-2207582.3326101033,0.16199631989002228,1598062500,,,,0,,3,7.800000190734863,32.20000076293945,4.656612873077392,,4.656612873077392,,C,3586613053205083,0,,,,,,,,,0.000000027939677238464355,0.000000022351741790771484,-0.00000011920928955078125,-0.00000011920928955078125,135168.0,0.0,-196608.0,262144.0
Raw,1758759807000,6120596982,18,,-1442795018879403008,0.0,10.226086616516113,,,48199,19,0.0,19456,347024921681087,14,33.0,685.5195922851562,0.11490950733423233,18,-81776.72493933974,0.1763993501663208,1575420000,,,,0,,6,7.800000190734863,29.5,-7.159542292356491,,-7.159542292356491,,C,3586613053205083,0,-698390.6191029241,-28634532.861487377,7471476.697849432,34.346126861021055,-753.4496039287769,-2883.3891551695056,682538.457387856,0.012196063064038754,0.000000027939677238464355,0.000000022351741790771484,-0.00000011920928955078125,-0.00000011920928955078125,135168.0,0.0,-196608.0,262144.0
Raw,1758759807000,6120596982,18,,-1442795018879403008,0.0,10.226086616516113,,,48199,23,0.0,51,19849174,17,30.399999618530273,-340.2178955078125,0.13819599151611328,18,2426771.776599933,0.19118811190128326,1603687600,,,,0,,3,7.800000190734863,26.899999618530273,4.656612873077392,,4.656612873077392,,C,3586613053205083,0,,,,,,,,,0.000000027939677238464355,0.000000022351741790771484,-0.00000011920928955078125,-0.00000011920928955078125,135168.0,0.0,-196608.0,262144.0
Raw,1758759807000,6120596982,18,,-1442795018879403008,0.0,10.226086616516113,,,48199,21,0.0,19456,347024917807590,18,29.600000381469727,684.44482421875,0.14679761230945587,18,-81795.3667592225,0.19894742965698242,1575420000,,,,0,,6,7.800000190734863,26.100000381469727,-2.270098775625229,,-2.270098775625229,,C,3586613053205083,0,7935747.019768735,-15180634.457209408,24143497.31736075,1880.996014932609,1523.5451082371137,339.8634296804915,-207391.5019469746,-0.0006734439230058342,0.000000027939677238464355,0.000000022351741790771484,-0.00000011920928955078125,-0.00000011920928955078125,135168.0,0.0,-196608.0,262144.0
Raw,1758759807000,6120596982,18,,-1442795018879403008,0.0,10.226086616516113,,,48199,22,0.0,32867,12206923065304,17,30.100000381469727,-35.24527359008789,0.1413307636976242,18,-1095253.4447008625,0.1936018317937851,1600312400,,,,0,,3,7.800000190734863,26.600000381469727,4.656612873077392,,4.656612873077392,,C,3586613053205083,0,19276260.390805263,-12012504.125049321,11638059.723967431,-1198.3177506477273,1051.2000266274833,3077.5111141019565,26115.853498863555,0.0005453193043649662,0.000000027939677238464355,0.000000022351741790771484,-0.00000011920928955078125,-0.00000011920928955078125,135168.0,0.0,-196608.0,262144.0
Agc,1758759807000,6120596982,18,,-1442795018879403008,0.0,10.226086616516113,,,48199,7.800000190734863,1575420032,1
Agc,1758759807000,6120596982,18,,-1442795018879403008,0.0,10.226086616516113,,,48199,7.800000190734863,1575420032,1
Agc,1758759807000,6120596982,18,,-1442795018879403008,0.0,10.226086616516113,,,48199,7.800000190734863,1575420032,1
Agc,1758759807000,6120596982,18,,-1442795018879403008,0.0,10.226086616516113,,,48199,7.800000190734863,1575420032,1
Agc,1758759807000,6120596982,18,,-1442795018879403008,0.0,10.226086616516113,,,48199,7.800000190734863,1575420032,1
Agc,1758759807000,6120596982,18,,-1442795018879403008,0.0,10.226086616516113,,,48199,7.800000190734863,1575420032,1
Agc,1758759807000,6120596982,18,,-1442795018879403008,0.0,10.226086616516113,,,48199,7.800000190734863,1575420032,1
Agc,1758759807000,6120596982,18,,-1442795018879403008,0.0,10.226086616516113,,,48199,7.800000190734863,1575420032,1
Agc,1758759807000,6120596982,18,,-1442795018879403008,0.0,10.226086616516113,,,48199,7.800000190734863,1575420032,1
Agc,1758759807000,6120596982,18,,-1442795018879403008,0.0,10.226086616516113,,,48199,7.800000190734863,1599750016,3
Agc,1758759807000,6120596982,18,,-1442795018879403008,0.0,10.226086616516113,,,48199,7.800000190734863,1604812544,3
Agc,1758759807000,6120596982,18,,-1442795018879403008,0.0,10.226086616516113,,,48199,7.800000190734863,1601437440,3
Agc,1758759807000,6120596982,18,,-1442795018879403008,0.0,10.226086616516113,,,48199,7.800000190734863,1575420032,6
Agc,1758759807000,6120596982,18,,-1442795018879403008,0.0,10.226086616516113,,,48199,7.800000190734863,1575420032,6
Agc,1758759807000,6120596982,18,,-1442795018879403008,0.0,10.226086616516113,,,48199,7.800000190734863,1600875008,3
Agc,1758759807000,6120596982,18,,-1442795018879403008,0.0,10.226086616516113,,,48199,7.800000190734863,1575420032,6
Agc,1758759807000,6120596982,18,,-1442795018879403008,0.0,10.226086616516113,,,48199,7.800000190734863,1605374976,3
Agc,1758759807000,6120596982,18,,-1442795018879403008,0.0,10.226086616516113,,,48199,7.800000190734863,1575420032,6
Agc,1758759807000,6120596982,18,,-1442795018879403008,0.0,10.226086616516113,,,48199,7.800000190734863,1598062464,3
Agc,1758759807000,6120596982,18,,-1442795018879403008,0.0,10.226086616516113,,,48199,7.800000190734863,1575420032,6
Agc,1758759807000,6120596982,18,,-1442795018879403008,0.0,10.226086616516113,,,48199,7.800000190734863,1603687552,3
Agc,1758759807000,6120596982,18,,-1442795018879403008,0.0,10.226086616516113,,,48199,7.800000190734863,1575420032,6
Agc,1758759807000,6120596982,18,,-1442795018879403008,0.0,10.226086616516113,,,48199,7.800000190734863,1600312448,3
Fix,GPS,40.0364472019,-105.2655039355,1611.0,20.18,3.5714285,269.7,1758759808000,0.59,0.6,3586614053206427,4.0,0,,,
Fix,FLP,40.0364472000,-105.2655039000,1612.5,20.18,7.908,269.0,1758759808269,0.59,0.6,3586614053206427,1.0313028,0,,,
Status,,23,0,1,9,1575420000,44.50,191.3,68.4,1,0,1,41.0
Status,,23,1,1,7,1575420000,38.40,315.6,60.1,1,0,1,34.9
Status,,23,2,1,8,1575420000,40.90,112.8,49.6,1,0,1,37.4
Status,,23,3,1,27,1575420000,40.20,67.3,37.6,1,0,1,36.7
Status,,23,4,1,4,1575420000,39.10,152.3,32.8,1,0,1,35.6
Status,,23,5,1,30,1575420000,37.70,294.0,31.6,1,0,1,34.2
Status,,23,6,1,16,1575420000,37.80,49.5,20.7,1,0,1,34.3
Status,,23,7,1,21,1575420000,42.00,297.5,18.8,1,0,1,38.5
Status,,23,8,1,14,1575420000,38.10,235.0,12.6,1,0,1,34.6
Status,,23,9,3,13,1600875000,39.60,333.7,63.6,1,0,1,36.1
Status,,23,10,3,3,1604812500,44.50,281.1,63.4,1,0,1,41.0
Status,,23,11,3,2,1599750000,48.30,182.2,36.9,1,0,1,44.8
Status,,23,12,3,12,1601437400,42.90,42.4,34.0,1,0,1,39.4
Status,,23,13,3,14,1598062500,35.70,260.8,24.0,1,0,1,32.2
Status,,23,14,3,4,1605375000,38.80,328.8,23.1,1,0,1,35.3
Status,,23,15,3,22,1600312400,30.00,77.7,15.3,1,0,1,26.5
Status,,23,16,3,23,1603687600,30.30,118.1,6.5,0,1,0,26.8
Status,,23,17,6,23,1575420000,42.30,229.5,73.2,1,0,1,38.8
Status,,23,18,6,4,1575420000,38.50,303.2,61.9,1,0,1,35.0
Status,,23,19,6,19,1575420000,33.50,150.5,54.7,1,0,1,30.0
Status,,23,20,6,21,1575420000,30.30,48.1,50.2,1,0,1,26.8
Status,,23,21,6,6,1575420000,36.70,312.0,35.5,1,0,1,33.2
Status,,23,22,6,31,1575420000,40.20,228.3,20.9,1,0,1,36.7
Raw,1758759808000,7120598143,18,,-1442795018879401984,0.0,10.226086616516113,,,48199,9,0.0,16399,347025932534951,10,44.5,578.6182250976562,0.05948840081691742,25,-14653.844205286696,0.04206424951553345,1575420000,,,,0,,1,7.800000190734863,41.0,0.46566128730773926,,0.46566128730773926,,C,3586614053206427,0,-7798649.143359648,-22948197.12895513,10673901.628229221,227.23042460738034,-1376.7801692186786,-2774.442956144576,223316.1743955592,0.0011758597393054515,0.000000027939677238464355,0.000000022351741790771484,-0.00000011920928955078125,-0.00000011920928955078125,135168.0,0.0,-196608.0,262144.0
Raw,1758759808000,7120598143,18,,-1442795018879401984,0.0,10.226086616516113,,,48199,21,0.0,16399,347025920794195,10,42.0,293.9698486328125,0.06746499985456467,16,-18234.288879124433,0.1428513377904892,1575420000,,,,0,,1,7.800000190734863,38.5,-9.313225746154785,,-9.313225746154785,,C,3586614053206427,0,-20367309.63506978,1333534.745590778,16997597.341517024,-1740.428063266775,-1288.5211512473325,-1983.6723396303482,76267.6337407152,0.00562861685466487,0.000000027939677238464355,0.000000022351741790771484,-0.00000011920928955078125,-0.00000011920928955078125,135168.0,0.0,-196608.0,262144.0
Raw,1758759808000,7120598143,18,,-1442795018879401984,0.0,10.226086616516113,,,48199,8,0.0,16399,347025930186948,10,40.900001525878906,121.34298706054688,0.07149188965559006,25,-17461.817722401604,0.05055191367864609,1575420000,,,,0,,1,7.800000190734863,37.400001525878906,4.656612873077393,,4.656612873077393,,C,3586614053206427,0,6712198.112950687,-23187979.049884208,10375778.424569404,374.49239769846895,1347.4583243287107,2773.6269239357657,159023.01883518358,-0.001425563619704917,0.000000027939677238464355,0.000000022351741790771484,-0.00000011920928955078125,-0.00000011920928955078125,135168.0,0.0,-196608.0,262144.0
Raw,1758759808000,7120598143,18,,-1442795018879401984,0.0,10.226086616516113,,,48199,27,0.0,16399,347025927163607,10,40.20000076293945,526.4555053710938,0.07424511015415192,25,-14983.628779136532,0.0524987168610096,1575420000,,,,0,,1,7.800000190734863,36.70000076293945,1.862645149230957,,1.862645149230957,,C,3586614053206427,0,12539105.035225362,-14616288.708648667,17768485.035677932,209.77054867780703,2340.6703642877883,1787.1990508520466,-7797.445262044084,-0.00170611191970238,0.000000027939677238464355,0.000000022351741790771484,-0.00000011920928955078125,-0.00000011920928955078125,135168.0,0.0,-196608.0,262144.0
